~Version ---------------------------------------------------
VERS.   2.0 : CWLS log ASCII Standard -VERSION 2.0
WRAP.    NO : One line per depth step
DLM . SPACE : Column Data Section Delimiter
~Well ------------------------------------------------------
STRT  .m                                 0.0 : START DEPTH
STOP  .m                   11221024.30872697 : STOP DEPTH
STEP  .m                           623.56345 : STEP
NULL  .                                 -999 : NULL VALUE
COMP  .      Range Resources Appalachia, LLC : COMPANY
WELL  .                            SNRG-0001 : WELL
FLD   .                                      : FIELD
LOC   . 750'SL & 1060'EL OF NW QTR., SEC. 30 : LOCATION
PROV  .                                      : PROVINCE
CNTY  .                              Carroll : COUNTY
STAT  .                                      : STATE
CTRY  .                                      : COUNTRY
SRVC  .                                      : SERVICE COMPANY
DATE  .           2021-07-11 01:47:10.230360 : DATE
UWI   .                            SNRG-0001 : UNIQUE WELL ID
API   .                            SNRG-0001 : API NUMBER
LIC   .                                      : 
LATI  .                     40.6472950002882 : 
LONG  .                    -81.2941990004645 : 
NS    .                                      : 
EW    .                                      : 
XCOORD.                                      : 
YCOORD.                                      : 
GDAT  .                          (Undefined) : 
SECT  .                                      : 
RANG  .                                      : 
TOWN  .                                      : 
~Curve Information -----------------------------------------
DEPT.m     : 
AO10.OHMM  : ShalRes     Shallow Laterolog
AO20.OHMM  : ShalRes     Shallow Laterolog
AORX.OHMM  : ShalRes     Shallow Laterolog
AT10.OHMM  : ShalRes     Shallow Laterolog
AT20.OHMM  : ShalRes     Shallow Laterolog
GR  .GAPI  : GammaRay    Gamma Ray
HDRA.G/C3  : Drho        Density Correction
NPHI.dec   : Neutron
PEFZ.B/E   : PEF         PE
RHOZ.G/C3  : Density     Compensated Density
TNPH.dec   : Neutron
~Params ----------------------------------------------------
EKB.      : 
EGL.      : 
KB .      : 
GL .      : 
TD .      : 
TDD.      : 
TDL.      : 
~Other -----------------------------------------------------
~ASCII -----------------------------------------------------
# ...
 9350957.51785  221.93427  221.93427  221.93427  221.93427  221.93427   51.48995    0.03204    0.06704    3.59268    2.71926    0.06704
 9351581.08130  256.84094  256.84094  256.84094  256.84094  256.84094   57.62859    0.03503    0.07016    3.50202    2.73716    0.07016
 9352204.64475  238.11280  238.11280  238.11280  238.11280  238.11280   68.49881    0.03701    0.07471    3.36847    2.74806    0.07471
 9352828.20820  198.02902  198.02902  198.02902  198.02902  198.02902   82.12301    0.03801    0.08254    3.33320    2.75304    0.08254
 9353451.77165  154.84016  154.84016  154.84016  154.84016  154.84016   88.55114    0.03901    0.09260    3.34630    2.75603    0.09260
 9354075.33510  120.13964  120.13964  120.13964  120.13964  120.13964   79.87083    0.04001    0.09932    3.36634    2.75804    0.09932
 9354698.89856   89.50701   89.50701   89.50701   89.50701   89.50701   64.97075    0.04101    0.10088    3.38852    2.76104    0.10088
 9355322.46201   68.21272   68.21272   68.21272   68.21272   68.21272   60.41033    0.04199    0.09900    3.35584    2.76396    0.09900
 9355946.02546   58.21276   58.21276   58.21276   58.21276   58.21276   63.39886    0.04095    0.09925    3.34541    2.76090    0.09925
 9356569.58891   57.80849   57.80849   57.80849   57.80849   57.80849   63.45118    0.03695    0.10279    3.37421    2.75390    0.10279
 9357193.15236   64.34287   64.34287   64.34287   64.34287   64.34287   57.86673    0.03296    0.10218    3.38831    2.74697    0.10218
 9357816.71581   77.12017   77.12017   77.12017   77.12017   77.12017   52.49971    0.02999    0.09372    3.40941    2.74505    0.09372
 9358440.27927   91.41619   91.41619   91.41619   91.41619   91.41619   50.50982    0.02901    0.08196    3.43951    2.74914    0.08196
 9359063.84272  107.07642  107.07642  107.07642  107.07642  107.07642   49.23494    0.03001    0.07180    3.54248    2.75910    0.07180
 9359687.40617  129.17313  129.17313  129.17313  129.17313  129.17313   45.37381    0.03101    0.06453    3.64190    2.76601    0.06453
 9360310.96962  157.88573  157.88573  157.88573  157.88573  157.88573   38.99914    0.03200    0.05876    3.63364    2.76697    0.05876
 9360934.53307  178.74460  178.74460  178.74460  178.74460  178.74460   36.78019    0.03200    0.05553    3.54031    2.76495    0.05553
 9361558.09652  167.68661  167.68661  167.68661  167.68661  167.68661   41.56637    0.03201    0.05763    3.42644    2.76096    0.05763
 9362181.65997  132.69459  132.69459  132.69459  132.69459  132.69459   51.21974    0.03300    0.06681    3.38913    2.75792    0.06681
 9362805.22343  101.14617  101.14617  101.14617  101.14617  101.14617   61.39848    0.03299    0.08115    3.39804    2.75189    0.08115
 9363428.78688   85.48981   85.48981   85.48981   85.48981   85.48981   73.91960    0.03197    0.09844    3.40095    2.74389    0.09844
 9364052.35033   82.18466   82.18466   82.18466   82.18466   82.18466   86.52998    0.03000    0.11452    3.39724    2.73594    0.11452
 9364675.91378   87.94541   87.94541   87.94541   87.94541   87.94541   95.11624    0.03001    0.12322    3.41366    2.73096    0.12322
 9365299.47723   97.83988   97.83988   97.83988   97.83988   97.83988   97.94509    0.03106    0.12436    3.45849    2.72805    0.12436
 9365923.04068  110.99436  110.99436  110.99436  110.99436  110.99436   96.75486    0.03605    0.12097    3.49143    2.73210    0.12097
 9366546.60413  124.01080  124.01080  124.01080  124.01080  124.01080   97.94206    0.04005    0.11901    3.52095    2.73914    0.11901
 9367170.16759  134.23820  134.23820  134.23820  134.23820  134.23820   96.71457    0.04404    0.11938    3.51676    2.74914    0.11938
 9367793.73104  139.99094  139.99094  139.99094  139.99094  139.99094   89.96232    0.04700    0.11749    3.50126    2.75910    0.11749
 9368417.29449  130.88128  130.88128  130.88128  130.88128  130.88128   75.05780    0.04700    0.10954    3.51932    2.76610    0.10954
 9369040.85794  108.70131  108.70131  108.70131  108.70131  108.70131   60.90916    0.04697    0.09879    3.54125    2.77300    0.09879
 9369664.42139   83.92619   83.92619   83.92619   83.92619   83.92619   55.71042    0.04496    0.09130    3.55811    2.77289    0.09130
 9370287.98484   66.16268   66.16268   66.16268   66.16268   66.16268   58.81021    0.04195    0.09110    3.56538    2.76484    0.09110
 9370911.54829   60.41559   60.41559   60.41559   60.41559   60.41559   67.30496    0.03795    0.09773    3.52204    2.75382    0.09773
 9371535.11175   65.20582   65.20582   65.20582   65.20582   65.20582   77.82010    0.03396    0.10672    3.45636    2.74189    0.10672
 9372158.67520   78.75888   78.75888   78.75888   78.75888   78.75888   84.50814    0.03099    0.11487    3.41262    2.73400    0.11487
 9372782.23865   97.57680   97.57680   97.57680   97.57680   97.57680   80.83117    0.02999    0.12038    3.38730    2.73406    0.12038
 9373405.80210  117.33564  117.33564  117.33564  117.33564  117.33564   66.41284    0.02900    0.11832    3.40752    2.73914    0.11832
 9374029.36555  132.26502  132.26502  132.26502  132.26502  132.26502   48.54248    0.02900    0.10635    3.44256    2.74908    0.10635
 9374652.92900  144.04530  144.04530  144.04530  144.04530  144.04530   40.93676    0.02901    0.08932    3.48032    2.75500    0.08932
 9375276.49245  149.66611  149.66611  149.66611  149.66611  149.66611   48.53103    0.03003    0.07771    3.50165    2.75495    0.07771
 9375900.05591  145.83651  145.83651  145.83651  145.83651  145.83651   64.82004    0.03203    0.07837    3.47712    2.75094    0.07837
 9376523.61936  135.23726  135.23726  135.23726  135.23726  135.23726   81.03718    0.03403    0.08971    3.41708    2.74592    0.08971
 9377147.18281  124.34685  124.34685  124.34685  124.34685  124.34685   91.84169    0.03600    0.10331    3.35480    2.73997    0.10331
 9377770.74626  118.22118  118.22118  118.22118  118.22118  118.22118   94.24155    0.03599    0.11130    3.34256    2.73803    0.11130
 9378394.30971  118.46491  118.46491  118.46491  118.46491  118.46491   89.02107    0.03499    0.11139    3.38128    2.74004    0.11139
 9379017.87316  120.69355  120.69355  120.69355  120.69355  120.69355   77.71204    0.03400    0.10384    3.46751    2.74306    0.10384
 9379641.43661  116.66852  116.66852  116.66852  116.66852  116.66852   66.04777    0.03399    0.09330    3.50131    2.74800    0.09330
 9380265.00007  104.19792  104.19792  104.19792  104.19792  104.19792   63.36528    0.03300    0.08619    3.45390    2.74799    0.08619
 9380888.56352   88.58779   88.58779   88.58779   88.58779   88.58779   70.21854    0.03299    0.08538    3.38017    2.74695    0.08538
 9381512.12697   77.62995   77.62995   77.62995   77.62995   77.62995   78.76835    0.03200    0.09151    3.32421    2.74296    0.09151
 9382135.69042   73.54826   73.54826   73.54826   73.54826   73.54826   82.10291    0.03201    0.09947    3.33816    2.73996    0.09947
 9382759.25387   75.23088   75.23088   75.23088   75.23088   75.23088   83.52705    0.03301    0.10463    3.34879    2.73696    0.10463
 9383382.81732   79.15736   79.15736   79.15736   79.15736   79.15736   90.20173    0.03403    0.10682    3.33480    2.73394    0.10682
 9384006.38077   81.89108   81.89108   81.89108   81.89108   81.89108  101.81961    0.03603    0.10833    3.32195    2.72894    0.10833
 9384629.94423   78.27226   78.27226   78.27226   78.27226   78.27226  107.62908    0.03800    0.11052    3.31863    2.72397    0.11052
 9385253.50768   68.19538   68.19538   68.19538   68.19538   68.19538  101.62351    0.03800    0.11218    3.36152    2.72203    0.11218
 9385877.07113   56.76008   56.76008   56.76008   56.76008   56.76008   89.03268    0.03799    0.11073    3.39596    2.72403    0.11073
 9386500.63458   48.59543   48.59543   48.59543   48.59543   48.59543   79.20298    0.03697    0.10509    3.39295    2.72604    0.10509
 9387124.19803   45.47208   45.47208   45.47208   45.47208   45.47208   74.13268    0.03499    0.09700    3.38921    2.72901    0.09700
