~VERSION INFORMATION
 VERS.                 2.0:   CWLS LOG ASCII STANDARD - VERSION 2.0
 WRAP.                  NO:   SINGLE LINE PER DEPTH STEP
 CREA.                 5/13/2021 1:24:20 AM
#CREATED USING DSPetro VERSION 10ep.4.05.01 BY H227404 ON 5/13/2021 1:24:20 AM
~WELL INFORMATION
#MNEM.UNIT       DATA                          DESCRIPTION MNEMONIC
#---------      ---------------------------   --------------------------
 STRT    .FT        1000.0000                 : START DEPTH
 STOP    .FT        10000.0000                : STOP DEPTH
 STEP    .FT        0.5000                    : STEP VALUE
 NULL    .      -999.0000                     : NULL VALUE
 DATE    .      5/13/2021                     : LAS file Creation Date
 WELL   .      SNRG-0003                             : Well Name
 COMP   .      COLUMBIA NATURAL RESOURCES INC.        : Company
 FLD    .                                             : Field
 STATE  .      OH                                     : State
 COUNT  .      USA                                    : Country
 API    .      SNRG-0003                         : API Number
 UWI    .      SNRG-0003                         : Unique Well Identifier (UWI)
 LOC    .      200'NL & 500'WL OF  SE QTR. SECTION 28 : Location
 EPDAT  .      1135                                   : Elevation of Permanent Datum
 GL     .      1135                                   : GL Elevation
 RWS    .      0                                      : Def_Rw
 WST    .      0                                      : Def_Rwt
 CNTY   .      COLUMBIANA                             : County
 PROV   .                                             : Province
 MDEC   .      0                                      : Magnetic Declination
 SRVC   .      SCH                                    : Contractor
 GDAT   .      (Undefined)                            : Geodatum
 LONG   .      -80.8118599997626                      : Longitude
 LATI   .      40.6594309997559                       : Latitude
 COORDIN.                                             : Grid System
 XCOORD .                                             : X or East-West Coordinate
 YCOORD .                                             : Y or North-South Coordinate
~CURVE INFORMATION
#MNEM              UNIT       API CODE   Curve Type Comments
#----------  --------------- ----------  ---------- -----------
 DEPTH      .FT                        : Depth       
 AO10       .%                         : ShalRes     SNP
 AO20       .%                         : ShalRes     SNP
 AO30       .OHMM                      : MedRes      ILM
 AO60       .OHMM                      : MedRes      ILM
 AORX       .%                         : ShalRes     SNP
 AT10       .%                         : ShalRes     SNP
 AT20       .%                         : ShalRes     SNP
 AT30       .OHMM                      : MedRes      ILM
 AT60       .OHMM                      : MedRes      ILM
 DEPTH      .FT                        : Depth       
 GR         .GAPI                      : GammaRay    GR
 NPHI       .dec                       : Neutron     
 PEFZ       .B/E                       : PEF         PEF
 RHOZ       .G/CC                      : Density     RHOB
 TNPH       .dec                       : Neutron     
~A  DEPTH    AO10      AO20      AO30      AO60      AORX      AT10      AT20      AT30      AT60     DEPTH       GR       NPHI      PEFZ      RHOZ      TNPH   
# ...
1550.0000   12.5732   12.5732   26.6221   26.6221   12.5732   12.5732   12.5732   26.6221   26.6221 1550.0000  150.4082    0.1257    3.0373    2.7140    0.1257 
1550.5000   12.6587   12.6587   26.5899   26.5899   12.6587   12.6587   12.6587   26.5899   26.5899 1550.5000  153.8701    0.1266    2.9033    2.7046    0.1266 
1551.0000   12.8784   12.8784   26.4944   26.4944   12.8784   12.8784   12.8784   26.4944   26.4944 1551.0000  158.6135    0.1288    2.8030    2.6964    0.1288 
1551.5000   13.1348   13.1348   26.1980   26.1980   13.1348   13.1348   13.1348   26.1980   26.1980 1551.5000  158.3838    0.1313    2.8617    2.7010    0.1313 
1552.0000   13.2202   13.2202   25.8277   25.8277   13.2202   13.2202   13.2202   25.8277   25.8277 1552.0000  155.0620    0.1322    2.9506    2.7137    0.1322 
1552.5000   13.0127   13.0127   25.9230   25.9230   13.0127   13.0127   13.0127   25.9230   25.9230 1552.5000  154.5068    0.1301    2.9081    2.7164    0.1301 
1553.0000   12.6587   12.6587   26.5337   26.5337   12.6587   12.6587   12.6587   26.5337   26.5337 1553.0000  157.2441    0.1266    2.7681    2.7109    0.1266 
1553.5000   12.4390   12.4390   26.8734   26.8734   12.4390   12.4390   12.4390   26.8734   26.8734 1553.5000  160.8174    0.1244    2.7032    2.7136    0.1244 
1554.0000   12.3901   12.3901   26.8473   26.8473   12.3901   12.3901   12.3901   26.8473   26.8473 1554.0000  164.0527    0.1239    2.8079    2.7256    0.1239 
1554.5000   12.1826   12.1826   26.9954   26.9954   12.1826   12.1826   12.1826   26.9954   26.9954 1554.5000  165.5349    0.1218    3.0296    2.7335    0.1218 
1555.0000   11.8530   11.8530   27.2600   27.2600   11.8530   11.8530   11.8530   27.2600   27.2600 1555.0000  163.7598    0.1185    3.2654    2.7318    0.1185 
1555.5000   11.8164   11.8164   27.1668   27.1668   11.8164   11.8164   11.8164   27.1668   27.1668 1555.5000  160.0225    0.1182    3.4577    2.7248    0.1182 
1556.0000   12.3901   12.3901   26.7876   26.7876   12.3901   12.3901   12.3901   26.7876   26.7876 1556.0000  156.5186    0.1239    3.6079    2.7163    0.1239 
1556.5000   13.4277   13.4277   26.4007   26.4007   13.4277   13.4277   13.4277   26.4007   26.4007 1556.5000  153.9751    0.1343    3.7046    2.7093    0.1343 
1557.0000   14.3066   14.3066   26.1175   26.1175   14.3066   14.3066   14.3066   26.1175   26.1175 1557.0000  152.7424    0.1431    3.7436    2.7053    0.1431 
1557.5000   14.5752   14.5752   25.9171   25.9171   14.5752   14.5752   14.5752   25.9171   25.9171 1557.5000  152.4778    0.1458    3.7610    2.7041    0.1458 
1558.0000   14.2944   14.2944   25.7055   25.7055   14.2944   14.2944   14.2944   25.7055   25.7055 1558.0000  152.8079    0.1429    3.7585    2.7068    0.1429 
1558.5000   13.9282   13.9282   25.4386   25.4386   13.9282   13.9282   13.9282   25.4386   25.4386 1558.5000  153.2167    0.1393    3.6507    2.7104    0.1393 
1559.0000   13.8062   13.8062   24.9562   24.9562   13.8062   13.8062   13.8062   24.9562   24.9562 1559.0000  154.1404    0.1381    3.3829    2.7046    0.1381 
1559.5000   13.9893   13.9893   24.2945   24.2945   13.9893   13.9893   13.9893   24.2945   24.2945 1559.5000  155.0505    0.1399    3.0770    2.6893    0.1399 
1560.0000   14.4409   14.4409   23.8645   23.8645   14.4409   14.4409   14.4409   23.8645   23.8645 1560.0000  154.4790    0.1444    2.8820    2.6824    0.1444 
1560.5000   14.9658   14.9658   23.7731   23.7731   14.9658   14.9658   14.9658   23.7731   23.7731 1560.5000  154.9961    0.1497    2.8147    2.6947    0.1497 
1561.0000   15.1001   15.1001   23.8771   23.8771   15.1001   15.1001   15.1001   23.8771   23.8771 1561.0000  158.5449    0.1510    2.8051    2.7163    0.1510 
1561.5000   14.4775   14.4775   24.2666   24.2666   14.4775   14.4775   14.4775   24.2666   24.2666 1561.5000  161.7348    0.1448    2.8110    2.7297    0.1448 
1562.0000   13.3545   13.3545   24.8703   24.8703   13.3545   13.3545   13.3545   24.8703   24.8703 1562.0000  161.1357    0.1335    2.8857    2.7314    0.1335 
1562.5000   12.4023   12.4023   25.2622   25.2622   12.4023   12.4023   12.4023   25.2622   25.2622 1562.5000  158.5474    0.1240    3.0554    2.7280    0.1240 
1563.0000   12.1338   12.1338   25.4077   25.4077   12.1338   12.1338   12.1338   25.4077   25.4077 1563.0000  157.6482    0.1213    3.2604    2.7216    0.1213 
1563.5000   12.4756   12.4756   25.5556   25.5556   12.4756   12.4756   12.4756   25.5556   25.5556 1563.5000  158.2693    0.1248    3.4115    2.7129    0.1248 
1564.0000   12.8296   12.8296   25.7967   25.7967   12.8296   12.8296   12.8296   25.7967   25.7967 1564.0000  157.4023    0.1283    3.4724    2.7035    0.1283 
1564.5000   12.6709   12.6709   26.0248   26.0248   12.6709   12.6709   12.6709   26.0248   26.0248 1564.5000  154.4043    0.1267    3.4714    2.6999    0.1267 
1565.0000   12.2437   12.2437   26.0393   26.0393   12.2437   12.2437   12.2437   26.0393   26.0393 1565.0000  151.4888    0.1224    3.3991    2.7077    0.1224 
1565.5000   12.1826   12.1826   25.8567   25.8567   12.1826   12.1826   12.1826   25.8567   25.8567 1565.5000  150.8203    0.1218    3.2698    2.7225    0.1218 
1566.0000   12.5977   12.5977   25.4720   25.4720   12.5977   12.5977   12.5977   25.4720   25.4720 1566.0000  152.3340    0.1260    3.1670    2.7319    0.1260 
1566.5000   13.2568   13.2568   24.8575   24.8575   13.2568   13.2568   13.2568   24.8575   24.8575 1566.5000  154.0415    0.1326    3.1354    2.7331    0.1326 
1567.0000   13.9404   13.9404   24.2249   24.2249   13.9404   13.9404   13.9404   24.2249   24.2249 1567.0000  154.9819    0.1394    3.1155    2.7283    0.1394 
1567.5000   14.4409   14.4409   23.7134   23.7134   14.4409   14.4409   14.4409   23.7134   23.7134 1567.5000  155.4635    0.1444    3.0637    2.7187    0.1444 
1568.0000   14.4897   14.4897   23.4329   23.4329   14.4897   14.4897   14.4897   23.4329   23.4329 1568.0000  155.8027    0.1449    2.9771    2.7092    0.1449 
1568.5000   14.0137   14.0137   23.5332   23.5332   14.0137   14.0137   14.0137   23.5332   23.5332 1568.5000  156.5608    0.1401    2.9109    2.7057    0.1401 
1569.0000   13.4766   13.4766   23.9475   23.9475   13.4766   13.4766   13.4766   23.9475   23.9475 1569.0000  157.9272    0.1348    2.8830    2.7089    0.1348 
1569.5000   13.0127   13.0127   24.5666   24.5666   13.0127   13.0127   13.0127   24.5666   24.5666 1569.5000  157.9895    0.1301    2.8997    2.7155    0.1301 
1570.0000   12.5366   12.5366   25.1654   25.1654   12.5366   12.5366   12.5366   25.1654   25.1654 1570.0000  155.5078    0.1254    2.9647    2.7200    0.1254 
1570.5000   12.2681   12.2681   25.5265   25.5265   12.2681   12.2681   12.2681   25.5265   25.5265 1570.5000  152.9893    0.1227    3.0916    2.7189    0.1227 
1571.0000   12.1094   12.1094   25.6151   25.6151   12.1094   12.1094   12.1094   25.6151   25.6151 1571.0000  153.4736    0.1211    3.2804    2.7141    0.1211 
1571.5000   11.9507   11.9507   25.3674   25.3674   11.9507   11.9507   11.9507   25.3674   25.3674 1571.5000  154.9302    0.1195    3.4728    2.7094    0.1195 
1572.0000   11.9263   11.9263   25.1177   25.1177   11.9263   11.9263   11.9263   25.1177   25.1177 1572.0000  156.1250    0.1193    3.5458    2.7054    0.1193 
1572.5000   12.2925   12.2925   24.9070   24.9070   12.2925   12.2925   12.2925   24.9070   24.9070 1572.5000  157.5698    0.1229    3.4406    2.7022    0.1229 
1573.0000   13.1103   13.1103   24.7278   24.7278   13.1103   13.1103   13.1103   24.7278   24.7278 1573.0000  159.0249    0.1311    3.3103    2.7020    0.1311 
1573.5000   13.6353   13.6353   24.5794   24.5794   13.6353   13.6353   13.6353   24.5794   24.5794 1573.5000  159.9353    0.1364    3.3023    2.7046    0.1364 
1574.0000   13.5864   13.5864   24.4672   24.4672   13.5864   13.5864   13.5864   24.4672   24.4672 1574.0000  160.4667    0.1359    3.4258    2.7095    0.1359 
1574.5000   13.5254   13.5254   24.4410   24.4410   13.5254   13.5254   13.5254   24.4410   24.4410 1574.5000  161.5190    0.1353    3.6133    2.7153    0.1353 
