~VERSION INFORMATION
 VERS.                 2.0:   CWLS LOG ASCII STANDARD - VERSION 2.0
 WRAP.                  NO:   SINGLE LINE PER DEPTH STEP
 CREA.                 5/13/2021 1:24:19 AM
#CREATED USING DSPetro VERSION 10ep.4.05.01 BY H227404 ON 5/13/2021 1:24:19 AM
~WELL INFORMATION
#MNEM.UNIT       DATA                          DESCRIPTION MNEMONIC
#---------      ---------------------------   --------------------------
 STRT    .FT        0.0000                    : START DEPTH
 STOP    .FT        9000.0000                 : STOP DEPTH
 STEP    .FT        0.5000                    : STEP VALUE
 NULL    .      -999.0000                     : NULL VALUE
 DATE    .      5/13/2021                     : LAS file Creation Date
 WELL   .      SNRG-0001                          : Well Name
 COMP   .      Range Resources Appalachia, LLC      : Company
 FLD    .                                           : Field
 STATE  .      OH                                   : State
 COUNT  .      USA                                  : Country
 API    .      SNRG-0001                       : API Number
 UWI    .      SNRG-0001                       : Unique Well Identifier (UWI)
 LOC    .      750'SL & 1060'EL OF NW QTR., SEC. 30 : Location
 EPDAT  .      964                                  : Elevation of Permanent Datum
 GL     .      954.000                              : GL Elevation
 RWS    .      0                                    : Def_Rw
 WST    .      0                                    : Def_Rwt
 CNTY   .      Carroll                              : County
 PROV   .                                           : Province
 MDEC   .      0                                    : Magnetic Declination
 SRVC   .      WE                                   : Contractor
 GDAT   .      (Undefined)                          : Geodatum
 LONG   .      -81.2941990004645                    : Longitude
 LATI   .      40.6472950002882                     : Latitude
 COORDIN.                                           : Grid System
 XCOORD .                                           : X or East-West Coordinate
 YCOORD .                                           : Y or North-South Coordinate
~CURVE INFORMATION
#MNEM              UNIT       API CODE   Curve Type Comments
#----------  --------------- ----------  ---------- -----------
 DEPTH      .FT                        : Depth       
 AO10       .OHMM                      : ShalRes     Shallow Laterolog
 AO20       .OHMM                      : ShalRes     Shallow Laterolog
 AORX       .OHMM                      : ShalRes     Shallow Laterolog
 AT10       .OHMM                      : ShalRes     Shallow Laterolog
 AT20       .OHMM                      : ShalRes     Shallow Laterolog
 DEPTH      .FT                        : Depth       
 GR         .GAPI                      : GammaRay    Gamma Ray
 HDRA       .G/C3                      : Drho        Density Correction
 NPHI       .dec                       : Neutron     
 PEFZ       .B/E                       : PEF         PE
 RHOZ       .G/C3                      : Density     Compensated Density
 TNPH       .dec                       : Neutron     
~A  DEPTH    AO10      AO20      AORX      AT10      AT20     DEPTH       GR       HDRA      NPHI      PEFZ      RHOZ      TNPH   
# ...
5084.0000   34.2520   34.2520   34.2520   34.2520   34.2520 5084.0000  135.4730    0.2310    0.1675    3.4140    2.5080    0.1675 
5084.5000   33.9850   33.9850   33.9850   33.9850   33.9850 5084.5000  131.1060    0.2300    0.1779    3.4380    2.5220    0.1779 
5085.0000   34.3260   34.3260   34.3260   34.3260   34.3260 5085.0000  127.9410    0.2180    0.1858    3.4230    2.5490    0.1858 
5085.5000   35.0290   35.0290   35.0290   35.0290   35.0290 5085.5000  127.1640    0.1960    0.1870    3.3900    2.5780    0.1870 
5086.0000   35.5760   35.5760   35.5760   35.5760   35.5760 5086.0000  129.0240    0.1710    0.1759    3.4070    2.6030    0.1759 
5086.5000   35.4300   35.4300   35.4300   35.4300   35.4300 5086.5000  132.5760    0.1530    0.1587    3.4690    2.6140    0.1587 
5087.0000   34.4960   34.4960   34.4960   34.4960   34.4960 5087.0000  137.7440    0.1500    0.1477    3.5460    2.6230    0.1477 
5087.5000   33.2660   33.2660   33.2660   33.2660   33.2660 5087.5000  142.3820    0.1610    0.1483    3.5700    2.6300    0.1483 
5088.0000   32.1090   32.1090   32.1090   32.1090   32.1090 5088.0000  143.4020    0.1740    0.1554    3.5590    2.6420    0.1554 
5088.5000   31.4610   31.4610   31.4610   31.4610   31.4610 5088.5000  142.7140    0.1780    0.1610    3.5720    2.6520    0.1610 
5089.0000   31.2200   31.2200   31.2200   31.2200   31.2200 5089.0000  141.6340    0.1710    0.1640    3.5720    2.6560    0.1640 
5089.5000   31.1770   31.1770   31.1770   31.1770   31.1770 5089.5000  138.6490    0.1620    0.1682    3.5570    2.6440    0.1682 
5090.0000   31.0420   31.0420   31.0420   31.0420   31.0420 5090.0000  134.5630    0.1650    0.1708    3.5530    2.6240    0.1708 
5090.5000   30.6360   30.6360   30.6360   30.6360   30.6360 5090.5000  129.8730    0.1820    0.1677    3.5620    2.6020    0.1677 
5091.0000   29.9560   29.9560   29.9560   29.9560   29.9560 5091.0000  127.2010    0.2070    0.1620    3.5970    2.5910    0.1620 
5091.5000   29.2230   29.2230   29.2230   29.2230   29.2230 5091.5000  128.3330    0.2310    0.1596    3.6360    2.5890    0.1596 
5092.0000   28.6230   28.6230   28.6230   28.6230   28.6230 5092.0000  130.4790    0.2460    0.1653    3.6380    2.5910    0.1653 
5092.5000   28.3430   28.3430   28.3430   28.3430   28.3430 5092.5000  133.4670    0.2530    0.1743    3.6060    2.5890    0.1743 
5093.0000   28.4160   28.4160   28.4160   28.4160   28.4160 5093.0000  133.9880    0.2520    0.1780    3.5460    2.5830    0.1780 
5093.5000   28.8910   28.8910   28.8910   28.8910   28.8910 5093.5000  133.4400    0.2460    0.1760    3.5000    2.5790    0.1760 
5094.0000   29.9830   29.9830   29.9830   29.9830   29.9830 5094.0000  132.7020    0.2270    0.1716    3.4880    2.5850    0.1716 
5094.5000   31.8950   31.8950   31.8950   31.8950   31.8950 5094.5000  129.2500    0.1950    0.1690    3.4980    2.6000    0.1690 
5095.0000   34.6780   34.6780   34.6780   34.6780   34.6780 5095.0000  125.5600    0.1590    0.1637    3.5060    2.6260    0.1637 
5095.5000   36.9060   36.9060   36.9060   36.9060   36.9060 5095.5000  120.8990    0.1320    0.1519    3.5320    2.6520    0.1519 
5096.0000   36.9390   36.9390   36.9390   36.9390   36.9390 5096.0000  121.0740    0.1230    0.1374    3.5650    2.6690    0.1374 
5096.5000   35.2640   35.2640   35.2640   35.2640   35.2640 5096.5000  125.9230    0.1330    0.1314    3.5600    2.6760    0.1314 
5097.0000   32.6100   32.6100   32.6100   32.6100   32.6100 5097.0000  127.8690    0.1580    0.1377    3.5630    2.6710    0.1377 
5097.5000   30.6480   30.6480   30.6480   30.6480   30.6480 5097.5000  128.2390    0.1860    0.1462    3.5760    2.6570    0.1462 
5098.0000   29.3390   29.3390   29.3390   29.3390   29.3390 5098.0000  126.1090    0.2100    0.1505    3.6010    2.6350    0.1505 
5098.5000   28.7790   28.7790   28.7790   28.7790   28.7790 5098.5000  127.4850    0.2260    0.1523    3.5920    2.6140    0.1523 
5099.0000   29.0490   29.0490   29.0490   29.0490   29.0490 5099.0000  129.9750    0.2260    0.1541    3.5210    2.6050    0.1541 
5099.5000   30.5950   30.5950   30.5950   30.5950   30.5950 5099.5000  130.4930    0.2090    0.1505    3.4620    2.6100    0.1505 
5100.0000   33.7280   33.7280   33.7280   33.7280   33.7280 5100.0000  127.4270    0.1740    0.1371    3.4450    2.6180    0.1371 
5100.5000   37.5350   37.5350   37.5350   37.5350   37.5350 5100.5000  119.2670    0.1380    0.1200    3.5140    2.6180    0.1200 
5101.0000   40.0970   40.0970   40.0970   40.0970   40.0970 5101.0000  115.3390    0.1160    0.1091    3.5900    2.5950    0.1091 
5101.5000   39.3580   39.3580   39.3580   39.3580   39.3580 5101.5000  120.0710    0.1200    0.1124    3.5540    2.5480    0.1124 
5102.0000   36.0710   36.0710   36.0710   36.0710   36.0710 5102.0000  129.5620    0.1440    0.1301    3.4580    2.4870    0.1301 
5102.5000   32.0080   32.0080   32.0080   32.0080   32.0080 5102.5000  134.3270    0.1830    0.1574    3.3990    2.4380    0.1574 
5103.0000   28.7130   28.7130   28.7130   28.7130   28.7130 5103.0000  131.9620    0.2210    0.1842    3.4280    2.4050    0.1842 
5103.5000   26.7710   26.7710   26.7710   26.7710   26.7710 5103.5000  130.1070    0.2530    0.1997    3.4880    2.3860    0.1997 
5104.0000   25.9610   25.9610   25.9610   25.9610   25.9610 5104.0000  132.6200    0.2770    0.2020    3.5040    2.3700    0.2020 
5104.5000   25.9370   25.9370   25.9370   25.9370   25.9370 5104.5000  136.5410    0.2970    0.1936    3.4650    2.3650    0.1936 
5105.0000   26.6410   26.6410   26.6410   26.6410   26.6410 5105.0000  138.8540    0.3080    0.1805    3.4090    2.3750    0.1805 
5105.5000   28.3450   28.3450   28.3450   28.3450   28.3450 5105.5000  136.7840    0.3050    0.1678    3.4030    2.4110    0.1678 
5106.0000   30.6070   30.6070   30.6070   30.6070   30.6070 5106.0000  134.1420    0.2910    0.1601    3.4520    2.4650    0.1601 
5106.5000   32.6360   32.6360   32.6360   32.6360   32.6360 5106.5000  130.8840    0.2730    0.1584    3.5070    2.5250    0.1584 
5107.0000   33.7030   33.7030   33.7030   33.7030   33.7030 5107.0000  127.6030    0.2590    0.1592    3.5580    2.5690    0.1592 
5107.5000   33.6870   33.6870   33.6870   33.6870   33.6870 5107.5000  127.8940    0.2560    0.1633    3.5890    2.5850    0.1633 
5108.0000   33.1090   33.1090   33.1090   33.1090   33.1090 5108.0000  127.5980    0.2600    0.1708    3.5670    2.5810    0.1708 
5108.5000   32.5280   32.5280   32.5280   32.5280   32.5280 5108.5000  126.5800    0.2700    0.1775    3.5290    2.5700    0.1775 
5109.0000   32.2510   32.2510   32.2510   32.2510   32.2510 5109.0000  126.6100    0.2770    0.1766    3.5070    2.5680    0.1766 
5109.5000   32.3170   32.3170   32.3170   32.3170   32.3170 5109.5000  131.0230    0.2790    0.1671    3.5200    2.5730    0.1671 
5110.0000   32.2810   32.2810   32.2810   32.2810   32.2810 5110.0000  136.4970    0.2780    0.1576    3.5760    2.5850    0.1576 
5110.5000   31.7580   31.7580   31.7580   31.7580   31.7580 5110.5000  140.3960    0.2750    0.1546    3.6290    2.5950    0.1546 
5111.0000   30.7330   30.7330   30.7330   30.7330   30.7330 5111.0000  141.5680    0.2740    0.1593    3.6650    2.5970    0.1593 
5111.5000   29.4390   29.4390   29.4390   29.4390   29.4390 5111.5000  138.1480    0.2740    0.1658    3.7040    2.5920    0.1658 
5112.0000   28.4120   28.4120   28.4120   28.4120   28.4120 5112.0000  136.2000    0.2750    0.1693    3.7280    2.5850    0.1693 
5112.5000   28.0000   28.0000   28.0000   28.0000   28.0000 5112.5000  135.1390    0.2740    0.1706    3.7160    2.5840    0.1706 
5113.0000   28.5070   28.5070   28.5070   28.5070   28.5070 5113.0000  136.2180    0.2700    0.1704    3.6570    2.5880    0.1704 
5113.5000   29.5430   29.5430   29.5430   29.5430   29.5430 5113.5000  139.1530    0.2620    0.1678    3.5640    2.5990    0.1678 
5114.0000   30.7720   30.7720   30.7720   30.7720   30.7720 5114.0000  139.2980    0.2530    0.1618    3.5290    2.6140    0.1618 
5114.5000   31.7830   31.7830   31.7830   31.7830   31.7830 5114.5000  138.1610    0.2430    0.1549    3.5520    2.6300    0.1549 
