~Version ---------------------------------------------------
VERS.   2.0 : CWLS log ASCII Standard -VERSION 2.0
WRAP.    NO : One line per depth step
DLM . SPACE : Column Data Section Delimiter
~Well ------------------------------------------------------
STRT  .m                                 0.0 : START DEPTH
STOP  .m                   11221024.30872697 : STOP DEPTH
STEP  .m                           623.56345 : STEP
NULL  .                                 -999 : NULL VALUE
COMP  .      Range Resources Appalachia, LLC : COMPANY
WELL  .                            SNRG-0001 : WELL
FLD   .                                      : FIELD
LOC   . 750'SL & 1060'EL OF NW QTR., SEC. 30 : LOCATION
PROV  .                                      : PROVINCE
CNTY  .                              Carroll : COUNTY
STAT  .                                      : STATE
CTRY  .                                      : COUNTRY
SRVC  .                                      : SERVICE COMPANY
DATE  .           2021-07-11 01:47:10.230360 : DATE
UWI   .                            SNRG-0001 : UNIQUE WELL ID
API   .                            SNRG-0001 : API NUMBER
LIC   .                                      : 
LATI  .                     40.6472950002882 : 
LONG  .                    -81.2941990004645 : 
NS    .                                      : 
EW    .                                      : 
XCOORD.                                      : 
YCOORD.                                      : 
GDAT  .                          (Undefined) : 
SECT  .                                      : 
RANG  .                                      : 
TOWN  .                                      : 
~Curve Information -----------------------------------------
DEPT.m     : 
AO10.OHMM  : ShalRes     Shallow Laterolog
AO20.OHMM  : ShalRes     Shallow Laterolog
AORX.OHMM  : ShalRes     Shallow Laterolog
AT10.OHMM  : ShalRes     Shallow Laterolog
AT20.OHMM  : ShalRes     Shallow Laterolog
GR  .GAPI  : GammaRay    Gamma Ray
HDRA.G/C3  : Drho        Density Correction
NPHI.dec   : Neutron
PEFZ.B/E   : PEF         PE
RHOZ.G/C3  : Density     Compensated Density
TNPH.dec   : Neutron
~Params ----------------------------------------------------
EKB.      : 
EGL.      : 
KB .      : 
GL .      : 
TD .      : 
TDD.      : 
TDL.      : 
~Other -----------------------------------------------------
~ASCII -----------------------------------------------------
# ...
 5976855.68209       -999       -999       -999       -999       -999       -999       -999       -999       -999       -999       -999
 5977479.24554       -999       -999       -999       -999       -999       -999       -999       -999       -999       -999       -999
 5978102.80899       -999       -999       -999       -999       -999       -999       -999       -999       -999       -999       -999
 5978726.37244       -999       -999       -999       -999       -999       -999       -999       -999       -999       -999       -999
 5979349.93589       -999       -999       -999       -999       -999       -999       -999       -999       -999       -999       -999
 5979973.49934       -999       -999       -999       -999       -999       -999       -999       -999       -999       -999       -999
 5980597.06280       -999       -999       -999       -999       -999       -999       -999       -999       -999       -999       -999
 5981220.62625       -999       -999       -999       -999       -999       -999       -999       -999       -999       -999       -999
 5981844.18970       -999       -999       -999       -999       -999       -999       -999       -999       -999       -999       -999
 5982467.75315       -999       -999       -999       -999       -999       -999       -999       -999       -999       -999       -999
 5983091.31660       -999       -999       -999       -999       -999       -999       -999       -999       -999       -999       -999
 5983714.88005       -999       -999       -999       -999       -999       -999       -999       -999       -999       -999       -999
 5984338.44350       -999       -999       -999       -999       -999       -999       -999       -999       -999       -999       -999
 5984962.00696       -999       -999       -999       -999       -999       -999       -999       -999       -999       -999       -999
 5985585.57041       -999       -999       -999       -999       -999       -999       -999       -999       -999       -999       -999
 5986209.13386   71.39994   71.39994   71.39994   71.39994   71.39994  123.09156    0.08287    0.13776    3.31378    2.69518    0.13776
 5986832.69731   74.06066   74.06066   74.06066   74.06066   74.06066  116.96825    0.06889    0.13262    3.39735    2.71313    0.13262
 5987456.26076   76.48213   76.48213   76.48213   76.48213   76.48213  111.66409    0.05693    0.12322    3.43461    2.72807    0.12322
 5988079.82421   79.17667   79.17667   79.17667   79.17667   79.17667  106.97247    0.04797    0.11334    3.39257    2.73607    0.11334
 5988703.38766   83.52510   83.52510   83.52510   83.52510   83.52510  101.56711    0.04398    0.10625    3.34597    2.74506    0.10625
 5989326.95112   88.88251   88.88251   88.88251   88.88251   88.88251   94.82788    0.04198    0.10068    3.34254    2.75207    0.10068
 5989950.51457   95.56679   95.56679   95.56679   95.56679   95.56679   84.89273    0.03900    0.09850    3.39944    2.76111    0.09850
 5990574.07802  103.99619  103.99619  103.99619  103.99619  103.99619   74.94821    0.03902    0.09817    3.44830    2.77313    0.09817
 5991197.64147  115.12283  115.12283  115.12283  115.12283  115.12283   65.93202    0.04102    0.09434    3.47919    2.78813    0.09434
 5991821.20492  127.67167  127.67167  127.67167  127.67167  127.67167   60.30108    0.04302    0.08694    3.49929    2.80210    0.08694
 5992444.76837  137.94217  137.94217  137.94217  137.94217  137.94217   57.10731    0.04501    0.07957    3.52961    2.81305    0.07957
 5993068.33182  143.46710  143.46710  143.46710  143.46710  143.46710   53.63911    0.04598    0.07579    3.59493    2.81901    0.07579
 5993691.89528  144.30628  144.30628  144.30628  144.30628  144.30628   52.28199    0.04398    0.07510    3.58662    2.81998    0.07510
 5994315.45873  142.17315  142.17315  142.17315  142.17315  142.17315   53.06246    0.04198    0.07501    3.54545    2.81693    0.07501
 5994939.02218  136.28207  136.28207  136.28207  136.28207  136.28207   58.25335    0.03902    0.07583    3.48752    2.80891    0.07583
 5995562.58563  125.15173  125.15173  125.15173  125.15173  125.15173   66.28360    0.04210    0.07956    3.43700    2.79889    0.07956
 5996186.14908  107.98016  107.98016  107.98016  107.98016  107.98016   74.04147    0.05316    0.08689    3.43702    2.78687    0.08689
 5996809.71253   92.79439   92.79439   92.79439   92.79439   92.79439   84.09990    0.07014    0.09711    3.43907    2.77288    0.09711
 5997433.27598   82.24083   82.24083   82.24083   82.24083   82.24083   92.77563    0.08607    0.10888    3.44824    2.75996    0.10888
 5998056.83944   79.18660   79.18660   79.18660   79.18660   79.18660   94.92479    0.09497    0.11802    3.47356    2.75502    0.11802
 5998680.40289   82.59257   82.59257   82.59257   82.59257   82.59257   91.25880    0.09087    0.12087    3.53223    2.75706    0.12087
 5999303.96634   90.54264   90.54264   90.54264   90.54264   90.54264   85.18669    0.07582    0.11664    3.55580    2.76407    0.11664
 5999927.52979   99.19619   99.19619   99.19619   99.19619   99.19619   81.78778    0.05788    0.10926    3.53460    2.77207    0.10926
 6000551.09324  103.11480  103.11480  103.11480  103.11480  103.11480   83.37439    0.04496    0.10448    3.49046    2.78002    0.10448
 6001174.65669  102.12827  102.12827  102.12827  102.12827  102.12827   86.50556    0.04003    0.10229    3.43405    2.78305    0.10229
 6001798.22014  100.36884  100.36884  100.36884  100.36884  100.36884   89.95129    0.04404    0.10118    3.44035    2.78902    0.10118
 6002421.78360  101.23268  101.23268  101.23268  101.23268  101.23268   91.19882    0.04906    0.09917    3.47828    2.79108    0.09917
 6003045.34705  105.56466  105.56466  105.56466  105.56466  105.56466   85.41566    0.05602    0.09588    3.50820    2.80103    0.09588
 6003668.91050  110.44007  110.44007  110.44007  110.44007  110.44007   77.62489    0.05900    0.09319    3.52784    2.80504    0.09319
 6004292.47395  117.37902  117.37902  117.37902  117.37902  117.37902   71.35367    0.05897    0.09140    3.51061    2.81001    0.09140
 6004916.03740  126.20164  126.20164  126.20164  126.20164  126.20164   67.07828    0.05497    0.09141    3.46898    2.81102    0.09141
 6005539.60085  134.02031  134.02031  134.02031  134.02031  134.02031   64.78025    0.05095    0.09220    3.46609    2.81398    0.09220
 6006163.16430  140.29267  140.29267  140.29267  140.29267  140.29267   63.97543    0.04496    0.09208    3.47622    2.81198    0.09208
 6006786.72776  142.37397  142.37397  142.37397  142.37397  142.37397   65.51372    0.03996    0.08957    3.49905    2.80997    0.08957
 6007410.29121  143.10457  143.10457  143.10457  143.10457  143.10457   67.49840    0.03496    0.08629    3.50477    2.80589    0.08629
 6008033.85466  142.46340  142.46340  142.46340  142.46340  142.46340   68.83714    0.03004    0.08482    3.48126    2.79369    0.08482
 6008657.41811  133.99357  133.99357  133.99357  133.99357  133.99357   72.63009    0.03521    0.08709    3.50974    2.76038    0.08709
 6009280.98156  112.11435  112.11435  112.11435  112.11435  112.11435   83.35097    0.05739    0.09731    3.58893    2.69400    0.09731
 6009904.54501   85.49582   85.49582   85.49582   85.49582   85.49582  103.78516    0.09953    0.11889    3.57999    2.58671    0.11889
 6010528.10846   61.64398   61.64398   61.64398   61.64398   61.64398  127.79040    0.15552    0.14909    3.47053    2.44968    0.14909
 6011151.67192   47.45745   47.45745   47.45745   47.45745   47.45745  147.94420    0.21035    0.17903    3.31517    2.30989    0.17903
 6011775.23537   39.78410   39.78410   39.78410   39.78410   39.78410  158.60945    0.24816    0.20256    3.22767    2.19345    0.20256
 6012398.79882   36.41113   36.41113   36.41113   36.41113   36.41113  158.97573    0.26498    0.21930    3.29925    2.13590    0.21930
 6013022.36227   35.05459   35.05459   35.05459   35.05459   35.05459  159.28155    0.26192    0.22948    3.43154    2.12532    0.22948
