~VERSION INFORMATION
 VERS.                 2.0:   CWLS LOG ASCII STANDARD - VERSION 2.0
 WRAP.                  NO:   SINGLE LINE PER DEPTH STEP
 CREA.                 5/13/2021 1:24:19 AM
#CREATED USING DSPetro VERSION 10ep.4.05.01 BY H227404 ON 5/13/2021 1:24:19 AM
~WELL INFORMATION
#MNEM.UNIT       DATA                          DESCRIPTION MNEMONIC
#---------      ---------------------------   --------------------------
 STRT    .FT        0.0000                    : START DEPTH
 STOP    .FT        9000.0000                 : STOP DEPTH
 STEP    .FT        0.5000                    : STEP VALUE
 NULL    .      -999.0000                     : NULL VALUE
 DATE    .      5/13/2021                     : LAS file Creation Date
 WELL   .      SNRG-0001                          : Well Name
 COMP   .      Range Resources Appalachia, LLC      : Company
 FLD    .                                           : Field
 STATE  .      OH                                   : State
 COUNT  .      USA                                  : Country
 API    .      SNRG-0001                       : API Number
 UWI    .      SNRG-0001                       : Unique Well Identifier (UWI)
 LOC    .      750'SL & 1060'EL OF NW QTR., SEC. 30 : Location
 EPDAT  .      964                                  : Elevation of Permanent Datum
 GL     .      954.000                              : GL Elevation
 RWS    .      0                                    : Def_Rw
 WST    .      0                                    : Def_Rwt
 CNTY   .      Carroll                              : County
 PROV   .                                           : Province
 MDEC   .      0                                    : Magnetic Declination
 SRVC   .      WE                                   : Contractor
 GDAT   .      (Undefined)                          : Geodatum
 LONG   .      -81.2941990004645                    : Longitude
 LATI   .      40.6472950002882                     : Latitude
 COORDIN.                                           : Grid System
 XCOORD .                                           : X or East-West Coordinate
 YCOORD .                                           : Y or North-South Coordinate
~CURVE INFORMATION
#MNEM              UNIT       API CODE   Curve Type Comments
#----------  --------------- ----------  ---------- -----------
 DEPTH      .FT                        : Depth       
 AO10       .OHMM                      : ShalRes     Shallow Laterolog
 AO20       .OHMM                      : ShalRes     Shallow Laterolog
 AORX       .OHMM                      : ShalRes     Shallow Laterolog
 AT10       .OHMM                      : ShalRes     Shallow Laterolog
 AT20       .OHMM                      : ShalRes     Shallow Laterolog
 DEPTH      .FT                        : Depth       
 GR         .GAPI                      : GammaRay    Gamma Ray
 HDRA       .G/C3                      : Drho        Density Correction
 NPHI       .dec                       : Neutron     
 PEFZ       .B/E                       : PEF         PE
 RHOZ       .G/C3                      : Density     Compensated Density
 TNPH       .dec                       : Neutron     
~A  DEPTH    AO10      AO20      AORX      AT10      AT20     DEPTH       GR       HDRA      NPHI      PEFZ      RHOZ      TNPH   
# ...
5611.0000  132.0140  132.0140  132.0140  132.0140  132.0140 5611.0000   82.7670    0.0370    0.0955    3.3780    2.6910    0.0955 
5611.5000  128.9540  128.9540  128.9540  128.9540  128.9540 5611.5000   87.7100    0.0340    0.0934    3.3150    2.6890    0.0934 
5612.0000  127.1810  127.1810  127.1810  127.1810  127.1810 5612.0000   91.0820    0.0360    0.0923    3.3190    2.6930    0.0923 
5612.5000  125.3960  125.3960  125.3960  125.3960  125.3960 5612.5000   88.6290    0.0390    0.0930    3.3280    2.7000    0.0930 
5613.0000  119.0300  119.0300  119.0300  119.0300  119.0300 5613.0000   87.7880    0.0430    0.0937    3.3400    2.7070    0.0937 
5613.5000  109.1270  109.1270  109.1270  109.1270  109.1270 5613.5000   94.3410    0.0460    0.0953    3.3200    2.7100    0.0953 
5614.0000   93.3450   93.3450   93.3450   93.3450   93.3450 5614.0000  105.0840    0.0470    0.1012    3.2820    2.7080    0.1012 
5614.5000   78.8880   78.8880   78.8880   78.8880   78.8880 5614.5000  116.0350    0.0450    0.1127    3.2710    2.7000    0.1127 
5615.0000   68.9690   68.9690   68.9690   68.9690   68.9690 5615.0000  118.5560    0.0430    0.1264    3.2790    2.6930    0.1264 
5615.5000   63.6840   63.6840   63.6840   63.6840   63.6840 5615.5000  115.6710    0.0410    0.1355    3.2980    2.6860    0.1355 
5616.0000   62.3130   62.3130   62.3130   62.3130   62.3130 5616.0000  115.6410    0.0380    0.1363    3.3280    2.6810    0.1363 
5616.5000   61.4740   61.4740   61.4740   61.4740   61.4740 5616.5000  119.0610    0.0350    0.1339    3.3510    2.6800    0.1339 
5617.0000   60.9260   60.9260   60.9260   60.9260   60.9260 5617.0000  124.5360    0.0340    0.1329    3.4230    2.6870    0.1329 
5617.5000   61.4140   61.4140   61.4140   61.4140   61.4140 5617.5000  120.6900    0.0340    0.1339    3.5610    2.6960    0.1339 
5618.0000   65.6570   65.6570   65.6570   65.6570   65.6570 5618.0000  107.6280    0.0350    0.1322    3.6220    2.7080    0.1322 
5618.5000   74.0420   74.0420   74.0420   74.0420   74.0420 5618.5000   95.2520    0.0370    0.1234    3.5780    2.7160    0.1234 
5619.0000   84.1370   84.1370   84.1370   84.1370   84.1370 5619.0000   91.1740    0.0380    0.1106    3.4960    2.7180    0.1106 
5619.5000   92.2180   92.2180   92.2180   92.2180   92.2180 5619.5000   93.7310    0.0370    0.1020    3.4400    2.7100    0.1020 
5620.0000   95.1490   95.1490   95.1490   95.1490   95.1490 5620.0000   94.9220    0.0370    0.0998    3.4640    2.6990    0.0998 
5620.5000   97.7490   97.7490   97.7490   97.7490   97.7490 5620.5000   92.4830    0.0350    0.0982    3.4700    2.6890    0.0982 
5621.0000  104.7730  104.7730  104.7730  104.7730  104.7730 5621.0000   85.8400    0.0350    0.0922    3.4610    2.6850    0.0922 
5621.5000  116.2240  116.2240  116.2240  116.2240  116.2240 5621.5000   80.4380    0.0340    0.0819    3.4870    2.6810    0.0819 
5622.0000  128.4370  128.4370  128.4370  128.4370  128.4370 5622.0000   77.7030    0.0350    0.0729    3.5050    2.6820    0.0729 
5622.5000  134.5290  134.5290  134.5290  134.5290  134.5290 5622.5000   79.8090    0.0360    0.0702    3.4650    2.6860    0.0702 
5623.0000  133.7050  133.7050  133.7050  133.7050  133.7050 5623.0000   83.9270    0.0380    0.0726    3.4070    2.6900    0.0726 
5623.5000  130.3500  130.3500  130.3500  130.3500  130.3500 5623.5000   85.8560    0.0410    0.0774    3.3590    2.6970    0.0774 
5624.0000  127.8700  127.8700  127.8700  127.8700  127.8700 5624.0000   84.5160    0.0430    0.0809    3.3650    2.7040    0.0809 
5624.5000  128.0730  128.0730  128.0730  128.0730  128.0730 5624.5000   79.4360    0.0440    0.0806    3.3960    2.7090    0.0806 
5625.0000  128.9060  128.9060  128.9060  128.9060  128.9060 5625.0000   75.7740    0.0450    0.0780    3.4070    2.7150    0.0780 
5625.5000  124.9490  124.9490  124.9490  124.9490  124.9490 5625.5000   78.0380    0.0460    0.0777    3.4390    2.7180    0.0777 
5626.0000  111.4880  111.4880  111.4880  111.4880  111.4880 5626.0000   87.6480    0.0480    0.0836    3.4450    2.7240    0.0836 
5626.5000   91.4080   91.4080   91.4080   91.4080   91.4080 5626.5000  100.7660    0.0520    0.0977    3.4930    2.7280    0.0977 
5627.0000   74.4880   74.4880   74.4880   74.4880   74.4880 5627.0000  110.3870    0.0530    0.1157    3.5140    2.7250    0.1157 
5627.5000   65.2340   65.2340   65.2340   65.2340   65.2340 5627.5000  115.4280    0.0540    0.1300    3.4590    2.7190    0.1300 
5628.0000   62.2490   62.2490   62.2490   62.2490   62.2490 5628.0000  118.3170    0.0530    0.1352    3.3940    2.7120    0.1352 
5628.5000   61.9860   61.9860   61.9860   61.9860   61.9860 5628.5000  122.4540    0.0510    0.1332    3.3660    2.7050    0.1332 
5629.0000   61.2710   61.2710   61.2710   61.2710   61.2710 5629.0000  125.9430    0.0490    0.1325    3.4050    2.7020    0.1325 
5629.5000   58.9860   58.9860   58.9860   58.9860   58.9860 5629.5000  126.6070    0.0460    0.1400    3.4700    2.7000    0.1400 
5630.0000   56.3080   56.3080   56.3080   56.3080   56.3080 5630.0000  126.4680    0.0440    0.1525    3.4990    2.7000    0.1525 
5630.5000   54.4660   54.4660   54.4660   54.4660   54.4660 5630.5000  124.9110    0.0430    0.1615    3.4870    2.6990    0.1615 
5631.0000   54.6610   54.6610   54.6610   54.6610   54.6610 5631.0000  124.7140    0.0420    0.1615    3.4840    2.6960    0.1615 
5631.5000   56.1210   56.1210   56.1210   56.1210   56.1210 5631.5000  124.9500    0.0410    0.1539    3.4860    2.6910    0.1539 
5632.0000   57.5780   57.5780   57.5780   57.5780   57.5780 5632.0000  124.2930    0.0420    0.1460    3.5180    2.6880    0.1460 
5632.5000   58.1720   58.1720   58.1720   58.1720   58.1720 5632.5000  122.3480    0.0420    0.1429    3.5290    2.6850    0.1429 
5633.0000   57.4410   57.4410   57.4410   57.4410   57.4410 5633.0000  122.2810    0.0430    0.1456    3.5060    2.6860    0.1456 
5633.5000   55.5290   55.5290   55.5290   55.5290   55.5290 5633.5000  125.1820    0.0460    0.1507    3.4780    2.6920    0.1507 
5634.0000   53.1690   53.1690   53.1690   53.1690   53.1690 5634.0000  130.5940    0.0490    0.1568    3.4740    2.7030    0.1568 
5634.5000   51.4190   51.4190   51.4190   51.4190   51.4190 5634.5000  134.7650    0.0510    0.1627    3.4940    2.7080    0.1627 
5635.0000   51.3110   51.3110   51.3110   51.3110   51.3110 5635.0000  131.4420    0.0510    0.1645    3.5140    2.7100    0.1645 
5635.5000   53.1050   53.1050   53.1050   53.1050   53.1050 5635.5000  126.2580    0.0490    0.1617    3.5660    2.7040    0.1617 
5636.0000   57.0990   57.0990   57.0990   57.0990   57.0990 5636.0000  119.8290    0.0460    0.1532    3.5950    2.6970    0.1532 
5636.5000   62.6180   62.6180   62.6180   62.6180   62.6180 5636.5000  115.4110    0.0450    0.1447    3.5640    2.6900    0.1447 
5637.0000   68.5480   68.5480   68.5480   68.5480   68.5480 5637.0000  113.8970    0.0450    0.1373    3.4490    2.6820    0.1373 
5637.5000   74.2300   74.2300   74.2300   74.2300   74.2300 5637.5000  111.1340    0.0460    0.1294    3.3160    2.6750    0.1294 
5638.0000   78.1230   78.1230   78.1230   78.1230   78.1230 5638.0000  107.9770    0.0490    0.1217    3.2480    2.6750    0.1217 
5638.5000   81.3040   81.3040   81.3040   81.3040   81.3040 5638.5000  106.7740    0.0520    0.1160    3.2470    2.6780    0.1160 
5639.0000   83.9270   83.9270   83.9270   83.9270   83.9270 5639.0000  107.1730    0.0520    0.1155    3.3140    2.6830    0.1155 
5639.5000   86.3410   86.3410   86.3410   86.3410   86.3410 5639.5000  105.5890    0.0500    0.1194    3.4070    2.6880    0.1194 
5640.0000   88.8950   88.8950   88.8950   88.8950   88.8950 5640.0000  101.3340    0.0460    0.1212    3.4590    2.6880    0.1212 
5640.5000   90.6050   90.6050   90.6050   90.6050   90.6050 5640.5000   98.1900    0.0430    0.1173    3.5020    2.6880    0.1173 
5641.0000   91.2030   91.2030   91.2030   91.2030   91.2030 5641.0000   96.7390    0.0420    0.1110    3.5270    2.6890    0.1110 
5641.5000   90.7500   90.7500   90.7500   90.7500   90.7500 5641.5000   98.5510    0.0430    0.1083    3.5360    2.6900    0.1083 
