~Version ---------------------------------------------------
VERS.   2.0 : CWLS log ASCII Standard -VERSION 2.0
WRAP.    NO : One line per depth step
DLM . SPACE : Column Data Section Delimiter
~Well ------------------------------------------------------
STRT  .m                                 0.0 : START DEPTH
STOP  .m                   11221024.30872697 : STOP DEPTH
STEP  .m                           623.56345 : STEP
NULL  .                                 -999 : NULL VALUE
COMP  .      Range Resources Appalachia, LLC : COMPANY
WELL  .                            SNRG-0001 : WELL
FLD   .                                      : FIELD
LOC   . 750'SL & 1060'EL OF NW QTR., SEC. 30 : LOCATION
PROV  .                                      : PROVINCE
CNTY  .                              Carroll : COUNTY
STAT  .                                      : STATE
CTRY  .                                      : COUNTRY
SRVC  .                                      : SERVICE COMPANY
DATE  .           2021-07-11 01:47:10.230360 : DATE
UWI   .                            SNRG-0001 : UNIQUE WELL ID
API   .                            SNRG-0001 : API NUMBER
LIC   .                                      : 
LATI  .                     40.6472950002882 : 
LONG  .                    -81.2941990004645 : 
NS    .                                      : 
EW    .                                      : 
XCOORD.                                      : 
YCOORD.                                      : 
GDAT  .                          (Undefined) : 
SECT  .                                      : 
RANG  .                                      : 
TOWN  .                                      : 
~Curve Information -----------------------------------------
DEPT.m     : 
AO10.OHMM  : ShalRes     Shallow Laterolog
AO20.OHMM  : ShalRes     Shallow Laterolog
AORX.OHMM  : ShalRes     Shallow Laterolog
AT10.OHMM  : ShalRes     Shallow Laterolog
AT20.OHMM  : ShalRes     Shallow Laterolog
GR  .GAPI  : GammaRay    Gamma Ray
HDRA.G/C3  : Drho        Density Correction
NPHI.dec   : Neutron
PEFZ.B/E   : PEF         PE
RHOZ.G/C3  : Density     Compensated Density
TNPH.dec   : Neutron
~Params ----------------------------------------------------
EKB.      : 
EGL.      : 
KB .      : 
GL .      : 
TD .      : 
TDD.      : 
TDL.      : 
~Other -----------------------------------------------------
~ASCII -----------------------------------------------------
# ...
 8323324.94987 108214.70143 108214.70143 108214.70143 108214.70143 108214.70143   59.06379    0.02497    0.13240    4.29248    2.56195    0.13240
 8323948.51332 108213.97259 108213.97259 108213.97259 108213.97259 108213.97259   56.82173    0.02201    0.13275    4.25455    2.55805    0.13275
 8324572.07677 108213.06241 108213.06241 108213.06241 108213.06241 108213.06241   54.50974    0.02303    0.12861    4.37289    2.56210    0.12861
 8325195.64022 108211.84790 108211.84790 108211.84790 108211.84790 108211.84790   53.28771    0.02606    0.12123    4.43940    2.57014    0.12123
 8325819.20367 108209.75859 108209.75859 108209.75859 108209.75859 108209.75859   54.32024    0.03105    0.11496    4.39303    2.58114    0.11496
 8326442.76713 108206.79426 108206.79426 108206.79426 108206.79426 108206.79426   53.58703    0.03502    0.11165    4.31910    2.59210    0.11165
 8327066.33058 108190.58328 108190.58328 108190.58328 108190.58328 108190.58328   47.58245    0.03698    0.10729    4.32840    2.60006    0.10729
 8327689.89403 106544.97859 106544.97859 106544.97859 106544.97859 106544.97859   39.81222    0.03497    0.09824    4.43522    2.60501    0.09824
 8328313.45748 47247.02370 47247.02370 47247.02370 47247.02370 47247.02370   33.81676    0.03195    0.08588    4.52727    2.60593    0.08588
 8328937.02093 16909.39782 16909.39782 16909.39782 16909.39782 16909.39782   32.00554    0.02798    0.07668    4.54775    2.59988    0.07668
 8329560.58438 7205.20728 7205.20728 7205.20728 7205.20728 7205.20728   34.35119    0.02606    0.07492    4.52898    2.58992    0.07492
 8330184.14783 7644.56503 7644.56503 7644.56503 7644.56503 7644.56503   36.92123    0.03116    0.07629    4.52754    2.58299    0.07629
 8330807.71129 20478.96786 20478.96786 20478.96786 20478.96786 20478.96786   34.97724    0.04326    0.07492    4.56864    2.58210    0.07492
 8331431.27474 50365.47957 50365.47957 50365.47957 50365.47957 50365.47957   29.25573    0.06329    0.06808    4.61812    2.59018    0.06808
 8332054.83819 97035.51543 97035.51543 97035.51543 97035.51543 97035.51543   24.54821    0.08524    0.05823    4.62713    2.60314    0.05823
 8332678.40164 108186.92923 108186.92923 108186.92923 108186.92923 108186.92923   25.69075    0.10312    0.05221    4.56026    2.61410    0.05221
 8333301.96509 107391.51978 107391.51978 107391.51978 107391.51978 107391.51978   31.22558    0.11298    0.05315    4.42797    2.62205    0.05315
 8333925.52854 46720.98298 46720.98298 46720.98298 46720.98298 46720.98298   33.03632    0.11089    0.05752    4.34984    2.62602    0.05752
 8334549.09199 13751.72587 13751.72587 13751.72587 13751.72587 13751.72587   28.46168    0.10189    0.05957    4.41479    2.62800    0.05957
 8335172.65545 3471.15780 3471.15780 3471.15780 3471.15780 3471.15780   24.08093    0.09293    0.05728    4.55064    2.62795    0.05728
 8335796.21890 1349.88306 1349.88306 1349.88306 1349.88306 1349.88306   27.43590    0.08700    0.05543    4.52073    2.62395    0.05543
 8336419.78235 1212.02689 1212.02689 1212.02689 1212.02689 1212.02689   36.19548    0.08711    0.05824    4.34783    2.62000    0.05824
 8337043.34580 1415.71606 1415.71606 1415.71606 1415.71606 1415.71606   40.88554    0.09619    0.06207    4.26074    2.62003    0.06207
 8337666.90925 3828.82761 3828.82761 3828.82761 3828.82761 3828.82761   37.12122    0.11022    0.05970    4.39469    2.62316    0.05970
 8338290.47270 10421.92857 10421.92857 10421.92857 10421.92857 10421.92857   29.15653    0.12712    0.05193    4.59957    2.63514    0.05193
 8338914.03615 14665.52300 14665.52300 14665.52300 14665.52300 14665.52300   26.72625    0.13702    0.04559    4.64129    2.64610    0.04559
 8339537.59961 12961.01339 12961.01339 12961.01339 12961.01339 12961.01339   29.28060    0.13892    0.04515    4.51066    2.65403    0.04515
 8340161.16306 4888.28595 4888.28595 4888.28595 4888.28595 4888.28595   32.44524    0.13188    0.04943    4.40926    2.65701    0.04943
 8340784.72651 3911.06584 3911.06584 3911.06584 3911.06584 3911.06584   33.65120    0.12195    0.05196    4.43037    2.65801    0.05196
 8341408.28996 2975.93741 2975.93741 2975.93741 2975.93741 2975.93741   31.60765    0.11806    0.04822    4.53518    2.65906    0.04822
 8342031.85341 2426.97861 2426.97861 2426.97861 2426.97861 2426.97861   30.38050    0.12318    0.04145    4.62456    2.66403    0.04145
 8342655.41686 1634.56846 1634.56846 1634.56846 1634.56846 1634.56846   31.18744    0.13623    0.03681    4.58928    2.66705    0.03681
 8343278.98031 1134.45626 1134.45626 1134.45626 1134.45626 1134.45626   32.12281    0.15320    0.03754    4.53359    2.67100    0.03754
 8343902.54377  876.19580  876.19580  876.19580  876.19580  876.19580   31.55566    0.16810    0.04070    4.50164    2.67097    0.04070
 8344526.10722  693.07435  693.07435  693.07435  693.07435  693.07435   29.60377    0.17602    0.04096    4.47360    2.66794    0.04096
 8345149.67067  633.92005  633.92005  633.92005  633.92005  633.92005   26.68534    0.17797    0.03766    4.44264    2.66289    0.03766
 8345773.23412  614.77716  614.77716  614.77716  614.77716  614.77716   24.60102    0.17494    0.03439    4.41463    2.65388    0.03439
 8346396.79757  626.63437  626.63437  626.63437  626.63437  626.63437   25.39658    0.16994    0.03393    4.38562    2.64388    0.03393
 8347020.36102  532.00588  532.00588  532.00588  532.00588  532.00588   28.67702    0.16497    0.03655    4.35540    2.63393    0.03655
 8347643.92448  395.88762  395.88762  395.88762  395.88762  395.88762   33.72909    0.16197    0.04064    4.30912    2.62797    0.04064
 8348267.48793  304.45319  304.45319  304.45319  304.45319  304.45319   38.66421    0.15897    0.04401    4.24157    2.62498    0.04401
 8348891.05138  251.49309  251.49309  251.49309  251.49309  251.49309   39.54962    0.15590    0.04508    4.13306    2.62292    0.04508
 8349514.61483  243.57707  243.57707  243.57707  243.57707  243.57707   36.21521    0.14786    0.04348    4.06198    2.61592    0.04348
 8350138.17828  245.17721  245.17721  245.17721  245.17721  245.17721   31.67029    0.13686    0.04171    4.06033    2.60893    0.04171
 8350761.74173  232.55807  232.55807  232.55807  232.55807  232.55807   29.82142    0.12594    0.04305    4.08569    2.60293    0.04305
 8351385.30518  206.01157  206.01157  206.01157  206.01157  206.01157   31.59918    0.12108    0.04780    4.13733    2.59698    0.04780
 8352008.86864  173.08186  173.08186  173.08186  173.08186  173.08186   38.69364    0.12819    0.05531    4.08551    2.59502    0.05531
 8352632.43209  146.98567  146.98567  146.98567  146.98567  146.98567   49.34667    0.14212    0.06358    3.97091    2.59698    0.06358
 8353255.99554  134.36835  134.36835  134.36835  134.36835  134.36835   57.26970    0.15205    0.07023    3.81106    2.59500    0.07023
 8353879.55899  130.92788  130.92788  130.92788  130.92788  130.92788   57.99510    0.15593    0.07287    3.66512    2.59501    0.07287
 8354503.12244  138.51085  138.51085  138.51085  138.51085  138.51085   50.71593    0.14989    0.06992    3.75178    2.59606    0.06992
 8355126.68589  160.98663  160.98663  160.98663  160.98663  160.98663   41.64769    0.14094    0.06278    3.96456    2.60110    0.06278
 8355750.24934  203.12589  203.12589  203.12589  203.12589  203.12589   35.92689    0.13605    0.05361    4.15916    2.60910    0.05361
 8356373.81280  254.35708  254.35708  254.35708  254.35708  254.35708   33.48624    0.14013    0.04635    4.24659    2.61706    0.04635
 8356997.37625  299.31808  299.31808  299.31808  299.31808  299.31808   32.36758    0.15014    0.04239    4.21501    2.62208    0.04239
 8357620.93970  336.83303  336.83303  336.83303  336.83303  336.83303   32.17530    0.16103    0.04139    4.21718    2.62901    0.04139
 8358244.50315  371.50854  371.50854  371.50854  371.50854  371.50854   31.43218    0.16397    0.04006    4.30707    2.63007    0.04006
 8358868.06660  402.62847  402.62847  402.62847  402.62847  402.62847   30.53795    0.16086    0.03624    4.38799    2.63605    0.03624
