~VERSION INFORMATION
 VERS.                 2.0:   CWLS LOG ASCII STANDARD - VERSION 2.0
 WRAP.                  NO:   SINGLE LINE PER DEPTH STEP
 CREA.                 5/13/2021 1:24:20 AM
#CREATED USING DSPetro VERSION 10ep.4.05.01 BY H227404 ON 5/13/2021 1:24:20 AM
~WELL INFORMATION
#MNEM.UNIT       DATA                          DESCRIPTION MNEMONIC
#---------      ---------------------------   --------------------------
 STRT    .FT        1000.0000                 : START DEPTH
 STOP    .FT        10000.0000                : STOP DEPTH
 STEP    .FT        0.5000                    : STEP VALUE
 NULL    .      -999.0000                     : NULL VALUE
 DATE    .      5/13/2021                     : LAS file Creation Date
 WELL   .      SNRG-0003                             : Well Name
 COMP   .      COLUMBIA NATURAL RESOURCES INC.        : Company
 FLD    .                                             : Field
 STATE  .      OH                                     : State
 COUNT  .      USA                                    : Country
 API    .      SNRG-0003                         : API Number
 UWI    .      SNRG-0003                         : Unique Well Identifier (UWI)
 LOC    .      200'NL & 500'WL OF  SE QTR. SECTION 28 : Location
 EPDAT  .      1135                                   : Elevation of Permanent Datum
 GL     .      1135                                   : GL Elevation
 RWS    .      0                                      : Def_Rw
 WST    .      0                                      : Def_Rwt
 CNTY   .      COLUMBIANA                             : County
 PROV   .                                             : Province
 MDEC   .      0                                      : Magnetic Declination
 SRVC   .      SCH                                    : Contractor
 GDAT   .      (Undefined)                            : Geodatum
 LONG   .      -80.8118599997626                      : Longitude
 LATI   .      40.6594309997559                       : Latitude
 COORDIN.                                             : Grid System
 XCOORD .                                             : X or East-West Coordinate
 YCOORD .                                             : Y or North-South Coordinate
~CURVE INFORMATION
#MNEM              UNIT       API CODE   Curve Type Comments
#----------  --------------- ----------  ---------- -----------
 DEPTH      .FT                        : Depth       
 AO10       .%                         : ShalRes     SNP
 AO20       .%                         : ShalRes     SNP
 AO30       .OHMM                      : MedRes      ILM
 AO60       .OHMM                      : MedRes      ILM
 AORX       .%                         : ShalRes     SNP
 AT10       .%                         : ShalRes     SNP
 AT20       .%                         : ShalRes     SNP
 AT30       .OHMM                      : MedRes      ILM
 AT60       .OHMM                      : MedRes      ILM
 DEPTH      .FT                        : Depth       
 GR         .GAPI                      : GammaRay    GR
 NPHI       .dec                       : Neutron     
 PEFZ       .B/E                       : PEF         PEF
 RHOZ       .G/CC                      : Density     RHOB
 TNPH       .dec                       : Neutron     
~A  DEPTH    AO10      AO20      AO30      AO60      AORX      AT10      AT20      AT30      AT60     DEPTH       GR       NPHI      PEFZ      RHOZ      TNPH   
# ...
7025.0000    6.5918    6.5918   88.2815   88.2815    6.5918    6.5918    6.5918   88.2815   88.2815 7025.0000  100.5938    0.0659    4.5825    2.6638    0.0659 
7025.5000    6.0913    6.0913  100.2865  100.2865    6.0913    6.0913    6.0913  100.2865  100.2865 7025.5000   91.0625    0.0609    5.1065    2.6669    0.0609 
7026.0000    5.5298    5.5298  108.0843  108.0843    5.5298    5.5298    5.5298  108.0843  108.0843 7026.0000   83.6719    0.0553    5.2109    2.6662    0.0553 
7026.5000    5.1514    5.1514  111.0003  111.0003    5.1514    5.1514    5.1514  111.0003  111.0003 7026.5000   82.7188    0.0515    4.9229    2.6618    0.0515 
7027.0000    5.1269    5.1269  112.9830  112.9830    5.1269    5.1269    5.1269  112.9830  112.9830 7027.0000   85.7344    0.0513    4.4775    2.6620    0.0513 
7027.5000    5.4321    5.4321  111.8678  111.8678    5.4321    5.4321    5.4321  111.8678  111.8678 7027.5000   88.7500    0.0543    4.0864    2.6647    0.0543 
7028.0000    5.8594    5.8594  104.9551  104.9551    5.8594    5.8594    5.8594  104.9551  104.9551 7028.0000   91.6719    0.0586    3.8686    2.6635    0.0586 
7028.5000    6.2500    6.2500   93.8007   93.8007    6.2500    6.2500    6.2500   93.8007   93.8007 7028.5000   95.1250    0.0625    3.7280    2.6606    0.0625 
7029.0000    6.5796    6.5796   81.3511   81.3511    6.5796    6.5796    6.5796   81.3511   81.3511 7029.0000   98.4844    0.0658    3.5454    2.6635    0.0658 
7029.5000    7.1289    7.1289   67.8296   67.8296    7.1289    7.1289    7.1289   67.8296   67.8296 7029.5000  103.2500    0.0713    3.3901    2.6684    0.0713 
7030.0000    7.9468    7.9468   55.1783   55.1783    7.9468    7.9468    7.9468   55.1783   55.1783 7030.0000  112.2656    0.0795    3.3755    2.6667    0.0795 
7030.5000    8.6548    8.6548   47.6754   47.6754    8.6548    8.6548    8.6548   47.6754   47.6754 7030.5000  123.3125    0.0865    3.4775    2.6642    0.0865 
7031.0000    8.8989    8.8989   45.1853   45.1853    8.8989    8.8989    8.8989   45.1853   45.1853 7031.0000  130.2500    0.0890    3.5566    2.6719    0.0890 
7031.5000    8.6304    8.6304   44.4145   44.4145    8.6304    8.6304    8.6304   44.4145   44.4145 7031.5000  129.2969    0.0863    3.5308    2.6889    0.0863 
7032.0000    8.3130    8.3130   43.0273   43.0273    8.3130    8.3130    8.3130   43.0273   43.0273 7032.0000  123.9688    0.0831    3.5005    2.7046    0.0831 
7032.5000    8.2520    8.2520   41.1400   41.1400    8.2520    8.2520    8.2520   41.1400   41.1400 7032.5000  121.8594    0.0825    3.4936    2.7147    0.0825 
7033.0000    8.3740    8.3740   39.6083   39.6083    8.3740    8.3740    8.3740   39.6083   39.6083 7033.0000  125.6250    0.0837    3.4727    2.7225    0.0837 
7033.5000    8.5449    8.5449   38.0048   38.0048    8.5449    8.5449    8.5449   38.0048   38.0048 7033.5000  132.1875    0.0854    3.4570    2.7274    0.0854 
7034.0000    8.7647    8.7647   36.1917   36.1917    8.7647    8.7647    8.7647   36.1917   36.1917 7034.0000  136.3125    0.0876    3.4951    2.7259    0.0876 
7034.5000    9.1797    9.1797   35.1475   35.1475    9.1797    9.1797    9.1797   35.1475   35.1475 7034.5000  135.4063    0.0918    3.6084    2.7206    0.0918 
7035.0000    9.5215    9.5215   35.3812   35.3812    9.5215    9.5215    9.5215   35.3812   35.3812 7035.0000  133.2813    0.0952    3.6929    2.7178    0.0952 
7035.5000    9.4849    9.4849   36.5054   36.5054    9.4849    9.4849    9.4849   36.5054   36.5054 7035.5000  132.6563    0.0948    3.6191    2.7188    0.0948 
7036.0000    9.0820    9.0820   37.9866   37.9866    9.0820    9.0820    9.0820   37.9866   37.9866 7036.0000  131.9688    0.0908    3.4126    2.7206    0.0908 
7036.5000    8.4228    8.4228   40.0239   40.0239    8.4228    8.4228    8.4228   40.0239   40.0239 7036.5000  129.6719    0.0842    3.2271    2.7163    0.0842 
7037.0000    7.7026    7.7026   42.2103   42.2103    7.7026    7.7026    7.7026   42.2103   42.2103 7037.0000  125.1719    0.0770    3.1591    2.7060    0.0770 
7037.5000    7.1411    7.1411   43.5813   43.5813    7.1411    7.1411    7.1411   43.5813   43.5813 7037.5000  120.5000    0.0714    3.2362    2.6996    0.0714 
7038.0000    6.9824    6.9824   44.6959   44.6959    6.9824    6.9824    6.9824   44.6959   44.6959 7038.0000  118.8594    0.0698    3.3372    2.7004    0.0698 
7038.5000    7.1045    7.1045   46.1469   46.1469    7.1045    7.1045    7.1045   46.1469   46.1469 7038.5000  119.9375    0.0710    3.3573    2.7057    0.0710 
7039.0000    7.2144    7.2144   46.8670   46.8670    7.2144    7.2144    7.2144   46.8670   46.8670 7039.0000  120.5625    0.0721    3.2915    2.7109    0.0721 
7039.5000    7.3608    7.3608   45.9614   45.9614    7.3608    7.3608    7.3608   45.9614   45.9614 7039.5000  120.5625    0.0736    3.2180    2.7144    0.0736 
7040.0000    7.7270    7.7270   44.1373   44.1373    7.7270    7.7270    7.7270   44.1373   44.1373 7040.0000  123.1563    0.0773    3.2295    2.7179    0.0773 
7040.5000    8.1665    8.1665   42.8279   42.8279    8.1665    8.1665    8.1665   42.8279   42.8279 7040.5000  128.7344    0.0817    3.2755    2.7181    0.0817 
7041.0000    8.2642    8.2642   43.0805   43.0805    8.2642    8.2642    8.2642   43.0805   43.0805 7041.0000  131.3750    0.0826    3.2733    2.7132    0.0826 
7041.5000    7.9712    7.9712   44.1563   44.1563    7.9712    7.9712    7.9712   44.1563   44.1563 7041.5000  128.4063    0.0797    3.2488    2.7092    0.0797 
7042.0000    7.6904    7.6904   44.6987   44.6987    7.6904    7.6904    7.6904   44.6987   44.6987 7042.0000  123.1563    0.0769    3.2725    2.7126    0.0769 
7042.5000    7.7148    7.7148   44.2910   44.2910    7.7148    7.7148    7.7148   44.2910   44.2910 7042.5000  118.2969    0.0771    3.3811    2.7168    0.0771 
7043.0000    7.9956    7.9956   43.3613   43.3613    7.9956    7.9956    7.9956   43.3613   43.3613 7043.0000  117.3281    0.0800    3.5281    2.7145    0.0800 
7043.5000    8.3130    8.3130   42.5835   42.5835    8.3130    8.3130    8.3130   42.5835   42.5835 7043.5000  121.0781    0.0831    3.6120    2.7125    0.0831 
7044.0000    8.4961    8.4961   42.3345   42.3345    8.4961    8.4961    8.4961   42.3345   42.3345 7044.0000  126.5781    0.0850    3.5681    2.7169    0.0850 
7044.5000    8.5938    8.5938   42.5644   42.5644    8.5938    8.5938    8.5938   42.5644   42.5644 7044.5000  130.2813    0.0859    3.4570    2.7236    0.0859 
7045.0000    8.7158    8.7158   43.0400   43.0400    8.7158    8.7158    8.7158   43.0400   43.0400 7045.0000  130.2500    0.0872    3.4162    2.7256    0.0872 
7045.5000    8.8745    8.8745   43.4888   43.4888    8.8745    8.8745    8.8745   43.4888   43.4888 7045.5000  128.8906    0.0887    3.4277    2.7250    0.0887 
7046.0000    9.0576    9.0576   43.2471   43.2471    9.0576    9.0576    9.0576   43.2471   43.2471 7046.0000  129.4375    0.0906    3.4751    2.7269    0.0906 
7046.5000    9.1797    9.1797   42.2500   42.2500    9.1797    9.1797    9.1797   42.2500   42.2500 7046.5000  132.5781    0.0918    3.5359    2.7327    0.0918 
7047.0000    9.1797    9.1797   41.2510   41.2510    9.1797    9.1797    9.1797   41.2510   41.2510 7047.0000  134.3125    0.0918    3.5550    2.7393    0.0918 
7047.5000    9.2163    9.2163   40.8729   40.8729    9.2163    9.2163    9.2163   40.8729   40.8729 7047.5000  131.4688    0.0922    3.5642    2.7411    0.0922 
7048.0000    9.4360    9.4360   41.0623   41.0623    9.4360    9.4360    9.4360   41.0623   41.0623 7048.0000  127.6094    0.0944    3.5767    2.7383    0.0944 
7048.5000    9.6924    9.6924   41.4077   41.4077    9.6924    9.6924    9.6924   41.4077   41.4077 7048.5000  128.1250    0.0969    3.6392    2.7337    0.0969 
7049.0000    9.7412    9.7412   42.6049   42.6049    9.7412    9.7412    9.7412   42.6049   42.6049 7049.0000  131.5781    0.0974    3.7185    2.7316    0.0974 
7049.5000    9.6069    9.6069   44.2112   44.2112    9.6069    9.6069    9.6069   44.2112   44.2112 7049.5000  132.6563    0.0961    3.7756    2.7327    0.0961 
