~VERSION INFORMATION
 VERS.                 2.0:   CWLS LOG ASCII STANDARD - VERSION 2.0
 WRAP.                  NO:   SINGLE LINE PER DEPTH STEP
 CREA.                 5/13/2021 1:24:19 AM
#CREATED USING DSPetro VERSION 10ep.4.05.01 BY H227404 ON 5/13/2021 1:24:19 AM
~WELL INFORMATION
#MNEM.UNIT       DATA                          DESCRIPTION MNEMONIC
#---------      ---------------------------   --------------------------
 STRT    .FT        0.0000                    : START DEPTH
 STOP    .FT        9000.0000                 : STOP DEPTH
 STEP    .FT        0.5000                    : STEP VALUE
 NULL    .      -999.0000                     : NULL VALUE
 DATE    .      5/13/2021                     : LAS file Creation Date
 WELL   .      SNRG-0001                          : Well Name
 COMP   .      Range Resources Appalachia, LLC      : Company
 FLD    .                                           : Field
 STATE  .      OH                                   : State
 COUNT  .      USA                                  : Country
 API    .      SNRG-0001                       : API Number
 UWI    .      SNRG-0001                       : Unique Well Identifier (UWI)
 LOC    .      750'SL & 1060'EL OF NW QTR., SEC. 30 : Location
 EPDAT  .      964                                  : Elevation of Permanent Datum
 GL     .      954.000                              : GL Elevation
 RWS    .      0                                    : Def_Rw
 WST    .      0                                    : Def_Rwt
 CNTY   .      Carroll                              : County
 PROV   .                                           : Province
 MDEC   .      0                                    : Magnetic Declination
 SRVC   .      WE                                   : Contractor
 GDAT   .      (Undefined)                          : Geodatum
 LONG   .      -81.2941990004645                    : Longitude
 LATI   .      40.6472950002882                     : Latitude
 COORDIN.                                           : Grid System
 XCOORD .                                           : X or East-West Coordinate
 YCOORD .                                           : Y or North-South Coordinate
~CURVE INFORMATION
#MNEM              UNIT       API CODE   Curve Type Comments
#----------  --------------- ----------  ---------- -----------
 DEPTH      .FT                        : Depth       
 AO10       .OHMM                      : ShalRes     Shallow Laterolog
 AO20       .OHMM                      : ShalRes     Shallow Laterolog
 AORX       .OHMM                      : ShalRes     Shallow Laterolog
 AT10       .OHMM                      : ShalRes     Shallow Laterolog
 AT20       .OHMM                      : ShalRes     Shallow Laterolog
 DEPTH      .FT                        : Depth       
 GR         .GAPI                      : GammaRay    Gamma Ray
 HDRA       .G/C3                      : Drho        Density Correction
 NPHI       .dec                       : Neutron     
 PEFZ       .B/E                       : PEF         PE
 RHOZ       .G/C3                      : Density     Compensated Density
 TNPH       .dec                       : Neutron     
~A  DEPTH    AO10      AO20      AORX      AT10      AT20     DEPTH       GR       HDRA      NPHI      PEFZ      RHOZ      TNPH   
# ...
8072.0000  164.2150  164.2150  164.2150  164.2150  164.2150 8072.0000   22.5230    0.0510    0.0605    3.2290    2.7590    0.0605 
8072.5000  259.1320  259.1320  259.1320  259.1320  259.1320 8072.5000   22.6880    0.0460    0.0540    3.1680    2.7680    0.0540 
8073.0000  309.1050  309.1050  309.1050  309.1050  309.1050 8073.0000   21.5640    0.0450    0.0527    3.1190    2.7730    0.0527 
8073.5000  319.5410  319.5410  319.5410  319.5410  319.5410 8073.5000   21.1220    0.0460    0.0544    3.1090    2.7780    0.0544 
8074.0000  306.0810  306.0810  306.0810  306.0810  306.0810 8074.0000   20.8040    0.0490    0.0575    3.1560    2.7830    0.0575 
8074.5000  283.0320  283.0320  283.0320  283.0320  283.0320 8074.5000   19.6450    0.0540    0.0617    3.2000    2.7860    0.0617 
8075.0000  260.1940  260.1940  260.1940  260.1940  260.1940 8075.0000   18.7320    0.0630    0.0643    3.2090    2.7850    0.0643 
8075.5000  259.9560  259.9560  259.9560  259.9560  259.9560 8075.5000   19.5550    0.0760    0.0624    3.2140    2.7830    0.0624 
8076.0000  299.6030  299.6030  299.6030  299.6030  299.6030 8076.0000   22.7250    0.0950    0.0550    3.2100    2.7770    0.0550 
8076.5000  342.9190  342.9190  342.9190  342.9190  342.9190 8076.5000   25.6120    0.1130    0.0471    3.2180    2.7730    0.0471 
8077.0000  323.8350  323.8350  323.8350  323.8350  323.8350 8077.0000   27.4190    0.1220    0.0460    3.2220    2.7700    0.0460 
8077.5000  257.3370  257.3370  257.3370  257.3370  257.3370 8077.5000   27.1420    0.1200    0.0520    3.2160    2.7740    0.0520 
8078.0000  197.9640  197.9640  197.9640  197.9640  197.9640 8078.0000   25.7820    0.1070    0.0597    3.2280    2.7820    0.0597 
8078.5000  180.7400  180.7400  180.7400  180.7400  180.7400 8078.5000   23.3420    0.0880    0.0619    3.2260    2.7920    0.0619 
8079.0000  207.7100  207.7100  207.7100  207.7100  207.7100 8079.0000   19.8410    0.0690    0.0576    3.1890    2.7990    0.0576 
8079.5000  262.6770  262.6770  262.6770  262.6770  262.6770 8079.5000   17.1380    0.0580    0.0532    3.1700    2.8010    0.0532 
8080.0000  330.7640  330.7640  330.7640  330.7640  330.7640 8080.0000   16.5670    0.0580    0.0529    3.1890    2.7970    0.0529 
8080.5000  376.8530  376.8530  376.8530  376.8530  376.8530 8080.5000   18.0920    0.0690    0.0553    3.2380    2.7900    0.0553 
8081.0000  401.5510  401.5510  401.5510  401.5510  401.5510 8081.0000   20.5790    0.0840    0.0557    3.2450    2.7790    0.0557 
8081.5000  426.1850  426.1850  426.1850  426.1850  426.1850 8081.5000   22.3230    0.0970    0.0520    3.1770    2.7690    0.0520 
8082.0000  453.8720  453.8720  453.8720  453.8720  453.8720 8082.0000   22.7060    0.1010    0.0486    3.0990    2.7590    0.0486 
8082.5000  474.2220  474.2220  474.2220  474.2220  474.2220 8082.5000   20.7620    0.0910    0.0491    3.0680    2.7550    0.0491 
8083.0000  497.0100  497.0100  497.0100  497.0100  497.0100 8083.0000   18.0910    0.0750    0.0523    3.1110    2.7590    0.0523 
8083.5000  630.1920  630.1920  630.1920  630.1920  630.1920 8083.5000   18.1430    0.0590    0.0549    3.1780    2.7720    0.0549 
8084.0000  904.0730  904.0730  904.0730  904.0730  904.0730 8084.0000   18.8230    0.0490    0.0532    3.2320    2.7880    0.0532 
8084.5000 1423.4091 1423.4091 1423.4091 1423.4091 1423.4091 8084.5000   19.6890    0.0480    0.0465    3.2640    2.8030    0.0465 
8085.0000 1938.3550 1938.3550 1938.3550 1938.3550 1938.3550 8085.0000   19.3190    0.0510    0.0384    3.2740    2.8100    0.0384 
8085.5000 2118.5720 2118.5720 2118.5720 2118.5720 2118.5720 8085.5000   18.4630    0.0550    0.0329    3.2900    2.8090    0.0329 
8086.0000 2046.6450 2046.6450 2046.6450 2046.6450 2046.6450 8086.0000   19.8550    0.0600    0.0322    3.2860    2.8010    0.0322 
8086.5000 1832.4010 1832.4010 1832.4010 1832.4010 1832.4010 8086.5000   21.5190    0.0650    0.0355    3.2670    2.7870    0.0355 
8087.0000 1574.4950 1574.4950 1574.4950 1574.4950 1574.4950 8087.0000   22.5530    0.0700    0.0404    3.2260    2.7640    0.0404 
8087.5000 1338.5790 1338.5790 1338.5790 1338.5790 1338.5790 8087.5000   22.9950    0.0750    0.0443    3.1490    2.7330    0.0443 
8088.0000 1114.1130 1114.1130 1114.1130 1114.1130 1114.1130 8088.0000   22.3780    0.0800    0.0451    3.0780    2.7010    0.0451 
8088.5000  934.3070  934.3070  934.3070  934.3070  934.3070 8088.5000   22.0410    0.0830    0.0447    3.0500    2.6820    0.0447 
8089.0000  794.4130  794.4130  794.4130  794.4130  794.4130 8089.0000   22.2520    0.0850    0.0461    3.1010    2.6830    0.0461 
8089.5000  678.2810  678.2810  678.2810  678.2810  678.2810 8089.5000   22.3800    0.0830    0.0493    3.2010    2.7040    0.0493 
8090.0000  564.8760  564.8760  564.8760  564.8760  564.8760 8090.0000   23.7150    0.0780    0.0521    3.2620    2.7370    0.0521 
8090.5000  459.1320  459.1320  459.1320  459.1320  459.1320 8090.5000   24.6690    0.0680    0.0530    3.2340    2.7640    0.0530 
8091.0000  340.6190  340.6190  340.6190  340.6190  340.6190 8091.0000   24.5570    0.0600    0.0528    3.1840    2.7810    0.0528 
8091.5000  254.5860  254.5860  254.5860  254.5860  254.5860 8091.5000   23.3430    0.0540    0.0530    3.1450    2.7810    0.0530 
8092.0000  204.1880  204.1880  204.1880  204.1880  204.1880 8092.0000   22.3730    0.0510    0.0529    3.1520    2.7720    0.0529 
8092.5000  183.4290  183.4290  183.4290  183.4290  183.4290 8092.5000   22.4970    0.0500    0.0525    3.1700    2.7610    0.0525 
8093.0000  187.5520  187.5520  187.5520  187.5520  187.5520 8093.0000   22.9150    0.0530    0.0530    3.1950    2.7540    0.0530 
8093.5000  203.6850  203.6850  203.6850  203.6850  203.6850 8093.5000   22.0660    0.0570    0.0547    3.2190    2.7470    0.0547 
8094.0000  222.8440  222.8440  222.8440  222.8440  222.8440 8094.0000   21.4310    0.0660    0.0578    3.2070    2.7390    0.0578 
8094.5000  239.8280  239.8280  239.8280  239.8280  239.8280 8094.5000   23.0020    0.0760    0.0607    3.1780    2.7270    0.0607 
8095.0000  241.9410  241.9410  241.9410  241.9410  241.9410 8095.0000   27.5820    0.0840    0.0618    3.1630    2.7140    0.0618 
8095.5000  236.9540  236.9540  236.9540  236.9540  236.9540 8095.5000   31.3240    0.0890    0.0619    3.1550    2.7060    0.0619 
8096.0000  245.4240  245.4240  245.4240  245.4240  245.4240 8096.0000   30.0650    0.0850    0.0640    3.1470    2.7080    0.0640 
8096.5000  295.0780  295.0780  295.0780  295.0780  295.0780 8096.5000   27.6890    0.0770    0.0704    3.1430    2.7220    0.0704 
8097.0000  405.8120  405.8120  405.8120  405.8120  405.8120 8097.0000   26.8960    0.0670    0.0793    3.1340    2.7440    0.0793 
8097.5000  520.6030  520.6030  520.6030  520.6030  520.6030 8097.5000   28.4830    0.0590    0.0864    3.1620    2.7610    0.0864 
8098.0000  535.2080  535.2080  535.2080  535.2080  535.2080 8098.0000   29.3150    0.0590    0.0907    3.2280    2.7670    0.0907 
8098.5000  454.3110  454.3110  454.3110  454.3110  454.3110 8098.5000   28.1430    0.0630    0.0965    3.2750    2.7570    0.0965 
8099.0000  377.1670  377.1670  377.1670  377.1670  377.1670 8099.0000   26.5820    0.0690    0.1050    3.2560    2.7410    0.1050 
8099.5000  344.9230  344.9230  344.9230  344.9230  344.9230 8099.5000   25.3340    0.0740    0.1086    3.1800    2.7290    0.1086 
8100.0000  376.3800  376.3800  376.3800  376.3800  376.3800 8100.0000   23.4600    0.0760    0.0998    3.1460    2.7290    0.0998 
8100.5000  548.2420  548.2420  548.2420  548.2420  548.2420 8100.5000   22.2310    0.0750    0.0810    3.1910    2.7400    0.0810 
8101.0000  907.0040  907.0040  907.0040  907.0040  907.0040 8101.0000   22.4450    0.0720    0.0621    3.2360    2.7610    0.0621 
8101.5000 1403.3250 1403.3250 1403.3250 1403.3250 1403.3250 8101.5000   23.1540    0.0690    0.0505    3.2340    2.7820    0.0505 
8102.0000 1709.6840 1709.6840 1709.6840 1709.6840 1709.6840 8102.0000   24.9510    0.0660    0.0445    3.1930    2.7970    0.0445 
8102.5000 1381.2440 1381.2440 1381.2440 1381.2440 1381.2440 8102.5000   26.7600    0.0620    0.0426    3.1650    2.8030    0.0426 
