~Version ---------------------------------------------------
VERS.   2.0 : CWLS log ASCII Standard -VERSION 2.0
WRAP.    NO : One line per depth step
DLM . SPACE : Column Data Section Delimiter
~Well ------------------------------------------------------
STRT  .m                                 0.0 : START DEPTH
STOP  .m                   11221024.30872697 : STOP DEPTH
STEP  .m                           623.56345 : STEP
NULL  .                                 -999 : NULL VALUE
COMP  .      Range Resources Appalachia, LLC : COMPANY
WELL  .                            SNRG-0001 : WELL
FLD   .                                      : FIELD
LOC   . 750'SL & 1060'EL OF NW QTR., SEC. 30 : LOCATION
PROV  .                                      : PROVINCE
CNTY  .                              Carroll : COUNTY
STAT  .                                      : STATE
CTRY  .                                      : COUNTRY
SRVC  .                                      : SERVICE COMPANY
DATE  .           2021-07-11 01:47:10.230360 : DATE
UWI   .                            SNRG-0001 : UNIQUE WELL ID
API   .                            SNRG-0001 : API NUMBER
LIC   .                                      : 
LATI  .                     40.6472950002882 : 
LONG  .                    -81.2941990004645 : 
NS    .                                      : 
EW    .                                      : 
XCOORD.                                      : 
YCOORD.                                      : 
GDAT  .                          (Undefined) : 
SECT  .                                      : 
RANG  .                                      : 
TOWN  .                                      : 
~Curve Information -----------------------------------------
DEPT.m     : 
AO10.OHMM  : ShalRes     Shallow Laterolog
AO20.OHMM  : ShalRes     Shallow Laterolog
AORX.OHMM  : ShalRes     Shallow Laterolog
AT10.OHMM  : ShalRes     Shallow Laterolog
AT20.OHMM  : ShalRes     Shallow Laterolog
GR  .GAPI  : GammaRay    Gamma Ray
HDRA.G/C3  : Drho        Density Correction
NPHI.dec   : Neutron
PEFZ.B/E   : PEF         PE
RHOZ.G/C3  : Density     Compensated Density
TNPH.dec   : Neutron
~Params ----------------------------------------------------
EKB.      : 
EGL.      : 
KB .      : 
GL .      : 
TD .      : 
TDD.      : 
TDL.      : 
~Other -----------------------------------------------------
~ASCII -----------------------------------------------------
# ...
 6307967.87480   37.05122   37.05122   37.05122   37.05122   37.05122  144.76685    0.09803    0.20887    3.36677    2.66608    0.20887
 6308591.43825   37.47833   37.47833   37.47833   37.47833   37.47833  144.93808    0.10105    0.20547    3.34381    2.67506    0.20547
 6309215.00171   37.91431   37.91431   37.91431   37.91431   37.91431  143.21782    0.10704    0.19214    3.32635    2.68204    0.19214
 6309838.56516   38.04289   38.04289   38.04289   38.04289   38.04289  140.96763    0.11201    0.17609    3.36257    2.68701    0.17609
 6310462.12861   37.72327   37.72327   37.72327   37.72327   37.72327  138.20305    0.11298    0.16490    3.42026    2.68799    0.16490
 6311085.69206   36.83978   36.83978   36.83978   36.83978   36.83978  136.19637    0.11096    0.16538    3.44620    2.68697    0.16538
 6311709.25551   35.90762   35.90762   35.90762   35.90762   35.90762  135.66221    0.10594    0.17420    3.46607    2.68399    0.17420
 6312332.81896   35.26668   35.26668   35.26668   35.26668   35.26668  139.13513    0.09894    0.18406    3.47374    2.68301    0.18406
 6312956.38241   35.14107   35.14107   35.14107   35.14107   35.14107  143.68859    0.09196    0.19081    3.44636    2.68400    0.19081
 6313579.94587   35.86174   35.86174   35.86174   35.86174   35.86174  146.64623    0.08697    0.19196    3.38045    2.68399    0.19196
 6314203.50932   37.05166   37.05166   37.05166   37.05166   37.05166  145.42761    0.08399    0.18722    3.32569    2.68298    0.18722
 6314827.07277   38.53251   38.53251   38.53251   38.53251   38.53251  141.13163    0.08299    0.17773    3.29483    2.68097    0.17773
 6315450.63622   39.69099   39.69099   39.69099   39.69099   39.69099  136.15837    0.08198    0.16985    3.27812    2.67798    0.16985
 6316074.19967   40.29311   40.29311   40.29311   40.29311   40.29311  133.67866    0.07998    0.16426    3.29121    2.67599    0.16426
 6316697.76312   40.60933   40.60933   40.60933   40.60933   40.60933  132.41000    0.07801    0.15914    3.31222    2.67501    0.15914
 6317321.32657   41.14965   41.14965   41.14965   41.14965   41.14965  128.86481    0.07903    0.15195    3.33411    2.67598    0.15195
 6317944.89003   41.82223   41.82223   41.82223   41.82223   41.82223  124.81071    0.08205    0.14611    3.34460    2.67397    0.14611
 6318568.45348   42.45083   42.45083   42.45083   42.45083   42.45083  122.07856    0.08807    0.14764    3.30362    2.66996    0.14764
 6319192.01693   42.73589   42.73589   42.73589   42.73589   42.73589  122.64109    0.09605    0.15273    3.26520    2.66498    0.15273
 6319815.58038   42.72593   42.72593   42.72593   42.72593   42.72593  123.33618    0.10203    0.15569    3.28530    2.66295    0.15569
 6320439.14383   42.82004   42.82004   42.82004   42.82004   42.82004  121.53938    0.10504    0.15436    3.31557    2.65697    0.15436
 6321062.70728   42.92612   42.92612   42.92612   42.92612   42.92612  120.17146    0.11006    0.14997    3.37189    2.65293    0.14997
 6321686.27073   43.24301   43.24301   43.24301   43.24301   43.24301  119.82299    0.11707    0.14597    3.35989    2.64493    0.14597
 6322309.83419   43.75299   43.75299   43.75299   43.75299   43.75299  120.56945    0.12506    0.14268    3.24932    2.63696    0.14268
 6322933.39764   44.56274   44.56274   44.56274   44.56274   44.56274  125.86953    0.13203    0.13998    3.18138    2.63202    0.13998
 6323556.96109   45.65033   45.65033   45.65033   45.65033   45.65033  131.00915    0.13498    0.13779    3.22188    2.63411    0.13779
 6324180.52454   46.89704   46.89704   46.89704   46.89704   46.89704  128.43109    0.13297    0.13669    3.41095    2.64617    0.13669
 6324804.08799   48.31226   48.31226   48.31226   48.31226   48.31226  118.20588    0.12894    0.13607    3.60732    2.66313    0.13607
 6325427.65144   49.44861   49.44861   49.44861   49.44861   49.44861  104.60732    0.12198    0.13285    3.63822    2.67711    0.13285
 6326051.21489   50.31253   50.31253   50.31253   50.31253   50.31253   97.12547    0.12001    0.12713    3.55921    2.68803    0.12713
 6326674.77835   50.46392   50.46392   50.46392   50.46392   50.46392   96.66999    0.12100    0.11876    3.47897    2.69200    0.11876
 6327298.34180   50.25328   50.25328   50.25328   50.25328   50.25328   96.47288    0.12100    0.11413    3.47626    2.69203    0.11413
 6327921.90525   49.97851   49.97851   49.97851   49.97851   49.97851   96.97482    0.12097    0.11814    3.50258    2.69603    0.11814
 6328545.46870   49.72804   49.72804   49.72804   49.72804   49.72804   98.48673    0.11695    0.12227    3.45828    2.70007    0.12227
 6329169.03215   49.73508   49.73508   49.73508   49.73508   49.73508  101.71566    0.11094    0.11890    3.38436    2.70808    0.11890
 6329792.59560   49.94664   49.94664   49.94664   49.94664   49.94664  107.64964    0.10396    0.10860    3.31861    2.71711    0.10860
 6330416.15906   50.31341   50.31341   50.31341   50.31341   50.31341  114.85619    0.09896    0.09836    3.27892    2.72806    0.09836
 6331039.72251   50.65558   50.65558   50.65558   50.65558   50.65558  119.16276    0.09395    0.09400    3.27018    2.73504    0.09400
 6331663.28596   50.81429   50.81429   50.81429   50.81429   50.81429  117.61153    0.08789    0.09359    3.28741    2.73997    0.09359
 6332286.84941   50.94650   50.94650   50.94650   50.94650   50.94650  114.57533    0.07689    0.09278    3.32946    2.73692    0.09278
 6332910.41286   51.39824   51.39824   51.39824   51.39824   51.39824  115.97976    0.06496    0.09048    3.37641    2.72786    0.09048
 6333533.97631   51.51499   51.51499   51.51499   51.51499   51.51499  124.04139    0.06006    0.08820    3.41923    2.71289    0.08820
 6334157.53976   50.59133   50.59133   50.59133   50.59133   50.59133  133.43428    0.06716    0.08825    3.44142    2.70195    0.08825
 6334781.10322   48.09710   48.09710   48.09710   48.09710   48.09710  139.56961    0.08317    0.09371    3.38290    2.69601    0.09371
 6335404.66667   45.08950   45.08950   45.08950   45.08950   45.08950  140.28126    0.10007    0.10462    3.27361    2.69697    0.10462
 6336028.23012   43.03287   43.03287   43.03287   43.03287   43.03287  134.63863    0.10803    0.11719    3.23496    2.69289    0.11719
 6336651.79357   42.11966   42.11966   42.11966   42.11966   42.11966  126.76405    0.11206    0.12671    3.33241    2.68171    0.12671
 6337275.35702   42.08301   42.08301   42.08301   42.08301   42.08301  122.28984    0.11919    0.12827    3.47323    2.65261    0.12827
 6337898.92047   41.76891   41.76891   41.76891   41.76891   41.76891  124.42239    0.13729    0.12512    3.49531    2.61257    0.12512
 6338522.48392   40.04062   40.04062   40.04062   40.04062   40.04062  130.20522    0.16631    0.12780    3.42558    2.56765    0.12780
 6339146.04738   37.78396   37.78396   37.78396   37.78396   37.78396  135.54284    0.19723    0.13844    3.38313    2.53180    0.13844
 6339769.61083   35.57080   35.57080   35.57080   35.57080   35.57080  137.60561    0.22011    0.15343    3.39718    2.51197    0.15343
 6340393.17428   34.24935   34.24935   34.24935   34.24935   34.24935  135.42969    0.23099    0.16760    3.41424    2.50813    0.16760
 6341016.73773   33.98839   33.98839   33.98839   33.98839   33.98839  131.07462    0.22989    0.17797    3.43786    2.52227    0.17797
 6341640.30118   34.33298   34.33298   34.33298   34.33298   34.33298  127.93331    0.21778    0.18581    3.42267    2.54929    0.18581
 6342263.86463   35.03443   35.03443   35.03443   35.03443   35.03443  127.18247    0.19575    0.18689    3.39018    2.57825    0.18689
 6342887.42808   35.57453   35.57453   35.57453   35.57453   35.57453  129.05928    0.17081    0.17572    3.40761    2.60311    0.17572
 6343510.99154   35.42072   35.42072   35.42072   35.42072   35.42072  132.62729    0.15297    0.15859    3.46975    2.61408    0.15859
 6344134.55499   34.48379   34.48379   34.48379   34.48379   34.48379  137.79001    0.15011    0.14771    3.54624    2.62306    0.14771
