~Version ---------------------------------------------------
VERS.   2.0 : CWLS log ASCII Standard -VERSION 2.0
WRAP.    NO : One line per depth step
DLM . SPACE : Column Data Section Delimiter
~Well ------------------------------------------------------
STRT  .m                                 0.0 : START DEPTH
STOP  .m                   11221024.30872697 : STOP DEPTH
STEP  .m                           623.56345 : STEP
NULL  .                                 -999 : NULL VALUE
COMP  .      Range Resources Appalachia, LLC : COMPANY
WELL  .                            SNRG-0001 : WELL
FLD   .                                      : FIELD
LOC   . 750'SL & 1060'EL OF NW QTR., SEC. 30 : LOCATION
PROV  .                                      : PROVINCE
CNTY  .                              Carroll : COUNTY
STAT  .                                      : STATE
CTRY  .                                      : COUNTRY
SRVC  .                                      : SERVICE COMPANY
DATE  .           2021-07-11 01:47:10.230360 : DATE
UWI   .                            SNRG-0001 : UNIQUE WELL ID
API   .                            SNRG-0001 : API NUMBER
LIC   .                                      : 
LATI  .                     40.6472950002882 : 
LONG  .                    -81.2941990004645 : 
NS    .                                      : 
EW    .                                      : 
XCOORD.                                      : 
YCOORD.                                      : 
GDAT  .                          (Undefined) : 
SECT  .                                      : 
RANG  .                                      : 
TOWN  .                                      : 
~Curve Information -----------------------------------------
DEPT.m     : 
AO10.OHMM  : ShalRes     Shallow Laterolog
AO20.OHMM  : ShalRes     Shallow Laterolog
AORX.OHMM  : ShalRes     Shallow Laterolog
AT10.OHMM  : ShalRes     Shallow Laterolog
AT20.OHMM  : ShalRes     Shallow Laterolog
GR  .GAPI  : GammaRay    Gamma Ray
HDRA.G/C3  : Drho        Density Correction
NPHI.dec   : Neutron
PEFZ.B/E   : PEF         PE
RHOZ.G/C3  : Density     Compensated Density
TNPH.dec   : Neutron
~Params ----------------------------------------------------
EKB.      : 
EGL.      : 
KB .      : 
GL .      : 
TD .      : 
TDD.      : 
TDL.      : 
~Other -----------------------------------------------------
~ASCII -----------------------------------------------------
# ...
 7669206.88930   67.83645   67.83645   67.83645   67.83645   67.83645  112.31729    0.23304    0.18255    3.75410    2.49781    0.18255
 7669830.45276   66.53270   66.53270   66.53270   66.53270   66.53270  117.07460    0.23697    0.17812    3.59698    2.48274    0.17812
 7670454.01621   64.53083   64.53083   64.53083   64.53083   64.53083  120.51811    0.23389    0.17984    3.51220    2.46077    0.17984
 7671077.57966   64.62252   64.62252   64.62252   64.62252   64.62252  121.98601    0.22487    0.18321    3.52953    2.44193    0.18321
 7671701.14311   66.92981   66.92981   66.92981   66.92981   66.92981  119.63951    0.21394    0.18437    3.65665    2.43504    0.18437
 7672324.70656   70.73168   70.73168   70.73168   70.73168   70.73168  115.78306    0.20804    0.18164    3.79246    2.43920    0.18164
 7672948.27001   73.34987   73.34987   73.34987   73.34987   73.34987  113.30246    0.21211    0.17614    3.83020    2.45521    0.17614
 7673571.83346   74.15196   74.15196   74.15196   74.15196   74.15196  111.95470    0.22112    0.17089    3.76246    2.47222    0.17089
 7674195.39692   73.13978   73.13978   73.13978   73.13978   73.13978  113.35450    0.23107    0.17047    3.63535    2.49016    0.17047
 7674818.96037   71.12668   71.12668   71.12668   71.12668   71.12668  115.73567    0.23801    0.17722    3.58100    2.50313    0.17722
 7675442.52382   69.36570   69.36570   69.36570   69.36570   69.36570  118.92428    0.23894    0.18800    3.58099    2.51413    0.18800
 7676066.08727   68.84855   68.84855   68.84855   68.84855   68.84855  119.29414    0.23286    0.19639    3.58112    2.52517    0.19639
 7676689.65072   69.06002   69.06002   69.06002   69.06002   69.06002  113.21200    0.22088    0.19543    3.67509    2.53914    0.19543
 7677313.21417   69.22215   69.22215   69.22215   69.22215   69.22215  105.44494    0.21096    0.18161    3.84831    2.55111    0.18161
 7677936.77762   68.81613   68.81613   68.81613   68.81613   68.81613  102.76762    0.20701    0.16620    3.95562    2.56002    0.16620
 7678560.34108   68.25070   68.25070   68.25070   68.25070   68.25070  106.91705    0.20804    0.16660    3.92225    2.56197    0.16660
 7679183.90453   68.31834   68.31834   68.31834   68.31834   68.31834  112.97229    0.21202    0.18271    3.77649    2.55896    0.18271
 7679807.46798   69.19994   69.19994   69.19994   69.19994   69.19994  116.97192    0.21398    0.19965    3.65158    2.55496    0.19965
 7680431.03143   72.01858   72.01858   72.01858   72.01858   72.01858  119.38916    0.21198    0.20424    3.61588    2.55103    0.20424
 7681054.59488   74.46747   74.46747   74.46747   74.46747   74.46747  122.90936    0.21000    0.19894    3.60577    2.55407    0.19894
 7681678.15833   75.81858   75.81858   75.81858   75.81858   75.81858  127.65358    0.21006    0.19358    3.58712    2.56112    0.19358
 7682301.72178   75.43981   75.43981   75.43981   75.43981   75.43981  129.87355    0.21605    0.19202    3.59686    2.57111    0.19202
 7682925.28524   74.01752   74.01752   74.01752   74.01752   74.01752  132.98769    0.22099    0.19405    3.58494    2.58011    0.19405
 7683548.84869   73.22272   73.22272   73.22272   73.22272   73.22272  135.37195    0.21995    0.19871    3.57933    2.58907    0.19871
 7684172.41214   71.78034   71.78034   71.78034   71.78034   71.78034  137.70448    0.21495    0.20771    3.60673    2.59600    0.20771
 7684795.97559   69.80659   69.80659   69.80659   69.80659   69.80659  140.68548    0.20998    0.21692    3.66730    2.59591    0.21692
 7685419.53904   67.19875   67.19875   67.19875   67.19875   67.19875  138.87915    0.20803    0.21877    3.69131    2.58782    0.21877
 7686043.10249   64.94392   64.94392   64.94392   64.94392   64.94392  135.39064    0.21107    0.21570    3.63298    2.57379    0.21570
 7686666.66594   63.53184   63.53184   63.53184   63.53184   63.53184  130.95987    0.21812    0.21584    3.54729    2.55680    0.21584
 7687290.22940   62.85324   62.85324   62.85324   62.85324   62.85324  126.89468    0.22805    0.21922    3.48813    2.54088    0.21922
 7687913.79285   62.11587   62.11587   62.11587   62.11587   62.11587  124.47260    0.23301    0.22097    3.49955    2.53096    0.22097
 7688537.35630   60.52347   60.52347   60.52347   60.52347   60.52347  123.38192    0.23398    0.21773    3.54460    2.52698    0.21773
 7689160.91975   58.65536   58.65536   58.65536   58.65536   58.65536  124.44449    0.23195    0.21077    3.59387    2.52494    0.21077
 7689784.48320   57.12212   57.12212   57.12212   57.12212   57.12212  124.48074    0.22696    0.20841    3.58257    2.51899    0.20841
 7690408.04665   57.05781   57.05781   57.05781   57.05781   57.05781  124.05968    0.22296    0.20955    3.54565    2.51804    0.20955
 7691031.61010   57.87088   57.87088   57.87088   57.87088   57.87088  125.19198    0.21899    0.20497    3.51723    2.52218    0.20497
 7691655.17356   58.52063   58.52063   58.52063   58.52063   58.52063  126.01322    0.21802    0.19407    3.53683    2.53619    0.19407
 7692278.73701   58.72626   58.72626   58.72626   58.72626   58.72626  126.08872    0.22003    0.18294    3.60584    2.55121    0.18294
 7692902.30046   57.66694   57.66694   57.66694   57.66694   57.66694  123.72594    0.22302    0.17771    3.59297    2.56820    0.17771
 7693525.86391   56.51721   56.51721   56.51721   56.51721   56.51721  120.00412    0.22493    0.17913    3.58951    2.58407    0.17913
 7694149.42736   57.05041   57.05041   57.05041   57.05041   57.05041  118.10552    0.21784    0.18169    3.54838    2.59105    0.18169
 7694772.99081   59.16686   59.16686   59.16686   59.16686   59.16686  116.36458    0.20481    0.18106    3.49695    2.59603    0.18106
 7695396.55427   61.96616   61.96616   61.96616   61.96616   61.96616  118.59848    0.18986    0.17747    3.49160    2.59901    0.17747
 7696020.11772   63.61163   63.61163   63.61163   63.61163   63.61163  123.29818    0.17796    0.17433    3.45796    2.59994    0.17433
 7696643.68117   62.65083   62.65083   62.65083   62.65083   62.65083  129.03466    0.17405    0.17682    3.45399    2.59388    0.17682
 7697267.24462   60.14175   60.14175   60.14175   60.14175   60.14175  134.11367    0.17912    0.18700    3.45313    2.58386    0.18700
 7697890.80807   57.13916   57.13916   57.13916   57.13916   57.13916  135.52427    0.18914    0.20284    3.46445    2.57193    0.20284
 7698514.37152   54.67255   54.67255   54.67255   54.67255   54.67255  131.71824    0.20111    0.21505    3.50212    2.56497    0.21505
 7699137.93497   53.23138   53.23138   53.23138   53.23138   53.23138  126.96746    0.21009    0.21989    3.51207    2.56203    0.21989
 7699761.49843   52.43031   52.43031   52.43031   52.43031   52.43031  126.10368    0.21806    0.21904    3.51896    2.56514    0.21904
 7700385.06188   51.28614   51.28614   51.28614   51.28614   51.28614  126.15810    0.22399    0.21302    3.51516    2.57716    0.21302
 7701008.62533   49.39086   49.39086   49.39086   49.39086   49.39086  125.98382    0.22295    0.20542    3.52884    2.59014    0.20542
 7701632.18878   47.55892   47.55892   47.55892   47.55892   47.55892  124.32571    0.21791    0.19770    3.59880    2.60195    0.19770
 7702255.75223   46.06718   46.06718   46.06718   46.06718   46.06718  124.14088    0.20997    0.18954    3.66546    2.59682    0.18954
 7702879.31568   45.33878   45.33878   45.33878   45.33878   45.33878  124.36240    0.20707    0.18434    3.70355    2.58268    0.18434
 7703502.87913   44.90739   44.90739   44.90739   44.90739   44.90739  123.00109    0.21418    0.17838    3.66534    2.55668    0.17838
 7704126.44259   44.61193   44.61193   44.61193   44.61193   44.61193  123.05012    0.22821    0.16820    3.61051    2.53071    0.16820
 7704750.00604   44.60641   44.60641   44.60641   44.60641   44.60641  126.96398    0.24517    0.15991    3.56915    2.50675    0.15991
 7705373.56949   44.72409   44.72409   44.72409   44.72409   44.72409  131.49008    0.25909    0.16148    3.49912    2.48583    0.16148
