~VERSION INFORMATION
 VERS.                 2.0:   CWLS LOG ASCII STANDARD - VERSION 2.0
 WRAP.                  NO:   SINGLE LINE PER DEPTH STEP
 CREA.                 5/13/2021 1:24:20 AM
#CREATED USING DSPetro VERSION 10ep.4.05.01 BY H227404 ON 5/13/2021 1:24:20 AM
~WELL INFORMATION
#MNEM.UNIT       DATA                          DESCRIPTION MNEMONIC
#---------      ---------------------------   --------------------------
 STRT    .FT        1000.0000                 : START DEPTH
 STOP    .FT        10000.0000                : STOP DEPTH
 STEP    .FT        0.5000                    : STEP VALUE
 NULL    .      -999.0000                     : NULL VALUE
 DATE    .      5/13/2021                     : LAS file Creation Date
 WELL   .      SNRG-0003                             : Well Name
 COMP   .      COLUMBIA NATURAL RESOURCES INC.        : Company
 FLD    .                                             : Field
 STATE  .      OH                                     : State
 COUNT  .      USA                                    : Country
 API    .      SNRG-0003                         : API Number
 UWI    .      SNRG-0003                         : Unique Well Identifier (UWI)
 LOC    .      200'NL & 500'WL OF  SE QTR. SECTION 28 : Location
 EPDAT  .      1135                                   : Elevation of Permanent Datum
 GL     .      1135                                   : GL Elevation
 RWS    .      0                                      : Def_Rw
 WST    .      0                                      : Def_Rwt
 CNTY   .      COLUMBIANA                             : County
 PROV   .                                             : Province
 MDEC   .      0                                      : Magnetic Declination
 SRVC   .      SCH                                    : Contractor
 GDAT   .      (Undefined)                            : Geodatum
 LONG   .      -80.8118599997626                      : Longitude
 LATI   .      40.6594309997559                       : Latitude
 COORDIN.                                             : Grid System
 XCOORD .                                             : X or East-West Coordinate
 YCOORD .                                             : Y or North-South Coordinate
~CURVE INFORMATION
#MNEM              UNIT       API CODE   Curve Type Comments
#----------  --------------- ----------  ---------- -----------
 DEPTH      .FT                        : Depth       
 AO10       .%                         : ShalRes     SNP
 AO20       .%                         : ShalRes     SNP
 AO30       .OHMM                      : MedRes      ILM
 AO60       .OHMM                      : MedRes      ILM
 AORX       .%                         : ShalRes     SNP
 AT10       .%                         : ShalRes     SNP
 AT20       .%                         : ShalRes     SNP
 AT30       .OHMM                      : MedRes      ILM
 AT60       .OHMM                      : MedRes      ILM
 DEPTH      .FT                        : Depth       
 GR         .GAPI                      : GammaRay    GR
 NPHI       .dec                       : Neutron     
 PEFZ       .B/E                       : PEF         PEF
 RHOZ       .G/CC                      : Density     RHOB
 TNPH       .dec                       : Neutron     
~A  DEPTH    AO10      AO20      AO30      AO60      AORX      AT10      AT20      AT30      AT60     DEPTH       GR       NPHI      PEFZ      RHOZ      TNPH   
# ...
7575.0000   13.0859   13.0859   32.9063   32.9063   13.0859   13.0859   13.0859   32.9063   32.9063 7575.0000  127.2031    0.1309    4.1856    2.7218    0.1309 
7575.5000   13.5498   13.5498   35.5313   35.5313   13.5498   13.5498   13.5498   35.5313   35.5313 7575.5000  133.4531    0.1355    4.2207    2.7274    0.1355 
7576.0000   13.1103   13.1103   39.8399   39.8399   13.1103   13.1103   13.1103   39.8399   39.8399 7576.0000  135.1406    0.1311    4.4600    2.7215    0.1311 
7576.5000   11.9141   11.9141   43.6709   43.6709   11.9141   11.9141   11.9141   43.6709   43.6709 7576.5000  128.5469    0.1191    4.7148    2.7125    0.1191 
7577.0000   10.9131   10.9131   44.1387   44.1387   10.9131   10.9131   10.9131   44.1387   44.1387 7577.0000  116.5781    0.1091    4.6826    2.7117    0.1091 
7577.5000   10.9863   10.9863   42.1406   42.1406   10.9863   10.9863   10.9863   42.1406   42.1406 7577.5000  106.2969    0.1099    4.4053    2.7171    0.1099 
7578.0000   11.9629   11.9629   40.4229   40.4229   11.9629   11.9629   11.9629   40.4229   40.4229 7578.0000  107.7344    0.1196    4.1348    2.7178    0.1196 
7578.5000   12.9761   12.9761   39.7446   39.7446   12.9761   12.9761   12.9761   39.7446   39.7446 7578.5000  121.5938    0.1298    4.0352    2.7122    0.1298 
7579.0000   13.6475   13.6475   39.6563   39.6563   13.6475   13.6475   13.6475   39.6563   39.6563 7579.0000  136.7031    0.1365    4.0273    2.7063    0.1365 
7579.5000   14.1480   14.1480   40.3359   40.3359   14.1480   14.1480   14.1480   40.3359   40.3359 7579.5000  144.9375    0.1415    3.9878    2.7046    0.1415 
7580.0000   14.5630   14.5630   41.4258   41.4258   14.5630   14.5630   14.5630   41.4258   41.4258 7580.0000  146.8438    0.1456    3.9175    2.7056    0.1456 
7580.5000   14.7949   14.7949   41.0898   41.0898   14.7949   14.7949   14.7949   41.0898   41.0898 7580.5000  146.5938    0.1479    3.8682    2.7037    0.1479 
7581.0000   14.7095   14.7095   38.5898   38.5898   14.7095   14.7095   14.7095   38.5898   38.5898 7581.0000  144.5000    0.1471    3.8911    2.6999    0.1471 
7581.5000   14.1724   14.1724   36.3125   36.3125   14.1724   14.1724   14.1724   36.3125   36.3125 7581.5000  140.4688    0.1417    3.9810    2.6985    0.1417 
7582.0000   13.4522   13.4522   35.9288   35.9288   13.4522   13.4522   13.4522   35.9288   35.9288 7582.0000  136.0938    0.1345    4.0869    2.7009    0.1345 
7582.5000   13.1592   13.1592   35.8385   35.8385   13.1592   13.1592   13.1592   35.8385   35.8385 7582.5000  133.0625    0.1316    4.1768    2.7061    0.1316 
7583.0000   13.4522   13.4522   34.3223   34.3223   13.4522   13.4522   13.4522   34.3223   34.3223 7583.0000  134.2500    0.1345    4.2119    2.7113    0.1345 
7583.5000   13.9893   13.9893   32.0890   32.0890   13.9893   13.9893   13.9893   32.0890   32.0890 7583.5000  139.3750    0.1399    4.1055    2.7123    0.1399 
7584.0000   14.3555   14.3555   30.9981   30.9981   14.3555   14.3555   14.3555   30.9981   30.9981 7584.0000  146.0625    0.1436    3.9609    2.7086    0.1436 
7584.5000   14.4043   14.4043   30.4287   30.4287   14.4043   14.4043   14.4043   30.4287   30.4287 7584.5000  150.7188    0.1440    3.9663    2.7042    0.1440 
7585.0000   14.1968   14.1968   30.0923   30.0923   14.1968   14.1968   14.1968   30.0923   30.0923 7585.0000  150.8125    0.1420    4.0938    2.7031    0.1420 
7585.5000   13.9770   13.9770   29.7861   29.7861   13.9770   13.9770   13.9770   29.7861   29.7861 7585.5000  148.2813    0.1398    4.2134    2.7081    0.1398 
7586.0000   13.9648   13.9648   29.3880   29.3880   13.9648   13.9648   13.9648   29.3880   29.3880 7586.0000  145.6250    0.1396    4.1924    2.7148    0.1396 
7586.5000   14.1113   14.1113   28.9443   28.9443   14.1113   14.1113   14.1113   28.9443   28.9443 7586.5000  144.4375    0.1411    4.1250    2.7165    0.1411 
7587.0000   14.3799   14.3799   28.4570   28.4570   14.3799   14.3799   14.3799   28.4570   28.4570 7587.0000  142.6875    0.1438    4.1221    2.7158    0.1438 
7587.5000   14.7095   14.7095   27.9463   27.9463   14.7095   14.7095   14.7095   27.9463   27.9463 7587.5000  139.5313    0.1471    4.1641    2.7151    0.1471 
7588.0000   14.9292   14.9292   27.4463   27.4463   14.9292   14.9292   14.9292   27.4463   27.4463 7588.0000  138.0625    0.1493    4.2920    2.7152    0.1493 
7588.5000   14.9414   14.9414   27.0121   27.0121   14.9414   14.9414   14.9414   27.0121   27.0121 7588.5000  139.0625    0.1494    4.4190    2.7154    0.1494 
7589.0000   14.7583   14.7583   26.8097   26.8097   14.7583   14.7583   14.7583   26.8097   26.8097 7589.0000  141.4688    0.1476    4.4590    2.7145    0.1476 
7589.5000   14.5630   14.5630   26.6361   26.6361   14.5630   14.5630   14.5630   26.6361   26.6361 7589.5000  143.5938    0.1456    4.4033    2.7129    0.1456 
7590.0000   14.4653   14.4653   26.0603   26.0603   14.4653   14.4653   14.4653   26.0603   26.0603 7590.0000  145.2188    0.1447    4.2881    2.7085    0.1447 
7590.5000   14.5996   14.5996   25.4231   25.4231   14.5996   14.5996   14.5996   25.4231   25.4231 7590.5000  146.5938    0.1460    4.1953    2.7045    0.1460 
7591.0000   15.0513   15.0513   25.0018   25.0018   15.0513   15.0513   15.0513   25.0018   25.0018 7591.0000  147.8750    0.1505    4.0977    2.7060    0.1505 
7591.5000   15.5640   15.5640   24.6793   24.6793   15.5640   15.5640   15.5640   24.6793   24.6793 7591.5000  149.8750    0.1556    3.9907    2.7090    0.1556 
7592.0000   15.8569   15.8569   24.3267   24.3267   15.8569   15.8569   15.8569   24.3267   24.3267 7592.0000  152.2500    0.1586    3.8931    2.7088    0.1586 
7592.5000   15.8325   15.8325   23.9685   23.9685   15.8325   15.8325   15.8325   23.9685   23.9685 7592.5000  154.3125    0.1583    3.8247    2.7059    0.1583 
7593.0000   15.6616   15.6616   23.7213   23.7213   15.6616   15.6616   15.6616   23.7213   23.7213 7593.0000  155.0938    0.1566    3.7954    2.7045    0.1566 
7593.5000   15.5151   15.5151   23.5190   23.5190   15.5151   15.5151   15.5151   23.5190   23.5190 7593.5000  152.7188    0.1552    3.7769    2.7053    0.1552 
7594.0000   15.3198   15.3198   23.4307   23.4307   15.3198   15.3198   15.3198   23.4307   23.4307 7594.0000  147.3125    0.1532    3.7446    2.7079    0.1532 
7594.5000   14.9414   14.9414   23.5310   23.5310   14.9414   14.9414   14.9414   23.5310   23.5310 7594.5000  141.9063    0.1494    3.7041    2.7137    0.1494 
7595.0000   14.3555   14.3555   23.5935   23.5935   14.3555   14.3555   14.3555   23.5935   23.5935 7595.0000  138.1563    0.1436    3.6675    2.7197    0.1436 
7595.5000   13.7695   13.7695   23.4567   23.4567   13.7695   13.7695   13.7695   23.4567   23.4567 7595.5000  136.9063    0.1377    3.6397    2.7213    0.1377 
7596.0000   13.5498   13.5498   23.2581   23.2581   13.5498   13.5498   13.5498   23.2581   23.2581 7596.0000  138.6875    0.1355    3.6572    2.7180    0.1355 
7596.5000   13.6963   13.6963   23.1235   23.1235   13.6963   13.6963   13.6963   23.1235   23.1235 7596.5000  141.0313    0.1370    3.7241    2.7143    0.1370 
7597.0000   13.9893   13.9893   23.0389   23.0389   13.9893   13.9893   13.9893   23.0389   23.0389 7597.0000  141.2813    0.1399    3.8364    2.7146    0.1399 
7597.5000   14.2090   14.2090   23.1361   23.1361   14.2090   14.2090   14.2090   23.1361   23.1361 7597.5000  139.8438    0.1421    3.9409    2.7172    0.1421 
7598.0000   14.2700   14.2700   23.4201   23.4201   14.2700   14.2700   14.2700   23.4201   23.4201 7598.0000  139.8438    0.1427    4.0356    2.7150    0.1427 
7598.5000   14.2456   14.2456   23.7484   23.7484   14.2456   14.2456   14.2456   23.7484   23.7484 7598.5000  142.8438    0.1425    4.1006    2.7088    0.1425 
7599.0000   14.1602   14.1602   24.1549   24.1549   14.1602   14.1602   14.1602   24.1549   24.1549 7599.0000  146.8438    0.1416    4.0723    2.7059    0.1416 
7599.5000   14.1480   14.1480   25.1155   25.1155   14.1480   14.1480   14.1480   25.1155   25.1155 7599.5000  151.0313    0.1415    4.0542    2.7056    0.1415 
