~VERSION INFORMATION
 VERS.                 2.0:   CWLS LOG ASCII STANDARD - VERSION 2.0
 WRAP.                  NO:   SINGLE LINE PER DEPTH STEP
 CREA.                 5/13/2021 1:24:20 AM
#CREATED USING DSPetro VERSION 10ep.4.05.01 BY H227404 ON 5/13/2021 1:24:20 AM
~WELL INFORMATION
#MNEM.UNIT       DATA                          DESCRIPTION MNEMONIC
#---------      ---------------------------   --------------------------
 STRT    .FT        1000.0000                 : START DEPTH
 STOP    .FT        10000.0000                : STOP DEPTH
 STEP    .FT        0.5000                    : STEP VALUE
 NULL    .      -999.0000                     : NULL VALUE
 DATE    .      5/13/2021                     : LAS file Creation Date
 WELL   .      SNRG-0003                             : Well Name
 COMP   .      COLUMBIA NATURAL RESOURCES INC.        : Company
 FLD    .                                             : Field
 STATE  .      OH                                     : State
 COUNT  .      USA                                    : Country
 API    .      SNRG-0003                         : API Number
 UWI    .      SNRG-0003                         : Unique Well Identifier (UWI)
 LOC    .      200'NL & 500'WL OF  SE QTR. SECTION 28 : Location
 EPDAT  .      1135                                   : Elevation of Permanent Datum
 GL     .      1135                                   : GL Elevation
 RWS    .      0                                      : Def_Rw
 WST    .      0                                      : Def_Rwt
 CNTY   .      COLUMBIANA                             : County
 PROV   .                                             : Province
 MDEC   .      0                                      : Magnetic Declination
 SRVC   .      SCH                                    : Contractor
 GDAT   .      (Undefined)                            : Geodatum
 LONG   .      -80.8118599997626                      : Longitude
 LATI   .      40.6594309997559                       : Latitude
 COORDIN.                                             : Grid System
 XCOORD .                                             : X or East-West Coordinate
 YCOORD .                                             : Y or North-South Coordinate
~CURVE INFORMATION
#MNEM              UNIT       API CODE   Curve Type Comments
#----------  --------------- ----------  ---------- -----------
 DEPTH      .FT                        : Depth       
 AO10       .%                         : ShalRes     SNP
 AO20       .%                         : ShalRes     SNP
 AO30       .OHMM                      : MedRes      ILM
 AO60       .OHMM                      : MedRes      ILM
 AORX       .%                         : ShalRes     SNP
 AT10       .%                         : ShalRes     SNP
 AT20       .%                         : ShalRes     SNP
 AT30       .OHMM                      : MedRes      ILM
 AT60       .OHMM                      : MedRes      ILM
 DEPTH      .FT                        : Depth       
 GR         .GAPI                      : GammaRay    GR
 NPHI       .dec                       : Neutron     
 PEFZ       .B/E                       : PEF         PEF
 RHOZ       .G/CC                      : Density     RHOB
 TNPH       .dec                       : Neutron     
~A  DEPTH    AO10      AO20      AO30      AO60      AORX      AT10      AT20      AT30      AT60     DEPTH       GR       NPHI      PEFZ      RHOZ      TNPH   
# ...
4300.0000    2.0142    2.0142  301.8550  301.8550    2.0142    2.0142    2.0142  301.8550  301.8550 4300.0000   22.8228    0.0201    2.4769    2.6629    0.0201 
4300.5000    1.9409    1.9409  300.4795  300.4795    1.9409    1.9409    1.9409  300.4795  300.4795 4300.5000   23.0557    0.0194    2.4343    2.6465    0.0194 
4301.0000    1.8799    1.8799  298.3457  298.3457    1.8799    1.8799    1.8799  298.3457  298.3457 4301.0000   21.9375    0.0188    2.5155    2.6387    0.0188 
4301.5000    1.7456    1.7456  295.0391  295.0391    1.7456    1.7456    1.7456  295.0391  295.0391 4301.5000   20.2697    0.0175    2.5889    2.6384    0.0175 
4302.0000    1.5869    1.5869  289.6094  289.6094    1.5869    1.5869    1.5869  289.6094  289.6094 4302.0000   20.6904    0.0159    2.5617    2.6391    0.0159 
4302.5000    1.5991    1.5991  280.8203  280.8203    1.5991    1.5991    1.5991  280.8203  280.8203 4302.5000   23.2656    0.0160    2.4761    2.6376    0.0160 
4303.0000    1.8311    1.8311  267.2188  267.2188    1.8311    1.8311    1.8311  267.2188  267.2188 4303.0000   25.8818    0.0183    2.4309    2.6407    0.0183 
4303.5000    2.1973    2.1973  247.3108  247.3108    2.1973    2.1973    2.1973  247.3108  247.3108 4303.5000   25.5869    0.0220    2.4522    2.6536    0.0220 
4304.0000    2.5024    2.5024  219.0313  219.0313    2.5024    2.5024    2.5024  219.0313  219.0313 4304.0000   23.0840    0.0250    2.4933    2.6649    0.0250 
4304.5000    2.6733    2.6733  207.7598  207.7598    2.6733    2.6733    2.6733  207.7598  207.7598 4304.5000   21.6719    0.0267    2.4932    2.6625    0.0267 
4305.0000    2.6855    2.6855  210.7539  210.7539    2.6855    2.6855    2.6855  210.7539  210.7539 4305.0000   23.2070    0.0269    2.4334    2.6497    0.0269 
4305.5000    2.5757    2.5757  208.7422  208.7422    2.5757    2.5757    2.5757  208.7422  208.7422 4305.5000   25.9141    0.0258    2.3659    2.6432    0.0258 
4306.0000    2.4780    2.4780  192.8750  192.8750    2.4780    2.4780    2.4780  192.8750  192.8750 4306.0000   27.2266    0.0248    2.3156    2.6506    0.0248 
4306.5000    2.4170    2.4170  176.2109  176.2109    2.4170    2.4170    2.4170  176.2109  176.2109 4306.5000   26.3281    0.0242    2.3487    2.6642    0.0242 
4307.0000    2.3926    2.3926  167.7852  167.7852    2.3926    2.3926    2.3926  167.7852  167.7852 4307.0000   24.6133    0.0239    2.4933    2.6707    0.0239 
4307.5000    2.4048    2.4048  162.8594  162.8594    2.4048    2.4048    2.4048  162.8594  162.8594 4307.5000   23.9219    0.0240    2.7070    2.6604    0.0240 
4308.0000    2.4658    2.4658  160.3125  160.3125    2.4658    2.4658    2.4658  160.3125  160.3125 4308.0000   24.8320    0.0247    2.8715    2.6393    0.0247 
4308.5000    2.5513    2.5513  160.4580  160.4580    2.5513    2.5513    2.5513  160.4580  160.4580 4308.5000   26.7617    0.0255    2.8608    2.6216    0.0255 
4309.0000    2.5879    2.5879  161.5010  161.5010    2.5879    2.5879    2.5879  161.5010  161.5010 4309.0000   29.7070    0.0259    2.7008    2.6152    0.0259 
4309.5000    2.5757    2.5757  161.5146  161.5146    2.5757    2.5757    2.5757  161.5146  161.5146 4309.5000   32.8203    0.0258    2.5228    2.6187    0.0258 
4310.0000    2.5391    2.5391  159.7402  159.7402    2.5391    2.5391    2.5391  159.7402  159.7402 4310.0000   34.9375    0.0254    2.4474    2.6243    0.0254 
4310.5000    2.4780    2.4780  156.6563  156.6563    2.4780    2.4780    2.4780  156.6563  156.6563 4310.5000   35.6250    0.0248    2.5460    2.6253    0.0248 
4311.0000    2.4780    2.4780  153.0508  153.0508    2.4780    2.4780    2.4780  153.0508  153.0508 4311.0000   34.3516    0.0248    2.7976    2.6220    0.0248 
4311.5000    2.5879    2.5879  148.9489  148.9489    2.5879    2.5879    2.5879  148.9489  148.9489 4311.5000   32.4453    0.0259    3.0524    2.6199    0.0259 
4312.0000    2.7588    2.7588  142.5762  142.5762    2.7588    2.7588    2.7588  142.5762  142.5762 4312.0000   31.6719    0.0276    3.1310    2.6225    0.0276 
4312.5000    2.9053    2.9053  140.1836  140.1836    2.9053    2.9053    2.9053  140.1836  140.1836 4312.5000   33.0391    0.0291    2.9936    2.6278    0.0291 
4313.0000    2.9297    2.9297  142.8574  142.8574    2.9297    2.9297    2.9297  142.8574  142.8574 4313.0000   35.8438    0.0293    2.7510    2.6324    0.0293 
4313.5000    2.8198    2.8198  145.7188  145.7188    2.8198    2.8198    2.8198  145.7188  145.7188 4313.5000   38.0781    0.0282    2.5266    2.6369    0.0282 
4314.0000    2.6489    2.6489  149.9844  149.9844    2.6489    2.6489    2.6489  149.9844  149.9844 4314.0000   38.7813    0.0265    2.3810    2.6451    0.0265 
4314.5000    2.5391    2.5391  162.9531  162.9531    2.5391    2.5391    2.5391  162.9531  162.9531 4314.5000   37.5703    0.0254    2.3452    2.6578    0.0254 
4315.0000    2.4658    2.4658  182.3073  182.3073    2.4658    2.4658    2.4658  182.3073  182.3073 4315.0000   35.5703    0.0247    2.4369    2.6674    0.0247 
4315.5000    2.3560    2.3560  196.0125  196.0125    2.3560    2.3560    2.3560  196.0125  196.0125 4315.5000   34.2031    0.0236    2.6466    2.6650    0.0236 
4316.0000    2.2705    2.2705  205.9947  205.9947    2.2705    2.2705    2.2705  205.9947  205.9947 4316.0000   34.2934    0.0227    2.8578    2.6511    0.0227 
4316.5000    2.3071    2.3071  210.5748  210.5748    2.3071    2.3071    2.3071  210.5748  210.5748 4316.5000   36.3516    0.0231    2.9423    2.6339    0.0231 
4317.0000    2.3804    2.3804  201.4509  201.4509    2.3804    2.3804    2.3804  201.4509  201.4509 4317.0000   40.1406    0.0238    2.8827    2.6236    0.0238 
4317.5000    2.3926    2.3926  178.3309  178.3309    2.3926    2.3926    2.3926  178.3309  178.3309 4317.5000   44.6445    0.0239    2.7195    2.6205    0.0239 
4318.0000    2.4414    2.4414  157.4141  157.4141    2.4414    2.4414    2.4414  157.4141  157.4141 4318.0000   48.3398    0.0244    2.5765    2.6195    0.0244 
4318.5000    2.5879    2.5879  147.9658  147.9658    2.5879    2.5879    2.5879  147.9658  147.9658 4318.5000   50.0083    0.0259    2.5167    2.6194    0.0259 
4319.0000    2.7710    2.7710  143.6445  143.6445    2.7710    2.7710    2.7710  143.6445  143.6445 4319.0000   49.2832    0.0277    2.5129    2.6223    0.0277 
4319.5000    2.8565    2.8565  139.5000  139.5000    2.8565    2.8565    2.8565  139.5000  139.5000 4319.5000   46.8555    0.0286    2.4978    2.6268    0.0286 
4320.0000    2.8442    2.8442  131.8203  131.8203    2.8442    2.8442    2.8442  131.8203  131.8203 4320.0000   44.2686    0.0284    2.4215    2.6293    0.0284 
4320.5000    2.8076    2.8076  119.1250  119.1250    2.8076    2.8076    2.8076  119.1250  119.1250 4320.5000   43.4981    0.0281    2.3192    2.6317    0.0281 
4321.0000    2.7954    2.7954  109.0625  109.0625    2.7954    2.7954    2.7954  109.0625  109.0625 4321.0000   46.4688    0.0280    2.2720    2.6375    0.0280 
4321.5000    2.8442    2.8442  111.5078  111.5078    2.8442    2.8442    2.8442  111.5078  111.5078 4321.5000   54.1016    0.0284    2.3090    2.6449    0.0284 
4322.0000    2.9541    2.9541  123.4688  123.4688    2.9541    2.9541    2.9541  123.4688  123.4688 4322.0000   60.8281    0.0295    2.3834    2.6500    0.0295 
4322.5000    3.0640    3.0640  134.5792  134.5792    3.0640    3.0640    3.0640  134.5792  134.5792 4322.5000   61.3281    0.0306    2.4334    2.6516    0.0306 
4323.0000    3.0884    3.0884  145.1407  145.1407    3.0884    3.0884    3.0884  145.1407  145.1407 4323.0000   55.8125    0.0309    2.4536    2.6511    0.0309 
4323.5000    3.0151    3.0151  162.0155  162.0155    3.0151    3.0151    3.0151  162.0155  162.0155 4323.5000   48.0391    0.0302    2.4935    2.6490    0.0302 
4324.0000    2.7710    2.7710  185.3658  185.3658    2.7710    2.7710    2.7710  185.3658  185.3658 4324.0000   40.3672    0.0277    2.5826    2.6449    0.0277 
4324.5000    2.4292    2.4292  211.2002  211.2002    2.4292    2.4292    2.4292  211.2002  211.2002 4324.5000   33.5977    0.0243    2.6718    2.6387    0.0243 
