~VERSION INFORMATION
 VERS.                 2.0:   CWLS LOG ASCII STANDARD - VERSION 2.0
 WRAP.                  NO:   SINGLE LINE PER DEPTH STEP
 CREA.                 5/13/2021 1:24:20 AM
#CREATED USING DSPetro VERSION 10ep.4.05.01 BY H227404 ON 5/13/2021 1:24:20 AM
~WELL INFORMATION
#MNEM.UNIT       DATA                          DESCRIPTION MNEMONIC
#---------      ---------------------------   --------------------------
 STRT    .FT        1000.0000                 : START DEPTH
 STOP    .FT        10000.0000                : STOP DEPTH
 STEP    .FT        0.5000                    : STEP VALUE
 NULL    .      -999.0000                     : NULL VALUE
 DATE    .      5/13/2021                     : LAS file Creation Date
 WELL   .      SNRG-0003                             : Well Name
 COMP   .      COLUMBIA NATURAL RESOURCES INC.        : Company
 FLD    .                                             : Field
 STATE  .      OH                                     : State
 COUNT  .      USA                                    : Country
 API    .      SNRG-0003                         : API Number
 UWI    .      SNRG-0003                         : Unique Well Identifier (UWI)
 LOC    .      200'NL & 500'WL OF  SE QTR. SECTION 28 : Location
 EPDAT  .      1135                                   : Elevation of Permanent Datum
 GL     .      1135                                   : GL Elevation
 RWS    .      0                                      : Def_Rw
 WST    .      0                                      : Def_Rwt
 CNTY   .      COLUMBIANA                             : County
 PROV   .                                             : Province
 MDEC   .      0                                      : Magnetic Declination
 SRVC   .      SCH                                    : Contractor
 GDAT   .      (Undefined)                            : Geodatum
 LONG   .      -80.8118599997626                      : Longitude
 LATI   .      40.6594309997559                       : Latitude
 COORDIN.                                             : Grid System
 XCOORD .                                             : X or East-West Coordinate
 YCOORD .                                             : Y or North-South Coordinate
~CURVE INFORMATION
#MNEM              UNIT       API CODE   Curve Type Comments
#----------  --------------- ----------  ---------- -----------
 DEPTH      .FT                        : Depth       
 AO10       .%                         : ShalRes     SNP
 AO20       .%                         : ShalRes     SNP
 AO30       .OHMM                      : MedRes      ILM
 AO60       .OHMM                      : MedRes      ILM
 AORX       .%                         : ShalRes     SNP
 AT10       .%                         : ShalRes     SNP
 AT20       .%                         : ShalRes     SNP
 AT30       .OHMM                      : MedRes      ILM
 AT60       .OHMM                      : MedRes      ILM
 DEPTH      .FT                        : Depth       
 GR         .GAPI                      : GammaRay    GR
 NPHI       .dec                       : Neutron     
 PEFZ       .B/E                       : PEF         PEF
 RHOZ       .G/CC                      : Density     RHOB
 TNPH       .dec                       : Neutron     
~A  DEPTH    AO10      AO20      AO30      AO60      AORX      AT10      AT20      AT30      AT60     DEPTH       GR       NPHI      PEFZ      RHOZ      TNPH   
# ...
3200.0000   12.4634   12.4634   22.3816   22.3816   12.4634   12.4634   12.4634   22.3816   22.3816 3200.0000  144.8125    0.1246    3.1650    2.7194    0.1246 
3200.5000   12.3047   12.3047   22.5318   22.5318   12.3047   12.3047   12.3047   22.5318   22.5318 3200.5000  142.0938    0.1230    3.2729    2.7040    0.1230 
3201.0000   12.0728   12.0728   22.8130   22.8130   12.0728   12.0728   12.0728   22.8130   22.8130 3201.0000  139.3750    0.1207    3.3232    2.6982    0.1207 
3201.5000   11.9263   11.9263   23.1002   23.1002   11.9263   11.9263   11.9263   23.1002   23.1002 3201.5000  137.1250    0.1193    3.4175    2.6973    0.1193 
3202.0000   11.7676   11.7676   23.3704   23.3704   11.7676   11.7676   11.7676   23.3704   23.3704 3202.0000  135.4688    0.1177    3.5806    2.6943    0.1177 
3202.5000   11.4380   11.4380   23.6469   23.6469   11.4380   11.4380   11.4380   23.6469   23.6469 3202.5000  135.6563    0.1144    3.6826    2.6862    0.1144 
3203.0000   11.1084   11.1084   23.7863   23.7863   11.1084   11.1084   11.1084   23.7863   23.7863 3203.0000  137.4688    0.1111    3.5679    2.6787    0.1111 
3203.5000   11.1694   11.1694   23.5978   23.5978   11.1694   11.1694   11.1694   23.5978   23.5978 3203.5000  140.4063    0.1117    3.3423    2.6785    0.1117 
3204.0000   11.7798   11.7798   23.1413   23.1413   11.7798   11.7798   11.7798   23.1413   23.1413 3204.0000  143.3750    0.1178    3.2612    2.6856    0.1178 
3204.5000   12.5610   12.5610   22.4453   22.4453   12.5610   12.5610   12.5610   22.4453   22.4453 3204.5000  145.3750    0.1256    3.2705    2.6929    0.1256 
3205.0000   13.0249   13.0249   21.6353   21.6353   13.0249   13.0249   13.0249   21.6353   21.6353 3205.0000  147.8438    0.1302    3.1558    2.6925    0.1302 
3205.5000   13.0249   13.0249   21.0588   21.0588   13.0249   13.0249   13.0249   21.0588   21.0588 3205.5000  150.8438    0.1302    2.9351    2.6891    0.1302 
3206.0000   12.7319   12.7319   20.8386   20.8386   12.7319   12.7319   12.7319   20.8386   20.8386 3206.0000  151.8750    0.1273    2.8224    2.6889    0.1273 
3206.5000   12.4512   12.4512   20.9557   20.9557   12.4512   12.4512   12.4512   20.9557   20.9557 3206.5000  150.5000    0.1245    2.8347    2.6904    0.1245 
3207.0000   12.2681   12.2681   21.2290   21.2290   12.2681   12.2681   12.2681   21.2290   21.2290 3207.0000  148.0625    0.1227    2.9481    2.6942    0.1227 
3207.5000   12.0972   12.0972   21.4635   21.4635   12.0972   12.0972   12.0972   21.4635   21.4635 3207.5000  145.9063    0.1210    3.1296    2.7006    0.1210 
3208.0000   12.0972   12.0972   21.4965   21.4965   12.0972   12.0972   12.0972   21.4965   21.4965 3208.0000  144.9375    0.1210    3.3163    2.7083    0.1210 
3208.5000   12.1216   12.1216   21.4045   21.4045   12.1216   12.1216   12.1216   21.4045   21.4045 3208.5000  146.0000    0.1212    3.4240    2.7146    0.1212 
3209.0000   12.0239   12.0239   21.2079   21.2079   12.0239   12.0239   12.0239   21.2079   21.2079 3209.0000  149.1563    0.1202    3.3882    2.7168    0.1202 
3209.5000   12.0972   12.0972   20.9825   20.9825   12.0972   12.0972   12.0972   20.9825   20.9825 3209.5000  151.2813    0.1210    3.2217    2.7138    0.1210 
3210.0000   12.2925   12.2925   20.8186   20.8186   12.2925   12.2925   12.2925   20.8186   20.8186 3210.0000  150.8438    0.1229    3.0610    2.7083    0.1229 
3210.5000   12.4268   12.4268   20.7811   20.7811   12.4268   12.4268   12.4268   20.7811   20.7811 3210.5000  151.1563    0.1243    3.1285    2.7073    0.1243 
3211.0000   12.4756   12.4756   20.8854   20.8854   12.4756   12.4756   12.4756   20.8854   20.8854 3211.0000  156.6875    0.1248    3.2954    2.7094    0.1248 
3211.5000   12.5488   12.5488   21.0956   21.0956   12.5488   12.5488   12.5488   21.0956   21.0956 3211.5000  165.8438    0.1255    3.2382    2.6997    0.1255 
3212.0000   12.7197   12.7197   21.3479   21.3479   12.7197   12.7197   12.7197   21.3479   21.3479 3212.0000  171.0625    0.1272    3.1711    2.6849    0.1272 
3212.5000   12.7075   12.7075   21.6224   21.6224   12.7075   12.7075   12.7075   21.6224   21.6224 3212.5000  169.5313    0.1271    3.1555    2.6846    0.1271 
3213.0000   12.2437   12.2437   21.9272   21.9272   12.2437   12.2437   12.2437   21.9272   21.9272 3213.0000  165.0625    0.1224    3.0587    2.6917    0.1224 
3213.5000   11.6943   11.6943   22.2253   22.2253   11.6943   11.6943   11.6943   22.2253   22.2253 3213.5000  161.8125    0.1169    2.9961    2.6980    0.1169 
3214.0000   11.4502   11.4502   22.4664   22.4664   11.4502   11.4502   11.4502   22.4664   22.4664 3214.0000  160.2813    0.1145    3.0806    2.7067    0.1145 
3214.5000   11.6455   11.6455   22.5933   22.5933   11.6455   11.6455   11.6455   22.5933   22.5933 3214.5000  159.2188    0.1165    3.2436    2.7134    0.1165 
3215.0000   12.0972   12.0972   22.5757   22.5757   12.0972   12.0972   12.0972   22.5757   22.5757 3215.0000  160.1563    0.1210    3.3843    2.7122    0.1210 
3215.5000   12.4390   12.4390   22.4246   22.4246   12.4390   12.4390   12.4390   22.4246   22.4246 3215.5000  163.7188    0.1244    3.4883    2.7061    0.1244 
3216.0000   12.8174   12.8174   22.1760   22.1760   12.8174   12.8174   12.8174   22.1760   22.1760 3216.0000  166.5625    0.1282    3.6377    2.7044    0.1282 
3216.5000   13.1348   13.1348   21.8579   21.8579   13.1348   13.1348   13.1348   21.8579   21.8579 3216.5000  166.7188    0.1313    3.7949    2.7055    0.1313 
3217.0000   13.2568   13.2568   21.2127   21.2127   13.2568   13.2568   13.2568   21.2127   21.2127 3217.0000  165.8750    0.1326    3.7920    2.7055    0.1326 
3217.5000   13.2813   13.2813   20.3906   20.3906   13.2813   13.2813   13.2813   20.3906   20.3906 3217.5000  165.6250    0.1328    3.5449    2.7038    0.1328 
3218.0000   13.3545   13.3545   19.6814   19.6814   13.3545   13.3545   13.3545   19.6814   19.6814 3218.0000  164.2813    0.1335    3.3105    2.7022    0.1335 
3218.5000   13.4399   13.4399   19.1685   19.1685   13.4399   13.4399   13.4399   19.1685   19.1685 3218.5000  161.7188    0.1344    3.3477    2.7072    0.1344 
3219.0000   13.3423   13.3423   18.8513   18.8513   13.3423   13.3423   13.3423   18.8513   18.8513 3219.0000  160.3125    0.1334    3.5083    2.7112    0.1334 
3219.5000   13.1958   13.1958   18.9793   18.9793   13.1958   13.1958   13.1958   18.9793   18.9793 3219.5000  159.5000    0.1320    3.5195    2.7057    0.1320 
3220.0000   13.0981   13.0981   19.2111   19.2111   13.0981   13.0981   13.0981   19.2111   19.2111 3220.0000  156.3125    0.1310    3.3066    2.6975    0.1310 
3220.5000   13.1470   13.1470   19.5066   19.5066   13.1470   13.1470   13.1470   19.5066   19.5066 3220.5000  150.9375    0.1315    3.1016    2.6928    0.1315 
3221.0000   13.0981   13.0981   19.8083   19.8083   13.0981   13.0981   13.0981   19.8083   19.8083 3221.0000  147.3750    0.1310    3.0854    2.6938    0.1310 
3221.5000   12.7441   12.7441   20.0641   20.0641   12.7441   12.7441   12.7441   20.0641   20.0641 3221.5000  146.3750    0.1274    3.1138    2.6970    0.1274 
3222.0000   12.3901   12.3901   20.2806   20.2806   12.3901   12.3901   12.3901   20.2806   20.2806 3222.0000  146.8750    0.1239    2.9557    2.7037    0.1239 
3222.5000   12.3291   12.3291   20.5212   20.5212   12.3291   12.3291   12.3291   20.5212   20.5212 3222.5000  148.0625    0.1233    2.7860    2.7160    0.1233 
3223.0000   12.4390   12.4390   20.8716   20.8716   12.4390   12.4390   12.4390   20.8716   20.8716 3223.0000  147.7500    0.1244    2.8436    2.7259    0.1244 
3223.5000   12.0483   12.0483   21.3940   21.3940   12.0483   12.0483   12.0483   21.3940   21.3940 3223.5000  144.0313    0.1205    3.0229    2.7286    0.1205 
3224.0000   11.0718   11.0718   22.0908   22.0908   11.0718   11.0718   11.0718   22.0908   22.0908 3224.0000  139.2500    0.1107    3.1072    2.7236    0.1107 
3224.5000   10.2539   10.2539   22.9753   22.9753   10.2539   10.2539   10.2539   22.9753   22.9753 3224.5000  139.4688    0.1025    3.1460    2.7146    0.1025 
