~VERSION INFORMATION
 VERS.                 2.0:   CWLS LOG ASCII STANDARD - VERSION 2.0
 WRAP.                  NO:   SINGLE LINE PER DEPTH STEP
 CREA.                 5/13/2021 1:24:20 AM
#CREATED USING DSPetro VERSION 10ep.4.05.01 BY H227404 ON 5/13/2021 1:24:20 AM
~WELL INFORMATION
#MNEM.UNIT       DATA                          DESCRIPTION MNEMONIC
#---------      ---------------------------   --------------------------
 STRT    .FT        1000.0000                 : START DEPTH
 STOP    .FT        10000.0000                : STOP DEPTH
 STEP    .FT        0.5000                    : STEP VALUE
 NULL    .      -999.0000                     : NULL VALUE
 DATE    .      5/13/2021                     : LAS file Creation Date
 WELL   .      SNRG-0003                             : Well Name
 COMP   .      COLUMBIA NATURAL RESOURCES INC.        : Company
 FLD    .                                             : Field
 STATE  .      OH                                     : State
 COUNT  .      USA                                    : Country
 API    .      SNRG-0003                         : API Number
 UWI    .      SNRG-0003                         : Unique Well Identifier (UWI)
 LOC    .      200'NL & 500'WL OF  SE QTR. SECTION 28 : Location
 EPDAT  .      1135                                   : Elevation of Permanent Datum
 GL     .      1135                                   : GL Elevation
 RWS    .      0                                      : Def_Rw
 WST    .      0                                      : Def_Rwt
 CNTY   .      COLUMBIANA                             : County
 PROV   .                                             : Province
 MDEC   .      0                                      : Magnetic Declination
 SRVC   .      SCH                                    : Contractor
 GDAT   .      (Undefined)                            : Geodatum
 LONG   .      -80.8118599997626                      : Longitude
 LATI   .      40.6594309997559                       : Latitude
 COORDIN.                                             : Grid System
 XCOORD .                                             : X or East-West Coordinate
 YCOORD .                                             : Y or North-South Coordinate
~CURVE INFORMATION
#MNEM              UNIT       API CODE   Curve Type Comments
#----------  --------------- ----------  ---------- -----------
 DEPTH      .FT                        : Depth       
 AO10       .%                         : ShalRes     SNP
 AO20       .%                         : ShalRes     SNP
 AO30       .OHMM                      : MedRes      ILM
 AO60       .OHMM                      : MedRes      ILM
 AORX       .%                         : ShalRes     SNP
 AT10       .%                         : ShalRes     SNP
 AT20       .%                         : ShalRes     SNP
 AT30       .OHMM                      : MedRes      ILM
 AT60       .OHMM                      : MedRes      ILM
 DEPTH      .FT                        : Depth       
 GR         .GAPI                      : GammaRay    GR
 NPHI       .dec                       : Neutron     
 PEFZ       .B/E                       : PEF         PEF
 RHOZ       .G/CC                      : Density     RHOB
 TNPH       .dec                       : Neutron     
~A  DEPTH    AO10      AO20      AO30      AO60      AORX      AT10      AT20      AT30      AT60     DEPTH       GR       NPHI      PEFZ      RHOZ      TNPH   
# ...
2650.0000   12.9517   12.9517   21.3276   21.3276   12.9517   12.9517   12.9517   21.3276   21.3276 2650.0000  160.6143    0.1295    3.1177    2.7334    0.1295 
2650.5000   12.8174   12.8174   21.9766   21.9766   12.8174   12.8174   12.8174   21.9766   21.9766 2650.5000  158.5313    0.1282    3.4805    2.7438    0.1282 
2651.0000   12.8418   12.8418   22.5719   22.5719   12.8418   12.8418   12.8418   22.5719   22.5719 2651.0000  158.2188    0.1284    3.8384    2.7398    0.1284 
2651.5000   13.0615   13.0615   23.1296   23.1296   13.0615   13.0615   13.0615   23.1296   23.1296 2651.5000  157.9063    0.1306    3.8960    2.7219    0.1306 
2652.0000   13.3179   13.3179   23.6900   23.6900   13.3179   13.3179   13.3179   23.6900   23.6900 2652.0000  156.2813    0.1332    3.6274    2.7049    0.1332 
2652.5000   13.3667   13.3667   24.1414   24.1414   13.3667   13.3667   13.3667   24.1414   24.1414 2652.5000  155.1250    0.1337    3.2978    2.7020    0.1337 
2653.0000   13.2568   13.2568   24.3120   24.3120   13.2568   13.2568   13.2568   24.3120   24.3120 2653.0000  155.5938    0.1326    3.1563    2.7163    0.1326 
2653.5000   13.2202   13.2202   24.1034   24.1034   13.2202   13.2202   13.2202   24.1034   24.1034 2653.5000  156.5625    0.1322    3.2798    2.7342    0.1322 
2654.0000   13.1958   13.1958   23.7130   23.7130   13.1958   13.1958   13.1958   23.7130   23.7130 2654.0000  155.8125    0.1320    3.5088    2.7451    0.1320 
2654.5000   13.3423   13.3423   23.6469   23.6469   13.3423   13.3423   13.3423   23.6469   23.6469 2654.5000  155.0000    0.1334    3.5518    2.7425    0.1334 
2655.0000   13.6353   13.6353   23.9576   23.9576   13.6353   13.6353   13.6353   23.9576   23.9576 2655.0000  156.1563    0.1364    3.3857    2.7307    0.1364 
2655.5000   13.7329   13.7329   24.3141   24.3141   13.7329   13.7329   13.7329   24.3141   24.3141 2655.5000  157.6563    0.1373    3.3267    2.7278    0.1373 
2656.0000   13.4644   13.4644   24.5024   24.5024   13.4644   13.4644   13.4644   24.5024   24.5024 2656.0000  157.1563    0.1346    3.4497    2.7373    0.1346 
2656.5000   12.9272   12.9272   24.3680   24.3680   12.9272   12.9272   12.9272   24.3680   24.3680 2656.5000  154.4688    0.1293    3.5361    2.7431    0.1293 
2657.0000   12.5855   12.5855   24.0611   24.0611   12.5855   12.5855   12.5855   24.0611   24.0611 2657.0000  151.5938    0.1259    3.4692    2.7363    0.1259 
2657.5000   12.6221   12.6221   23.9550   23.9550   12.6221   12.6221   12.6221   23.9550   23.9550 2657.5000  150.9688    0.1262    3.3701    2.7271    0.1262 
2658.0000   12.9150   12.9150   24.1402   24.1402   12.9150   12.9150   12.9150   24.1402   24.1402 2658.0000  152.3125    0.1292    3.3486    2.7256    0.1292 
2658.5000   13.2202   13.2202   24.4076   24.4076   13.2202   13.2202   13.2202   24.4076   24.4076 2658.5000  154.5244    0.1322    3.3272    2.7265    0.1322 
2659.0000   13.3789   13.3789   24.7253   24.7253   13.3789   13.3789   13.3789   24.7253   24.7253 2659.0000  158.1406    0.1338    3.2417    2.7214    0.1338 
2659.5000   13.4155   13.4155   25.3651   25.3651   13.4155   13.4155   13.4155   25.3651   25.3651 2659.5000  161.3872    0.1342    3.1499    2.7179    0.1342 
2660.0000   13.3301   13.3301   26.2081   26.2081   13.3301   13.3301   13.3301   26.2081   26.2081 2660.0000  160.6846    0.1333    3.1504    2.7246    0.1333 
2660.5000   12.9761   12.9761   26.6392   26.6392   12.9761   12.9761   12.9761   26.6392   26.6392 2660.5000  156.4688    0.1298    3.2266    2.7326    0.1298 
2661.0000   12.5366   12.5366   26.6064   26.6064   12.5366   12.5366   12.5366   26.6064   26.6064 2661.0000  152.1641    0.1254    3.2520    2.7289    0.1254 
2661.5000   12.6099   12.6099   26.6724   26.6724   12.6099   12.6099   12.6099   26.6724   26.6724 2661.5000  148.3125    0.1261    3.2271    2.7138    0.1261 
2662.0000   13.3057   13.3057   26.9503   26.9503   13.3057   13.3057   13.3057   26.9503   26.9503 2662.0000  146.0000    0.1331    3.2720    2.7056    0.1331 
2662.5000   13.6841   13.6841   27.1818   27.1818   13.6841   13.6841   13.6841   27.1818   27.1818 2662.5000  143.8438    0.1368    3.3955    2.7185    0.1368 
2663.0000   12.8784   12.8784   27.7307   27.7307   12.8784   12.8784   12.8784   27.7307   27.7307 2663.0000  139.8750    0.1288    3.5317    2.7418    0.1288 
2663.5000   11.4136   11.4136   29.4222   29.4222   11.4136   11.4136   11.4136   29.4222   29.4222 2663.5000  134.6250    0.1141    3.5557    2.7602    0.1141 
2664.0000   10.4980   10.4980   31.9026   31.9026   10.4980   10.4980   10.4980   31.9026   31.9026 2664.0000  131.5000    0.1050    3.4448    2.7729    0.1050 
2664.5000   10.8520   10.8520   33.1333   33.1333   10.8520   10.8520   10.8520   33.1333   33.1333 2664.5000  135.2813    0.1085    3.3184    2.7714    0.1085 
2665.0000   12.3047   12.3047   31.9844   31.9844   12.3047   12.3047   12.3047   31.9844   31.9844 2665.0000  145.4688    0.1230    3.3037    2.7501    0.1230 
2665.5000   13.9526   13.9526   29.8389   29.8389   13.9526   13.9526   13.9526   29.8389   29.8389 2665.5000  156.9375    0.1395    3.3408    2.7251    0.1395 
2666.0000   14.8071   14.8071   28.0283   28.0283   14.8071   14.8071   14.8071   28.0283   28.0283 2666.0000  166.7773    0.1481    3.2832    2.7103    0.1481 
2666.5000   14.8438   14.8438   26.6602   26.6602   14.8438   14.8438   14.8438   26.6602   26.6602 2666.5000  171.3125    0.1484    3.2280    2.7136    0.1484 
2667.0000   14.5996   14.5996   25.5449   25.5449   14.5996   14.5996   14.5996   25.5449   25.5449 2667.0000  171.4063    0.1460    3.3623    2.7306    0.1460 
2667.5000   14.1480   14.1480   24.7600   24.7600   14.1480   14.1480   14.1480   24.7600   24.7600 2667.5000  162.3398    0.1415    3.6572    2.7444    0.1415 
2668.0000   13.5254   13.5254   24.3446   24.3446   13.5254   13.5254   13.5254   24.3446   24.3446 2668.0000  159.5625    0.1353    3.8340    2.7429    0.1353 
2668.5000   13.2446   13.2446   24.1561   24.1561   13.2446   13.2446   13.2446   24.1561   24.1561 2668.5000  161.4063    0.1324    3.7612    2.7267    0.1324 
2669.0000   13.3911   13.3911   24.2338   24.2338   13.3911   13.3911   13.3911   24.2338   24.2338 2669.0000  160.3750    0.1339    3.5322    2.7125    0.1339 
2669.5000   13.4155   13.4155   24.5916   24.5916   13.4155   13.4155   13.4155   24.5916   24.5916 2669.5000  158.4688    0.1342    3.3257    2.7083    0.1342 
2670.0000   13.0127   13.0127   24.8583   24.8583   13.0127   13.0127   13.0127   24.8583   24.8583 2670.0000  157.9688    0.1301    3.2920    2.7111    0.1301 
2670.5000   12.5488   12.5488   24.6287   24.6287   12.5488   12.5488   12.5488   24.6287   24.6287 2670.5000  158.1250    0.1255    3.3652    2.7164    0.1255 
2671.0000   12.5366   12.5366   23.8418   23.8418   12.5366   12.5366   12.5366   23.8418   23.8418 2671.0000  157.0938    0.1254    3.3838    2.7170    0.1254 
2671.5000   13.0127   13.0127   22.8706   22.8706   13.0127   13.0127   13.0127   22.8706   22.8706 2671.5000  154.6563    0.1301    3.3110    2.7150    0.1301 
2672.0000   13.5864   13.5864   22.1728   22.1728   13.5864   13.5864   13.5864   22.1728   22.1728 2672.0000  154.2397    0.1359    3.2319    2.7183    0.1359 
2672.5000   13.6353   13.6353   21.8018   21.8018   13.6353   13.6353   13.6353   21.8018   21.8018 2672.5000  156.7637    0.1364    3.2573    2.7280    0.1364 
2673.0000   13.0371   13.0371   21.5419   21.5419   13.0371   13.0371   13.0371   21.5419   21.5419 2673.0000  160.1953    0.1304    3.3545    2.7345    0.1304 
2673.5000   12.4634   12.4634   21.2955   21.2955   12.4634   12.4634   12.4634   21.2955   21.2955 2673.5000  162.8262    0.1246    3.4102    2.7319    0.1246 
2674.0000   12.6221   12.6221   21.0525   21.0525   12.6221   12.6221   12.6221   21.0525   21.0525 2674.0000  163.6125    0.1262    3.3428    2.7276    0.1262 
2674.5000   13.5132   13.5132   20.7729   20.7729   13.5132   13.5132   13.5132   20.7729   20.7729 2674.5000  162.8213    0.1351    3.2153    2.7287    0.1351 
