~VERSION INFORMATION
 VERS.                 2.0:   CWLS LOG ASCII STANDARD - VERSION 2.0
 WRAP.                  NO:   SINGLE LINE PER DEPTH STEP
 CREA.                 5/13/2021 1:24:19 AM
#CREATED USING DSPetro VERSION 10ep.4.05.01 BY H227404 ON 5/13/2021 1:24:19 AM
~WELL INFORMATION
#MNEM.UNIT       DATA                          DESCRIPTION MNEMONIC
#---------      ---------------------------   --------------------------
 STRT    .FT        0.0000                    : START DEPTH
 STOP    .FT        9000.0000                 : STOP DEPTH
 STEP    .FT        0.5000                    : STEP VALUE
 NULL    .      -999.0000                     : NULL VALUE
 DATE    .      5/13/2021                     : LAS file Creation Date
 WELL   .      SNRG-0001                          : Well Name
 COMP   .      Range Resources Appalachia, LLC      : Company
 FLD    .                                           : Field
 STATE  .      OH                                   : State
 COUNT  .      USA                                  : Country
 API    .      SNRG-0001                       : API Number
 UWI    .      SNRG-0001                       : Unique Well Identifier (UWI)
 LOC    .      750'SL & 1060'EL OF NW QTR., SEC. 30 : Location
 EPDAT  .      964                                  : Elevation of Permanent Datum
 GL     .      954.000                              : GL Elevation
 RWS    .      0                                    : Def_Rw
 WST    .      0                                    : Def_Rwt
 CNTY   .      Carroll                              : County
 PROV   .                                           : Province
 MDEC   .      0                                    : Magnetic Declination
 SRVC   .      WE                                   : Contractor
 GDAT   .      (Undefined)                          : Geodatum
 LONG   .      -81.2941990004645                    : Longitude
 LATI   .      40.6472950002882                     : Latitude
 COORDIN.                                           : Grid System
 XCOORD .                                           : X or East-West Coordinate
 YCOORD .                                           : Y or North-South Coordinate
~CURVE INFORMATION
#MNEM              UNIT       API CODE   Curve Type Comments
#----------  --------------- ----------  ---------- -----------
 DEPTH      .FT                        : Depth       
 AO10       .OHMM                      : ShalRes     Shallow Laterolog
 AO20       .OHMM                      : ShalRes     Shallow Laterolog
 AORX       .OHMM                      : ShalRes     Shallow Laterolog
 AT10       .OHMM                      : ShalRes     Shallow Laterolog
 AT20       .OHMM                      : ShalRes     Shallow Laterolog
 DEPTH      .FT                        : Depth       
 GR         .GAPI                      : GammaRay    Gamma Ray
 HDRA       .G/C3                      : Drho        Density Correction
 NPHI       .dec                       : Neutron     
 PEFZ       .B/E                       : PEF         PE
 RHOZ       .G/C3                      : Density     Compensated Density
 TNPH       .dec                       : Neutron     
~A  DEPTH    AO10      AO20      AORX      AT10      AT20     DEPTH       GR       HDRA      NPHI      PEFZ      RHOZ      TNPH   
# ...
6448.0000  307.3880  307.3880  307.3880  307.3880  307.3880 6448.0000  113.1470    0.0360    0.1613    3.9590    2.6470    0.1613 
6448.5000  316.7650  316.7650  316.7650  316.7650  316.7650 6448.5000  109.9910    0.0340    0.1617    4.0010    2.6420    0.1617 
6449.0000  307.1470  307.1470  307.1470  307.1470  307.1470 6449.0000  107.7920    0.0360    0.1590    4.0380    2.6450    0.1590 
6449.5000  277.3660  277.3660  277.3660  277.3660  277.3660 6449.5000  106.7710    0.0380    0.1574    4.0330    2.6510    0.1574 
6450.0000  251.2490  251.2490  251.2490  251.2490  251.2490 6450.0000  108.4960    0.0380    0.1595    4.0000    2.6530    0.1595 
6450.5000  246.5980  246.5980  246.5980  246.5980  246.5980 6450.5000  112.4930    0.0360    0.1621    3.9350    2.6510    0.1621 
6451.0000  271.2730  271.2730  271.2730  271.2730  271.2730 6451.0000  113.1450    0.0330    0.1626    3.8970    2.6480    0.1626 
6451.5000  297.6290  297.6290  297.6290  297.6290  297.6290 6451.5000  111.5330    0.0320    0.1601    3.9260    2.6490    0.1601 
6452.0000  298.5070  298.5070  298.5070  298.5070  298.5070 6452.0000  109.0800    0.0320    0.1566    3.9770    2.6490    0.1566 
6452.5000  277.2500  277.2500  277.2500  277.2500  277.2500 6452.5000  107.4990    0.0360    0.1539    4.0060    2.6560    0.1539 
6453.0000  254.0860  254.0860  254.0860  254.0860  254.0860 6453.0000  108.7990    0.0380    0.1518    4.0070    2.6610    0.1518 
6453.5000  243.0840  243.0840  243.0840  243.0840  243.0840 6453.5000  108.1360    0.0390    0.1523    3.9930    2.6610    0.1523 
6454.0000  237.0300  237.0300  237.0300  237.0300  237.0300 6454.0000  109.1350    0.0370    0.1554    3.9880    2.6550    0.1554 
6454.5000  230.2870  230.2870  230.2870  230.2870  230.2870 6454.5000  111.4220    0.0330    0.1593    3.9910    2.6480    0.1593 
6455.0000  223.5010  223.5010  223.5010  223.5010  223.5010 6455.0000  111.3430    0.0300    0.1619    4.0210    2.6420    0.1619 
6455.5000  212.5320  212.5320  212.5320  212.5320  212.5320 6455.5000  110.2800    0.0300    0.1640    4.0730    2.6410    0.1640 
6456.0000  201.4980  201.4980  201.4980  201.4980  201.4980 6456.0000  109.0860    0.0310    0.1688    4.0630    2.6410    0.1688 
6456.5000  187.1210  187.1210  187.1210  187.1210  187.1210 6456.5000  109.7250    0.0330    0.1761    3.9710    2.6420    0.1761 
6457.0000  175.7310  175.7310  175.7310  175.7310  175.7310 6457.0000  113.5120    0.0350    0.1840    3.8390    2.6430    0.1840 
6457.5000  168.8560  168.8560  168.8560  168.8560  168.8560 6457.5000  117.3420    0.0370    0.1912    3.7850    2.6460    0.1912 
6458.0000  167.5480  167.5480  167.5480  167.5480  167.5480 6458.0000  119.7080    0.0380    0.1954    3.8150    2.6460    0.1954 
6458.5000  170.2050  170.2050  170.2050  170.2050  170.2050 6458.5000  120.3350    0.0380    0.1959    3.8580    2.6470    0.1959 
6459.0000  172.9040  172.9040  172.9040  172.9040  172.9040 6459.0000  119.5240    0.0370    0.1931    3.8750    2.6470    0.1931 
6459.5000  172.9180  172.9180  172.9180  172.9180  172.9180 6459.5000  119.8260    0.0350    0.1899    3.8560    2.6450    0.1899 
6460.0000  172.2010  172.2010  172.2010  172.2010  172.2010 6460.0000  122.7750    0.0350    0.1891    3.8190    2.6440    0.1891 
6460.5000  171.5020  171.5020  171.5020  171.5020  171.5020 6460.5000  128.5860    0.0370    0.1862    3.8180    2.6450    0.1862 
6461.0000  173.6440  173.6440  173.6440  173.6440  173.6440 6461.0000  131.7080    0.0380    0.1814    3.8380    2.6450    0.1814 
6461.5000  173.2900  173.2900  173.2900  173.2900  173.2900 6461.5000  130.1780    0.0400    0.1760    3.8540    2.6450    0.1760 
6462.0000  176.9000  176.9000  176.9000  176.9000  176.9000 6462.0000  125.8560    0.0390    0.1725    3.8750    2.6440    0.1725 
6462.5000  178.8620  178.8620  178.8620  178.8620  178.8620 6462.5000  119.9050    0.0380    0.1729    3.8680    2.6440    0.1729 
6463.0000  178.7480  178.7480  178.7480  178.7480  178.7480 6463.0000  116.9150    0.0370    0.1732    3.8650    2.6450    0.1732 
6463.5000  176.2640  176.2640  176.2640  176.2640  176.2640 6463.5000  116.1780    0.0370    0.1753    3.8580    2.6480    0.1753 
6464.0000  170.9080  170.9080  170.9080  170.9080  170.9080 6464.0000  115.7840    0.0370    0.1787    3.8330    2.6500    0.1787 
6464.5000  169.7740  169.7740  169.7740  169.7740  169.7740 6464.5000  116.5130    0.0370    0.1790    3.7970    2.6500    0.1790 
6465.0000  169.3210  169.3210  169.3210  169.3210  169.3210 6465.0000  117.9770    0.0370    0.1766    3.7900    2.6500    0.1766 
6465.5000  170.2900  170.2900  170.2900  170.2900  170.2900 6465.5000  123.9500    0.0380    0.1730    3.8150    2.6500    0.1730 
6466.0000  174.9470  174.9470  174.9470  174.9470  174.9470 6466.0000  130.4700    0.0380    0.1733    3.8810    2.6500    0.1733 
6466.5000  181.8080  181.8080  181.8080  181.8080  181.8080 6466.5000  132.0040    0.0390    0.1764    3.9590    2.6510    0.1764 
6467.0000  188.8810  188.8810  188.8810  188.8810  188.8810 6467.0000  127.5130    0.0370    0.1770    3.9800    2.6470    0.1770 
6467.5000  189.3000  189.3000  189.3000  189.3000  189.3000 6467.5000  123.0030    0.0360    0.1757    3.9630    2.6440    0.1757 
6468.0000  186.1030  186.1030  186.1030  186.1030  186.1030 6468.0000  125.6690    0.0340    0.1765    3.8750    2.6410    0.1765 
6468.5000  181.7030  181.7030  181.7030  181.7030  181.7030 6468.5000  130.3860    0.0330    0.1807    3.7910    2.6400    0.1807 
6469.0000  187.8870  187.8870  187.8870  187.8870  187.8870 6469.0000  132.1710    0.0320    0.1837    3.7730    2.6400    0.1837 
6469.5000  199.9820  199.9820  199.9820  199.9820  199.9820 6469.5000  132.8170    0.0320    0.1824    3.7780    2.6390    0.1824 
6470.0000  216.6870  216.6870  216.6870  216.6870  216.6870 6470.0000  131.9640    0.0300    0.1777    3.8020    2.6340    0.1777 
6470.5000  230.6660  230.6660  230.6660  230.6660  230.6660 6470.5000  128.3860    0.0290    0.1754    3.8000    2.6310    0.1754 
6471.0000  231.5730  231.5730  231.5730  231.5730  231.5730 6471.0000  122.8400    0.0290    0.1776    3.7810    2.6290    0.1776 
6471.5000  218.1900  218.1900  218.1900  218.1900  218.1900 6471.5000  118.5840    0.0310    0.1794    3.7590    2.6310    0.1794 
6472.0000  193.0920  193.0920  193.0920  193.0920  193.0920 6472.0000  118.0760    0.0340    0.1780    3.7390    2.6310    0.1780 
6472.5000  172.2260  172.2260  172.2260  172.2260  172.2260 6472.5000  119.7500    0.0410    0.1764    3.7640    2.6300    0.1764 
6473.0000  167.5510  167.5510  167.5510  167.5510  167.5510 6473.0000  119.1370    0.0510    0.1761    3.8370    2.6250    0.1761 
6473.5000  179.0360  179.0360  179.0360  179.0360  179.0360 6473.5000  109.9940    0.0630    0.1733    4.0020    2.6210    0.1733 
6474.0000  207.8410  207.8410  207.8410  207.8410  207.8410 6474.0000   94.7800    0.0720    0.1613    4.1680    2.6180    0.1613 
6474.5000  256.2680  256.2680  256.2680  256.2680  256.2680 6474.5000   87.0930    0.0750    0.1425    4.1740    2.6180    0.1425 
6475.0000  332.7000  332.7000  332.7000  332.7000  332.7000 6475.0000   92.6080    0.0690    0.1310    4.0510    2.6190    0.1310 
6475.5000  438.2360  438.2360  438.2360  438.2360  438.2360 6475.5000  107.9370    0.0580    0.1373    3.8870    2.6180    0.1373 
6476.0000  543.6820  543.6820  543.6820  543.6820  543.6820 6476.0000  120.6490    0.0480    0.1552    3.8400    2.6150    0.1552 
6476.5000  631.4350  631.4350  631.4350  631.4350  631.4350 6476.5000  125.8370    0.0470    0.1727    3.8550    2.6120    0.1727 
6477.0000  737.4320  737.4320  737.4320  737.4320  737.4320 6477.0000  129.5060    0.0520    0.1842    3.7670    2.6070    0.1842 
6477.5000  864.9210  864.9210  864.9210  864.9210  864.9210 6477.5000  130.8360    0.0610    0.1907    3.6500    2.6040    0.1907 
6478.0000 1018.2880 1018.2880 1018.2880 1018.2880 1018.2880 6478.0000  127.6230    0.0670    0.1954    3.5790    2.6030    0.1954 
6478.5000 1136.9449 1136.9449 1136.9449 1136.9449 1136.9449 6478.5000  120.0340    0.0670    0.1980    3.6350    2.6040    0.1980 
