~VERSION INFORMATION
 VERS.                 2.0:   CWLS LOG ASCII STANDARD - VERSION 2.0
 WRAP.                  NO:   SINGLE LINE PER DEPTH STEP
 CREA.                 5/13/2021 1:24:19 AM
#CREATED USING DSPetro VERSION 10ep.4.05.01 BY H227404 ON 5/13/2021 1:24:19 AM
~WELL INFORMATION
#MNEM.UNIT       DATA                          DESCRIPTION MNEMONIC
#---------      ---------------------------   --------------------------
 STRT    .FT        0.0000                    : START DEPTH
 STOP    .FT        9000.0000                 : STOP DEPTH
 STEP    .FT        0.5000                    : STEP VALUE
 NULL    .      -999.0000                     : NULL VALUE
 DATE    .      5/13/2021                     : LAS file Creation Date
 WELL   .      SNRG-0001                          : Well Name
 COMP   .      Range Resources Appalachia, LLC      : Company
 FLD    .                                           : Field
 STATE  .      OH                                   : State
 COUNT  .      USA                                  : Country
 API    .      SNRG-0001                       : API Number
 UWI    .      SNRG-0001                       : Unique Well Identifier (UWI)
 LOC    .      750'SL & 1060'EL OF NW QTR., SEC. 30 : Location
 EPDAT  .      964                                  : Elevation of Permanent Datum
 GL     .      954.000                              : GL Elevation
 RWS    .      0                                    : Def_Rw
 WST    .      0                                    : Def_Rwt
 CNTY   .      Carroll                              : County
 PROV   .                                           : Province
 MDEC   .      0                                    : Magnetic Declination
 SRVC   .      WE                                   : Contractor
 GDAT   .      (Undefined)                          : Geodatum
 LONG   .      -81.2941990004645                    : Longitude
 LATI   .      40.6472950002882                     : Latitude
 COORDIN.                                           : Grid System
 XCOORD .                                           : X or East-West Coordinate
 YCOORD .                                           : Y or North-South Coordinate
~CURVE INFORMATION
#MNEM              UNIT       API CODE   Curve Type Comments
#----------  --------------- ----------  ---------- -----------
 DEPTH      .FT                        : Depth       
 AO10       .OHMM                      : ShalRes     Shallow Laterolog
 AO20       .OHMM                      : ShalRes     Shallow Laterolog
 AORX       .OHMM                      : ShalRes     Shallow Laterolog
 AT10       .OHMM                      : ShalRes     Shallow Laterolog
 AT20       .OHMM                      : ShalRes     Shallow Laterolog
 DEPTH      .FT                        : Depth       
 GR         .GAPI                      : GammaRay    Gamma Ray
 HDRA       .G/C3                      : Drho        Density Correction
 NPHI       .dec                       : Neutron     
 PEFZ       .B/E                       : PEF         PE
 RHOZ       .G/C3                      : Density     Compensated Density
 TNPH       .dec                       : Neutron     
~A  DEPTH    AO10      AO20      AORX      AT10      AT20     DEPTH       GR       HDRA      NPHI      PEFZ      RHOZ      TNPH   
# ...
4805.0000  137.8900  137.8900  137.8900  137.8900  137.8900 4805.0000   57.1400    0.0450    0.0796    3.5290    2.8130    0.0796 
4805.5000  143.4590  143.4590  143.4590  143.4590  143.4590 4805.5000   53.6520    0.0460    0.0758    3.5950    2.8190    0.0758 
4806.0000  144.3260  144.3260  144.3260  144.3260  144.3260 4806.0000   52.2750    0.0440    0.0751    3.5870    2.8200    0.0751 
4806.5000  142.2280  142.2280  142.2280  142.2280  142.2280 4806.5000   53.0140    0.0420    0.0750    3.5460    2.8170    0.0750 
4807.0000  136.3860  136.3860  136.3860  136.3860  136.3860 4807.0000   58.1780    0.0390    0.0758    3.4880    2.8090    0.0758 
4807.5000  125.3130  125.3130  125.3130  125.3130  125.3130 4807.5000   66.2110    0.0420    0.0795    3.4370    2.7990    0.0795 
4808.0000  108.1230  108.1230  108.1230  108.1230  108.1230 4808.0000   73.9470    0.0530    0.0868    3.4370    2.7870    0.0868 
4808.5000   92.8940   92.8940   92.8940   92.8940   92.8940 4808.5000   84.0180    0.0700    0.0970    3.4390    2.7730    0.0970 
4809.0000   82.2700   82.2700   82.2700   82.2700   82.2700 4809.0000   92.7550    0.0860    0.1088    3.4480    2.7600    0.1088 
4809.5000   79.1550   79.1550   79.1550   79.1550   79.1550 4809.5000   94.9590    0.0950    0.1180    3.4730    2.7550    0.1180 
4810.0000   82.5180   82.5180   82.5180   82.5180   82.5180 4810.0000   91.3160    0.0910    0.1209    3.5320    2.7570    0.1209 
4810.5000   90.4610   90.4610   90.4610   90.4610   90.4610 4810.5000   85.2190    0.0760    0.1167    3.5560    2.7640    0.1167 
4811.0000   99.1590   99.1590   99.1590   99.1590   99.1590 4811.0000   81.7730    0.0580    0.1093    3.5350    2.7720    0.1093 
4811.5000  103.1240  103.1240  103.1240  103.1240  103.1240 4811.5000   83.3450    0.0450    0.1045    3.4910    2.7800    0.1045 
4812.0000  102.1450  102.1450  102.1450  102.1450  102.1450 4812.0000   86.4730    0.0400    0.1023    3.4340    2.7830    0.1023 
4812.5000  100.3610  100.3610  100.3610  100.3610  100.3610 4812.5000   89.9390    0.0440    0.1012    3.4400    2.7890    0.1012 
4813.0000  101.1920  101.1920  101.1920  101.1920  101.1920 4813.0000   91.2530    0.0490    0.0992    3.4780    2.7910    0.0992 
4813.5000  105.5190  105.5190  105.5190  105.5190  105.5190 4813.5000   85.4890    0.0560    0.0959    3.5080    2.8010    0.0959 
4814.0000  110.3750  110.3750  110.3750  110.3750  110.3750 4814.0000   77.6840    0.0590    0.0932    3.5280    2.8050    0.0932 
4814.5000  117.2960  117.2960  117.2960  117.2960  117.2960 4814.5000   71.3940    0.0590    0.0914    3.5110    2.8100    0.0914 
4815.0000  126.1280  126.1280  126.1280  126.1280  126.1280 4815.0000   67.1000    0.0550    0.0914    3.4690    2.8110    0.0914 
4815.5000  133.9610  133.9610  133.9610  133.9610  133.9610 4815.5000   64.7880    0.0510    0.0922    3.4660    2.8140    0.0922 
4816.0000  140.2730  140.2730  140.2730  140.2730  140.2730 4816.0000   63.9610    0.0450    0.0921    3.4760    2.8120    0.0921 
4816.5000  142.3670  142.3670  142.3670  142.3670  142.3670 4816.5000   65.4950    0.0400    0.0896    3.4990    2.8100    0.0896 
4817.0000  143.1100  143.1100  143.1100  143.1100  143.1100 4817.0000   67.4860    0.0350    0.0863    3.5050    2.8060    0.0863 
4817.5000  142.5420  142.5420  142.5420  142.5420  142.5420 4817.5000   68.8020    0.0300    0.0848    3.4810    2.7940    0.0848 
4818.0000  134.1990  134.1990  134.1990  134.1990  134.1990 4818.0000   72.5300    0.0350    0.0870    3.5090    2.7610    0.0870 
4818.5000  112.3650  112.3650  112.3650  112.3650  112.3650 4818.5000   83.1590    0.0570    0.0971    3.5890    2.6950    0.0971 
4819.0000   85.7210   85.7210   85.7210   85.7210   85.7210 4819.0000  103.5590    0.0990    0.1186    3.5810    2.5880    0.1186 
4819.5000   61.7780   61.7780   61.7780   61.7780   61.7780 4819.5000  127.6000    0.1550    0.1488    3.4720    2.4510    0.1488 
4820.0000   47.5300   47.5300   47.5300   47.5300   47.5300 4820.0000  147.8430    0.2100    0.1788    3.3160    2.3110    0.1788 
4820.5000   39.8160   39.8160   39.8160   39.8160   39.8160 4820.5000  158.6060    0.2480    0.2024    3.2270    2.1940    0.2024 
4821.0000   36.4240   36.4240   36.4240   36.4240   36.4240 4821.0000  158.9730    0.2650    0.2192    3.2980    2.1360    0.2192 
4821.5000   35.0560   35.0560   35.0560   35.0560   35.0560 4821.5000  159.2610    0.2620    0.2295    3.4300    2.1250    0.2295 
4822.0000   34.9060   34.9060   34.9060   34.9060   34.9060 4822.0000  161.4440    0.2520    0.2272    3.5930    2.1590    0.2272 
4822.5000   35.1330   35.1330   35.1330   35.1330   35.1330 4822.5000  163.2940    0.2480    0.2183    3.6950    2.2030    0.2183 
4823.0000   35.7340   35.7340   35.7340   35.7340   35.7340 4823.0000  164.1260    0.2530    0.2101    3.6330    2.2420    0.2101 
4823.5000   36.1490   36.1490   36.1490   36.1490   36.1490 4823.5000  161.3720    0.2640    0.2109    3.4940    2.2670    0.2109 
4824.0000   36.2180   36.2180   36.2180   36.2180   36.2180 4824.0000  158.6410    0.2760    0.2229    3.4070    2.2700    0.2229 
4824.5000   35.5370   35.5370   35.5370   35.5370   35.5370 4824.5000  155.0460    0.2830    0.2307    3.4170    2.2540    0.2307 
4825.0000   34.3540   34.3540   34.3540   34.3540   34.3540 4825.0000  150.3020    0.2860    0.2302    3.5280    2.2250    0.2302 
4825.5000   33.1660   33.1660   33.1660   33.1660   33.1660 4825.5000  146.1010    0.2860    0.2270    3.6350    2.1910    0.2270 
4826.0000   32.4940   32.4940   32.4940   32.4940   32.4940 4826.0000  143.6770    0.2840    0.2280    3.6750    2.1640    0.2280 
4826.5000   32.3200   32.3200   32.3200   32.3200   32.3200 4826.5000  146.7890    0.2790    0.2328    3.6810    2.1490    0.2328 
4827.0000   32.4210   32.4210   32.4210   32.4210   32.4210 4827.0000  150.3100    0.2700    0.2315    3.7290    2.1510    0.2315 
4827.5000   32.4600   32.4600   32.4600   32.4600   32.4600 4827.5000  150.7590    0.2620    0.2229    3.8160    2.1630    0.2229 
4828.0000   32.4260   32.4260   32.4260   32.4260   32.4260 4828.0000  150.1710    0.2590    0.2131    3.8850    2.1780    0.2131 
4828.5000   32.3910   32.3910   32.3910   32.3910   32.3910 4828.5000  149.7310    0.2620    0.2082    3.8310    2.1950    0.2082 
4829.0000   32.5330   32.5330   32.5330   32.5330   32.5330 4829.0000  152.9630    0.2700    0.2100    3.6990    2.2180    0.2100 
4829.5000   33.0120   33.0120   33.0120   33.0120   33.0120 4829.5000  156.3580    0.2810    0.2158    3.6090    2.2430    0.2158 
4830.0000   33.6900   33.6900   33.6900   33.6900   33.6900 4830.0000  153.8550    0.2890    0.2186    3.5720    2.2650    0.2186 
4830.5000   34.2280   34.2280   34.2280   34.2280   34.2280 4830.5000  153.3900    0.2930    0.2134    3.5480    2.2770    0.2134 
4831.0000   34.3590   34.3590   34.3590   34.3590   34.3590 4831.0000  157.5760    0.2930    0.2058    3.4910    2.2810    0.2058 
4831.5000   34.2210   34.2210   34.2210   34.2210   34.2210 4831.5000  162.8730    0.2920    0.2067    3.5400    2.2840    0.2067 
4832.0000   34.1450   34.1450   34.1450   34.1450   34.1450 4832.0000  165.0710    0.2900    0.2159    3.7070    2.2930    0.2159 
4832.5000   34.0380   34.0380   34.0380   34.0380   34.0380 4832.5000  162.7480    0.2860    0.2188    3.9160    2.3160    0.2188 
4833.0000   33.7700   33.7700   33.7700   33.7700   33.7700 4833.0000  162.2180    0.2820    0.2115    4.0650    2.3460    0.2115 
4833.5000   33.3090   33.3090   33.3090   33.3090   33.3090 4833.5000  162.0290    0.2790    0.2033    4.0820    2.3700    0.2033 
4834.0000   32.9440   32.9440   32.9440   32.9440   32.9440 4834.0000  161.6400    0.2800    0.2020    4.0570    2.3840    0.2020 
4834.5000   32.9360   32.9360   32.9360   32.9360   32.9360 4834.5000  160.1590    0.2850    0.2098    3.9660    2.3940    0.2098 
4835.0000   33.1020   33.1020   33.1020   33.1020   33.1020 4835.0000  159.3890    0.2910    0.2167    3.8600    2.4030    0.2167 
4835.5000   33.2030   33.2030   33.2030   33.2030   33.2030 4835.5000  162.1220    0.2980    0.2194    3.7810    2.4070    0.2194 
