~VERSION INFORMATION
 VERS.                 2.0:   CWLS LOG ASCII STANDARD - VERSION 2.0
 WRAP.                  NO:   SINGLE LINE PER DEPTH STEP
 CREA.                 5/13/2021 1:24:20 AM
#CREATED USING DSPetro VERSION 10ep.4.05.01 BY H227404 ON 5/13/2021 1:24:20 AM
~WELL INFORMATION
#MNEM.UNIT       DATA                          DESCRIPTION MNEMONIC
#---------      ---------------------------   --------------------------
 STRT    .FT        1000.0000                 : START DEPTH
 STOP    .FT        10000.0000                : STOP DEPTH
 STEP    .FT        0.5000                    : STEP VALUE
 NULL    .      -999.0000                     : NULL VALUE
 DATE    .      5/13/2021                     : LAS file Creation Date
 WELL   .      SNRG-0003                             : Well Name
 COMP   .      COLUMBIA NATURAL RESOURCES INC.        : Company
 FLD    .                                             : Field
 STATE  .      OH                                     : State
 COUNT  .      USA                                    : Country
 API    .      SNRG-0003                         : API Number
 UWI    .      SNRG-0003                         : Unique Well Identifier (UWI)
 LOC    .      200'NL & 500'WL OF  SE QTR. SECTION 28 : Location
 EPDAT  .      1135                                   : Elevation of Permanent Datum
 GL     .      1135                                   : GL Elevation
 RWS    .      0                                      : Def_Rw
 WST    .      0                                      : Def_Rwt
 CNTY   .      COLUMBIANA                             : County
 PROV   .                                             : Province
 MDEC   .      0                                      : Magnetic Declination
 SRVC   .      SCH                                    : Contractor
 GDAT   .      (Undefined)                            : Geodatum
 LONG   .      -80.8118599997626                      : Longitude
 LATI   .      40.6594309997559                       : Latitude
 COORDIN.                                             : Grid System
 XCOORD .                                             : X or East-West Coordinate
 YCOORD .                                             : Y or North-South Coordinate
~CURVE INFORMATION
#MNEM              UNIT       API CODE   Curve Type Comments
#----------  --------------- ----------  ---------- -----------
 DEPTH      .FT                        : Depth       
 AO10       .%                         : ShalRes     SNP
 AO20       .%                         : ShalRes     SNP
 AO30       .OHMM                      : MedRes      ILM
 AO60       .OHMM                      : MedRes      ILM
 AORX       .%                         : ShalRes     SNP
 AT10       .%                         : ShalRes     SNP
 AT20       .%                         : ShalRes     SNP
 AT30       .OHMM                      : MedRes      ILM
 AT60       .OHMM                      : MedRes      ILM
 DEPTH      .FT                        : Depth       
 GR         .GAPI                      : GammaRay    GR
 NPHI       .dec                       : Neutron     
 PEFZ       .B/E                       : PEF         PEF
 RHOZ       .G/CC                      : Density     RHOB
 TNPH       .dec                       : Neutron     
~A  DEPTH    AO10      AO20      AO30      AO60      AORX      AT10      AT20      AT30      AT60     DEPTH       GR       NPHI      PEFZ      RHOZ      TNPH   
# ...
2100.0000   12.2803   12.2803   24.0423   24.0423   12.2803   12.2803   12.2803   24.0423   24.0423 2100.0000  157.4043    0.1228    3.2511    2.7410    0.1228 
2100.5000   12.3535   12.3535   24.7473   24.7473   12.3535   12.3535   12.3535   24.7473   24.7473 2100.5000  155.1631    0.1235    3.2982    2.7335    0.1235 
2101.0000   12.7075   12.7075   25.3989   25.3989   12.7075   12.7075   12.7075   25.3989   25.3989 2101.0000  152.6758    0.1271    3.3137    2.7255    0.1271 
2101.5000   12.7685   12.7685   26.1169   26.1169   12.7685   12.7685   12.7685   26.1169   26.1169 2101.5000  150.7163    0.1277    3.3159    2.7170    0.1277 
2102.0000   12.3169   12.3169   27.5418   27.5418   12.3169   12.3169   12.3169   27.5418   27.5418 2102.0000  149.6455    0.1232    3.3074    2.7091    0.1232 
2102.5000   11.6699   11.6699   29.8756   29.8756   11.6699   11.6699   11.6699   29.8756   29.8756 2102.5000  148.5625    0.1167    3.2789    2.7027    0.1167 
2103.0000   11.1450   11.1450   32.4502   32.4502   11.1450   11.1450   11.1450   32.4502   32.4502 2103.0000  145.2188    0.1115    3.2089    2.6987    0.1115 
2103.5000   10.7544   10.7544   34.4696   34.4696   10.7544   10.7544   10.7544   34.4696   34.4696 2103.5000  139.9688    0.1075    3.1068    2.6969    0.1075 
2104.0000   10.4492   10.4492   35.4888   35.4888   10.4492   10.4492   10.4492   35.4888   35.4888 2104.0000  132.8125    0.1045    3.0043    2.6964    0.1045 
2104.5000   10.3638   10.3638   35.4873   35.4873   10.3638   10.3638   10.3638   35.4873   35.4873 2104.5000  125.4375    0.1036    2.9159    2.6974    0.1036 
2105.0000   10.6201   10.6201   35.0633   35.0633   10.6201   10.6201   10.6201   35.0633   35.0633 2105.0000  123.5938    0.1062    2.8553    2.7005    0.1062 
2105.5000   10.9497   10.9497   34.7299   34.7299   10.9497   10.9497   10.9497   34.7299   34.7299 2105.5000  128.9375    0.1095    2.8359    2.7060    0.1095 
2106.0000   11.0474   11.0474   34.3526   34.3526   11.0474   11.0474   11.0474   34.3526   34.3526 2106.0000  135.2500    0.1105    3.0314    2.7222    0.1105 
2106.5000   11.0718   11.0718   33.9279   33.9279   11.0718   11.0718   11.0718   33.9279   33.9279 2106.5000  138.2148    0.1107    3.1571    2.7209    0.1107 
2107.0000   11.0840   11.0840   33.3705   33.3705   11.0840   11.0840   11.0840   33.3705   33.3705 2107.0000  141.1113    0.1108    3.0269    2.7123    0.1108 
2107.5000   11.1938   11.1938   32.3355   32.3355   11.1938   11.1938   11.1938   32.3355   32.3355 2107.5000  146.3291    0.1119    2.7279    2.7065    0.1119 
2108.0000   11.6211   11.6211   30.9573   30.9573   11.6211   11.6211   11.6211   30.9573   30.9573 2108.0000  148.3058    0.1162    2.7736    2.7186    0.1162 
2108.5000   12.2681   12.2681   29.6197   29.6197   12.2681   12.2681   12.2681   29.6197   29.6197 2108.5000  148.4613    0.1227    3.0656    2.7354    0.1227 
2109.0000   12.7930   12.7930   28.5177   28.5177   12.7930   12.7930   12.7930   28.5177   28.5177 2109.0000  153.0762    0.1279    3.1347    2.7346    0.1279 
2109.5000   12.7808   12.7808   27.8392   27.8392   12.7808   12.7808   12.7808   27.8392   27.8392 2109.5000  160.3125    0.1278    3.0515    2.7239    0.1278 
2110.0000   12.4878   12.4878   27.8382   27.8382   12.4878   12.4878   12.4878   27.8382   27.8382 2110.0000  160.9512    0.1249    3.0611    2.7223    0.1249 
2110.5000   12.2681   12.2681   28.2126   28.2126   12.2681   12.2681   12.2681   28.2126   28.2126 2110.5000  155.8633    0.1227    3.0669    2.7295    0.1227 
2111.0000   12.0483   12.0483   28.4466   28.4466   12.0483   12.0483   12.0483   28.4466   28.4466 2111.0000  152.5173    0.1205    3.0377    2.7348    0.1205 
2111.5000   11.9507   11.9507   28.5203   28.5203   11.9507   11.9507   11.9507   28.5203   28.5203 2111.5000  152.2346    0.1195    3.0918    2.7297    0.1195 
2112.0000   12.0361   12.0361   28.5760   28.5760   12.0361   12.0361   12.0361   28.5760   28.5760 2112.0000  150.7939    0.1204    3.1528    2.7267    0.1204 
2112.5000   12.2559   12.2559   28.9813   28.9813   12.2559   12.2559   12.2559   28.9813   28.9813 2112.5000  147.7217    0.1226    3.0455    2.7340    0.1226 
2113.0000   12.5000   12.5000   29.5619   29.5619   12.5000   12.5000   12.5000   29.5619   29.5619 2113.0000  146.5625    0.1250    2.8671    2.7384    0.1250 
2113.5000   12.5488   12.5488   29.7142   29.7142   12.5488   12.5488   12.5488   29.7142   29.7142 2113.5000  147.6250    0.1255    2.7675    2.7341    0.1255 
2114.0000   12.3901   12.3901   29.5167   29.5167   12.3901   12.3901   12.3901   29.5167   29.5167 2114.0000  149.4063    0.1239    2.8445    2.7246    0.1239 
2114.5000   12.1826   12.1826   29.1283   29.1283   12.1826   12.1826   12.1826   29.1283   29.1283 2114.5000  151.2500    0.1218    3.0679    2.7158    0.1218 
2115.0000   12.0239   12.0239   28.8196   28.8196   12.0239   12.0239   12.0239   28.8196   28.8196 2115.0000  151.8438    0.1202    3.2825    2.7068    0.1202 
2115.5000   11.8286   11.8286   28.8572   28.8572   11.8286   11.8286   11.8286   28.8572   28.8572 2115.5000  149.1875    0.1183    3.3523    2.6938    0.1183 
2116.0000   11.4014   11.4014   28.9899   28.9899   11.4014   11.4014   11.4014   28.9899   28.9899 2116.0000  144.7188    0.1140    3.2889    2.6792    0.1140 
2116.5000   11.0474   11.0474   28.6287   28.6287   11.0474   11.0474   11.0474   28.6287   28.6287 2116.5000  144.1250    0.1105    3.2012    2.6723    0.1105 
2117.0000   11.2305   11.2305   27.3121   27.3121   11.2305   11.2305   11.2305   27.3121   27.3121 2117.0000  149.0410    0.1123    3.1642    2.6797    0.1123 
2117.5000   11.9263   11.9263   25.5126   25.5126   11.9263   11.9263   11.9263   25.5126   25.5126 2117.5000  154.3184    0.1193    3.1720    2.6957    0.1193 
2118.0000   12.7808   12.7808   24.1960   24.1960   12.7808   12.7808   12.7808   24.1960   24.1960 2118.0000  158.0547    0.1278    3.1910    2.7067    0.1278 
2118.5000   13.3057   13.3057   23.4997   23.4997   13.3057   13.3057   13.3057   23.4997   23.4997 2118.5000  160.0850    0.1331    3.2244    2.7045    0.1331 
2119.0000   13.3423   13.3423   22.8371   22.8371   13.3423   13.3423   13.3423   22.8371   22.8371 2119.0000  160.7987    0.1334    3.2996    2.6951    0.1334 
2119.5000   13.1226   13.1226   22.1963   22.1963   13.1226   13.1226   13.1226   22.1963   22.1963 2119.5000  160.5886    0.1312    3.3900    2.6922    0.1312 
2120.0000   13.0249   13.0249   22.0231   22.0231   13.0249   13.0249   13.0249   22.0231   22.0231 2120.0000  159.8120    0.1302    3.4115    2.7016    0.1302 
2120.5000   13.2324   13.2324   22.0143   22.0143   13.2324   13.2324   13.2324   22.0143   22.0143 2120.5000  159.0842    0.1323    3.3601    2.7150    0.1323 
2121.0000   13.5254   13.5254   21.6810   21.6810   13.5254   13.5254   13.5254   21.6810   21.6810 2121.0000  159.4414    0.1353    3.3534    2.7210    0.1353 
2121.5000   13.5742   13.5742   21.6105   21.6105   13.5742   13.5742   13.5742   21.6105   21.6105 2121.5000  161.6875    0.1357    3.4327    2.7181    0.1357 
2122.0000   13.1958   13.1958   22.5722   22.5722   13.1958   13.1958   13.1958   22.5722   22.5722 2122.0000  162.8750    0.1320    3.5326    2.7131    0.1320 
2122.5000   12.3291   12.3291   24.1849   24.1849   12.3291   12.3291   12.3291   24.1849   24.1849 2122.5000  157.0625    0.1233    3.5701    2.7125    0.1233 
2123.0000   11.3892   11.3892   25.3488   25.3488   11.3892   11.3892   11.3892   25.3488   25.3488 2123.0000  147.9688    0.1139    3.5206    2.7164    0.1139 
2123.5000   11.0474   11.0474   25.7047   25.7047   11.0474   11.0474   11.0474   25.7047   25.7047 2123.5000  143.4688    0.1105    3.4678    2.7204    0.1105 
2124.0000   11.4624   11.4624   26.0152   26.0152   11.4624   11.4624   11.4624   26.0152   26.0152 2124.0000  147.1250    0.1146    3.4252    2.7213    0.1146 
2124.5000   12.1582   12.1582   26.8034   26.8034   12.1582   12.1582   12.1582   26.8034   26.8034 2124.5000  155.2188    0.1216    3.4231    2.7218    0.1216 
