~Version ---------------------------------------------------
VERS.   2.0 : CWLS log ASCII Standard -VERSION 2.0
WRAP.    NO : One line per depth step
DLM . SPACE : Column Data Section Delimiter
~Well ------------------------------------------------------
STRT  .m                                 0.0 : START DEPTH
STOP  .m                   11221024.30872697 : STOP DEPTH
STEP  .m                           623.56345 : STEP
NULL  .                                 -999 : NULL VALUE
COMP  .      Range Resources Appalachia, LLC : COMPANY
WELL  .                            SNRG-0001 : WELL
FLD   .                                      : FIELD
LOC   . 750'SL & 1060'EL OF NW QTR., SEC. 30 : LOCATION
PROV  .                                      : PROVINCE
CNTY  .                              Carroll : COUNTY
STAT  .                                      : STATE
CTRY  .                                      : COUNTRY
SRVC  .                                      : SERVICE COMPANY
DATE  .           2021-07-11 01:47:10.230360 : DATE
UWI   .                            SNRG-0001 : UNIQUE WELL ID
API   .                            SNRG-0001 : API NUMBER
LIC   .                                      : 
LATI  .                     40.6472950002882 : 
LONG  .                    -81.2941990004645 : 
NS    .                                      : 
EW    .                                      : 
XCOORD.                                      : 
YCOORD.                                      : 
GDAT  .                          (Undefined) : 
SECT  .                                      : 
RANG  .                                      : 
TOWN  .                                      : 
~Curve Information -----------------------------------------
DEPT.m     : 
AO10.OHMM  : ShalRes     Shallow Laterolog
AO20.OHMM  : ShalRes     Shallow Laterolog
AORX.OHMM  : ShalRes     Shallow Laterolog
AT10.OHMM  : ShalRes     Shallow Laterolog
AT20.OHMM  : ShalRes     Shallow Laterolog
GR  .GAPI  : GammaRay    Gamma Ray
HDRA.G/C3  : Drho        Density Correction
NPHI.dec   : Neutron
PEFZ.B/E   : PEF         PE
RHOZ.G/C3  : Density     Compensated Density
TNPH.dec   : Neutron
~Params ----------------------------------------------------
EKB.      : 
EGL.      : 
KB .      : 
GL .      : 
TD .      : 
TDD.      : 
TDL.      : 
~Other -----------------------------------------------------
~ASCII -----------------------------------------------------
# ...
 7338094.69659   80.49274   80.49274   80.49274   80.49274   80.49274  120.04763    0.06289    0.15649    3.84093    2.68402    0.15649
 7338718.26004   77.42868   77.42868   77.42868   77.42868   77.42868  124.17766    0.05294    0.15549    3.83348    2.68593    0.15549
 7339341.82349   74.79979   74.79979   74.79979   74.79979   74.79979  126.70515    0.04703    0.15428    3.78907    2.67894    0.15428
 7339965.38694   73.04386   73.04386   73.04386   73.04386   73.04386  123.89163    0.05014    0.15216    3.79652    2.67298    0.15216
 7340588.95039   71.55338   71.55338   71.55338   71.55338   71.55338  116.99490    0.06320    0.14838    3.84138    2.67105    0.14838
 7341212.51385   70.29342   70.29342   70.29342   70.29342   70.29342  111.19941    0.08012    0.14612    3.87590    2.67605    0.14612
 7341836.07730   70.25768   70.25768   70.25768   70.25768   70.25768  109.67819    0.09106    0.14854    3.95420    2.68105    0.14854
 7342459.64075   71.71481   71.71481   71.71481   71.71481   71.71481  109.09038    0.09703    0.15221    4.05779    2.68600    0.15221
 7343083.20420   73.78361   73.78361   73.78361   73.78361   73.78361  109.06445    0.10004    0.15329    4.12551    2.68594    0.15329
 7343706.76765   75.56882   75.56882   75.56882   75.56882   75.56882  111.73189    0.10411    0.15261    4.08195    2.67993    0.15261
 7344330.33110   76.59588   76.59588   76.59588   76.59588   76.59588  116.13838    0.11421    0.15407    3.99147    2.67292    0.15407
 7344953.89455   77.54106   77.54106   77.54106   77.54106   77.54106  118.39886    0.13226    0.16141    3.94583    2.66494    0.16141
 7345577.45801   78.31871   78.31871   78.31871   78.31871   78.31871  117.43333    0.15516    0.17106    3.93057    2.65888    0.17106
 7346201.02146   78.10479   78.10479   78.10479   78.10479   78.10479  116.79369    0.16901    0.17715    3.80607    2.64795    0.17715
 7346824.58491   76.52410   76.52410   76.52410   76.52410   76.52410  118.86734    0.16982    0.18172    3.63926    2.64298    0.18172
 7347448.14836   75.14890   75.14890   75.14890   75.14890   75.14890  122.14531    0.15474    0.18408    3.57558    2.64106    0.18408
 7348071.71181   74.55030   74.55030   74.55030   74.55030   74.55030  119.94275    0.13177    0.18219    3.62702    2.64705    0.18219
 7348695.27526   75.88410   75.88410   75.88410   75.88410   75.88410  112.35866    0.11196    0.17250    3.80159    2.65198    0.17250
 7349318.83871   77.53637   77.53637   77.53637   77.53637   77.53637  104.90082    0.10821    0.15574    3.93805    2.64992    0.15574
 7349942.40217   78.33694   78.33694   78.33694   78.33694   78.33694  102.04871    0.12629    0.14247    3.94194    2.64182    0.14247
 7350565.96562   77.71189   77.71189   77.71189   77.71189   77.71189  102.29149    0.15120    0.13925    3.85038    2.62688    0.13925
 7351189.52907   76.05327   76.05327   76.05327   76.05327   76.05327  103.22806    0.16808    0.14395    3.79710    2.61599    0.14395
 7351813.09252   74.59708   74.59708   74.59708   74.59708   74.59708  106.54667    0.17599    0.14842    3.80603    2.61510    0.14842
 7352436.65597   72.94784   72.94784   72.94784   72.94784   72.94784  110.87413    0.17501    0.15085    3.80887    2.62410    0.15085
 7353060.21942   70.84555   70.84555   70.84555   70.84555   70.84555  116.23188    0.17610    0.15572    3.79680    2.63302    0.15572
 7353683.78287   68.46819   68.46819   68.46819   68.46819   68.46819  117.66700    0.18510    0.16661    3.77958    2.63489    0.16661
 7354307.34633   66.84897   66.84897   66.84897   66.84897   66.84897  116.12769    0.19402    0.17620    3.74143    2.62486    0.17620
 7354930.90978   66.76792   66.76792   66.76792   66.76792   66.76792  116.89835    0.19593    0.17614    3.69314    2.61189    0.17614
 7355554.47323   67.54426   67.54426   67.54426   67.54426   67.54426  119.07380    0.18884    0.17007    3.70694    2.60203    0.17007
 7356178.03668   68.53446   68.53446   68.53446   68.53446   68.53446  118.54736    0.17488    0.15774    3.79009    2.60513    0.15774
 7356801.60013   70.76906   70.76906   70.76906   70.76906   70.76906  110.69640    0.16392    0.14377    3.97145    2.61722    0.14377
 7357425.16358   75.20909   75.20909   75.20909   75.20909   75.20909   96.34696    0.15593    0.13224    4.09509    2.63618    0.13224
 7358048.72703   80.31678   80.31678   80.31678   80.31678   80.31678   85.00093    0.14895    0.12653    4.10281    2.65104    0.12653
 7358672.29049   83.09670   83.09670   83.09670   83.09670   83.09670   85.34981    0.14395    0.12981    3.99970    2.65500    0.12981
 7359295.85394   79.39199   79.39199   79.39199   79.39199   79.39199   94.92305    0.13892    0.13987    3.88676    2.65492    0.13987
 7359919.41739   72.54303   72.54303   72.54303   72.54303   72.54303  108.16160    0.13089    0.15438    3.78012    2.64693    0.15438
 7360542.98084   66.67872   66.67872   66.67872   66.67872   66.67872  116.65995    0.12094    0.16961    3.70514    2.64000    0.16961
 7361166.54429   64.43762   64.43762   64.43762   64.43762   64.43762  119.20255    0.11500    0.17931    3.71806    2.64002    0.17931
 7361790.10774   66.06126   66.06126   66.06126   66.06126   66.06126  116.20328    0.11507    0.18015    3.72435    2.64211    0.18015
 7362413.67119   68.51723   68.51723   68.51723   68.51723   68.51723  112.26438    0.12211    0.17500    3.75464    2.65211    0.17500
 7363037.23465   71.39226   71.39226   71.39226   71.39226   71.39226  111.09372    0.13207    0.16579    3.72243    2.66205    0.16579
 7363660.79810   73.40247   73.40247   73.40247   73.40247   73.40247  111.04902    0.13905    0.15603    3.67528    2.66695    0.15603
 7364284.36155   74.64758   74.64758   74.64758   74.64758   74.64758  108.94214    0.14403    0.14882    3.78574    2.66188    0.14882
 7364907.92500   74.93573   74.93573   74.93573   74.93573   74.93573  104.33016    0.14700    0.14123    3.93491    2.65073    0.14123
 7365531.48845   73.08453   73.08453   73.08453   73.08453   73.08453  105.52526    0.14704    0.13398    3.92543    2.62686    0.13398
 7366155.05190   70.60959   70.60959   70.60959   70.60959   70.60959  111.99206    0.15097    0.13200    3.78881    2.61386    0.13200
 7366778.61535   67.62013   67.62013   67.62013   67.62013   67.62013  120.72905    0.14797    0.14077    3.60100    2.60099    0.14077
 7367402.17881   64.07516   64.07516   64.07516   64.07516   64.07516  126.57903    0.14495    0.15523    3.60234    2.60001    0.15523
 7368025.74226   60.54313   60.54313   60.54313   60.54313   60.54313  127.24067    0.13994    0.16684    3.71706    2.60110    0.16684
 7368649.30571   57.89397   57.89397   57.89397   57.89397   57.89397  124.57106    0.13392    0.17092    3.72254    2.61011    0.17092
 7369272.86916   57.91372   57.91372   57.91372   57.91372   57.91372  118.08520    0.12587    0.17282    3.68326    2.62021    0.17282
 7369896.43261   60.15262   60.15262   60.15262   60.15262   60.15262  112.71497    0.11376    0.17425    3.70741    2.63821    0.17425
 7370519.99606   63.23222   63.23222   63.23222   63.23222   63.23222  114.55811    0.09275    0.16937    3.82893    2.65624    0.16937
 7371143.55951   65.48835   65.48835   65.48835   65.48835   65.48835  118.79687    0.07078    0.15764    3.90881    2.67712    0.15764
 7371767.12297   66.11124   66.11124   66.11124   66.11124   66.11124  121.23954    0.05193    0.14434    3.89264    2.68802    0.14434
 7372390.68642   65.25682   65.25682   65.25682   65.25682   65.25682  118.07188    0.04504    0.13842    3.86095    2.68995    0.13842
 7373014.24987   63.60573   63.60573   63.60573   63.60573   63.60573  114.07373    0.04910    0.14084    3.85622    2.68495    0.14084
 7373637.81332   63.00396   63.00396   63.00396   63.00396   63.00396  109.93271    0.05818    0.14520    3.87604    2.67998    0.14520
 7374261.37677   65.18878   65.18878   65.18878   65.18878   65.18878  101.39932    0.07318    0.14500    3.96655    2.67797    0.14500
