~Version ---------------------------------------------------
VERS.   2.0 : CWLS log ASCII Standard -VERSION 2.0
WRAP.    NO : One line per depth step
DLM . SPACE : Column Data Section Delimiter
~Well ------------------------------------------------------
STRT  .m                                 0.0 : START DEPTH
STOP  .m                   11221024.30872697 : STOP DEPTH
STEP  .m                           623.56345 : STEP
NULL  .                                 -999 : NULL VALUE
COMP  .      Range Resources Appalachia, LLC : COMPANY
WELL  .                            SNRG-0001 : WELL
FLD   .                                      : FIELD
LOC   . 750'SL & 1060'EL OF NW QTR., SEC. 30 : LOCATION
PROV  .                                      : PROVINCE
CNTY  .                              Carroll : COUNTY
STAT  .                                      : STATE
CTRY  .                                      : COUNTRY
SRVC  .                                      : SERVICE COMPANY
DATE  .           2021-07-11 01:47:10.230360 : DATE
UWI   .                            SNRG-0001 : UNIQUE WELL ID
API   .                            SNRG-0001 : API NUMBER
LIC   .                                      : 
LATI  .                     40.6472950002882 : 
LONG  .                    -81.2941990004645 : 
NS    .                                      : 
EW    .                                      : 
XCOORD.                                      : 
YCOORD.                                      : 
GDAT  .                          (Undefined) : 
SECT  .                                      : 
RANG  .                                      : 
TOWN  .                                      : 
~Curve Information -----------------------------------------
DEPT.m     : 
AO10.OHMM  : ShalRes     Shallow Laterolog
AO20.OHMM  : ShalRes     Shallow Laterolog
AORX.OHMM  : ShalRes     Shallow Laterolog
AT10.OHMM  : ShalRes     Shallow Laterolog
AT20.OHMM  : ShalRes     Shallow Laterolog
GR  .GAPI  : GammaRay    Gamma Ray
HDRA.G/C3  : Drho        Density Correction
NPHI.dec   : Neutron
PEFZ.B/E   : PEF         PE
RHOZ.G/C3  : Density     Compensated Density
TNPH.dec   : Neutron
~Params ----------------------------------------------------
EKB.      : 
EGL.      : 
KB .      : 
GL .      : 
TD .      : 
TDD.      : 
TDL.      : 
~Other -----------------------------------------------------
~ASCII -----------------------------------------------------
# ...
 7006982.50387   74.15269   74.15269   74.15269   74.15269   74.15269   95.20736    0.03701    0.12327    3.57710    2.71602    0.12327
 7007606.06732   84.22556   84.22556   84.22556   84.22556   84.22556   91.20203    0.03799    0.11052    3.49539    2.71792    0.11052
 7008229.63077   92.25013   92.25013   92.25013   92.25013   92.25013   93.74402    0.03700    0.10198    3.44026    2.70988    0.10198
 7008853.19423   95.17759   95.17759   95.17759   95.17759   95.17759   94.89519    0.03698    0.09978    3.46406    2.69889    0.09978
 7009476.75768   97.82613   97.82613   97.82613   97.82613   97.82613   92.41013    0.03500    0.09814    3.46990    2.68896    0.09814
 7010100.32113  104.89864  104.89864  104.89864  104.89864  104.89864   85.78078    0.03499    0.09209    3.46129    2.68496    0.09209
 7010723.88458  116.35794  116.35794  116.35794  116.35794  116.35794   80.40805    0.03401    0.08180    3.48720    2.68101    0.08180
 7011347.44803  128.50376  128.50376  128.50376  128.50376  128.50376   77.72613    0.03501    0.07287    3.50457    2.68204    0.07287
 7011971.01148  134.51992  134.51992  134.51992  134.51992  134.51992   79.85418    0.03602    0.07022    3.46437    2.68604    0.07022
 7012594.57493  133.66818  133.66818  133.66818  133.66818  133.66818   83.94813    0.03803    0.07265    3.40647    2.69007    0.07265
 7013218.13839  130.32281  130.32281  130.32281  130.32281  130.32281   85.84124    0.04102    0.07743    3.35906    2.69707    0.07743
 7013841.70184  127.87223  127.87223  127.87223  127.87223  127.87223   84.46025    0.04301    0.08090    3.36534    2.70405    0.08090
 7014465.26529  128.08209  128.08209  128.08209  128.08209  128.08209   79.39588    0.04401    0.08057    3.39612    2.70906    0.08057
 7015088.82874  128.86244  128.86244  128.86244  128.86244  128.86244   75.79895    0.04501    0.07800    3.40735    2.71503    0.07800
 7015712.39219  124.80111  124.80111  124.80111  124.80111  124.80111   78.14358    0.04602    0.07776    3.43906    2.71806    0.07776
 7016335.95564  111.26751  111.26751  111.26751  111.26751  111.26751   87.79202    0.04804    0.08376    3.44553    2.72404    0.08376
 7016959.51909   91.22228   91.22228   91.22228   91.22228   91.22228  100.87161    0.05201    0.09790    3.49323    2.72797    0.09790
 7017583.08255   74.38643   74.38643   74.38643   74.38643   74.38643  110.44235    0.05301    0.11586    3.51340    2.72494    0.11586
 7018206.64600   65.20125   65.20125   65.20125   65.20125   65.20125  115.45975    0.05399    0.13005    3.45829    2.71893    0.13005
 7018830.20945   62.24611   62.24611   62.24611   62.24611   62.24611  118.36245    0.05298    0.13518    3.39369    2.71193    0.13518
 7019453.77290   61.97812   61.97812   61.97812   61.97812   61.97812  122.49229    0.05098    0.13319    3.36642    2.70497    0.13319
 7020077.33635   61.24589   61.24589   61.24589   61.24589   61.24589  125.95027    0.04897    0.13257    3.40571    2.70198    0.13257
 7020700.89980   58.95659   58.95659   58.95659   58.95659   58.95659  126.60545    0.04598    0.14013    3.47032    2.70000    0.14013
 7021324.46325   56.28779   56.28779   56.28779   56.28779   56.28779  126.45092    0.04399    0.15260    3.49887    2.69999    0.15260
 7021948.02671   54.46816   54.46816   54.46816   54.46816   54.46816  124.90885    0.04299    0.16150    3.48697    2.69897    0.16150
 7022571.59016   54.67706   54.67706   54.67706   54.67706   54.67706  124.71657    0.04199    0.16143    3.48402    2.69595    0.16143
 7023195.15361   56.13700   56.13700   56.13700   56.13700   56.13700  124.94275    0.04101    0.15382    3.48635    2.69097    0.15382
 7023818.71706   57.58451   57.58451   57.58451   57.58451   57.58451  124.27164    0.04200    0.14597    3.51812    2.68797    0.14597
 7024442.28051   58.16395   58.16395   58.16395   58.16395   58.16395  122.34731    0.04201    0.14293    3.52875    2.68501    0.14293
 7025065.84396   57.41997   57.41997   57.41997   57.41997   57.41997  122.31293    0.04303    0.14565    3.50569    2.68606    0.14565
 7025689.40741   55.50306   55.50306   55.50306   55.50306   55.50306  125.24150    0.04603    0.15076    3.47796    2.69212    0.15076
 7026312.97087   53.14977   53.14977   53.14977   53.14977   53.14977  130.63977    0.04902    0.15686    3.47422    2.70305    0.15686
 7026936.53432   51.41784   51.41784   51.41784   51.41784   51.41784  134.72842    0.05100    0.16272    3.49422    2.70802    0.16272
 7027560.09777   51.33076   51.33076   51.33076   51.33076   51.33076  131.38496    0.05098    0.16447    3.51457    2.70994    0.16447
 7028183.66122   53.14896   53.14896   53.14896   53.14896   53.14896  126.18731    0.04897    0.16162    3.56632    2.70393    0.16162
 7028807.22467   57.15971   57.15971   57.15971   57.15971   57.15971  119.78045    0.04599    0.15312    3.59466    2.69693    0.15312
 7029430.78812   62.68323   62.68323   62.68323   62.68323   62.68323  115.39433    0.04500    0.14463    3.56273    2.68992    0.14463
 7030054.35157   68.61049   68.61049   68.61049   68.61049   68.61049  113.86660    0.04501    0.13722    3.44753    2.68193    0.13722
 7030677.91503   74.27283   74.27283   74.27283   74.27283   74.27283  111.09928    0.04603    0.12933    3.31526    2.67500    0.12933
 7031301.47848   78.15800   78.15800   78.15800   78.15800   78.15800  107.96378    0.04903    0.12164    3.24799    2.67503    0.12164
 7031925.04193   81.33287   81.33287   81.33287   81.33287   81.33287  106.77835    0.05200    0.11600    3.24773    2.67805    0.11600
 7032548.60538   83.95358   83.95358   83.95358   83.95358   83.95358  107.15552    0.05198    0.11554    3.31501    2.68305    0.11554
 7033172.16883   86.36909   86.36909   86.36909   86.36909   86.36909  105.54218    0.04996    0.11942    3.40757    2.68800    0.11942
 7033795.73228   88.91382   88.91382   88.91382   88.91382   88.91382  101.29941    0.04597    0.12116    3.45948    2.68800    0.12116
 7034419.29573   90.61157   90.61157   90.61157   90.61157   90.61157   98.17408    0.04299    0.11724    3.50227    2.68801    0.11724
 7035042.85919   91.19801   91.19801   91.19801   91.19801   91.19801   96.75897    0.04201    0.11097    3.52710    2.68901    0.11097
 7035666.42264   90.73377   90.73377   90.73377   90.73377   90.73377   98.58030    0.04302    0.10832    3.53568    2.69003    0.10832
 7036289.98609   89.25591   89.25591   89.25591   89.25591   89.25591  101.24623    0.04500    0.11073    3.50619    2.69300    0.11073
 7036913.54954   87.32832   87.32832   87.32832   87.32832   87.32832  104.45863    0.04499    0.11402    3.43227    2.69298    0.11402
 7037537.11299   84.17187   84.17187   84.17187   84.17187   84.17187  109.01734    0.04399    0.11623    3.36564    2.69100    0.11623
 7038160.67644   80.34634   80.34634   80.34634   80.34634   80.34634  109.69211    0.04301    0.11884    3.33324    2.69103    0.11884
 7038784.23989   76.47581   76.47581   76.47581   76.47581   76.47581  111.25695    0.04401    0.12275    3.35558    2.69404    0.12275
 7039407.80335   72.83053   72.83053   72.83053   72.83053   72.83053  113.98777    0.04501    0.12785    3.40865    2.69803    0.12785
 7040031.36680   69.60733   69.60733   69.60733   69.60733   69.60733  117.87137    0.04599    0.13274    3.46795    2.70098    0.13274
 7040654.93025   66.09523   66.09523   66.09523   66.09523   66.09523  121.98262    0.04497    0.13675    3.46261    2.69895    0.13675
 7041278.49370   62.40002   62.40002   62.40002   62.40002   62.40002  125.43278    0.04197    0.14156    3.42718    2.69395    0.14156
 7041902.05715   59.13763   59.13763   59.13763   59.13763   59.13763  132.47395    0.03899    0.14817    3.44266    2.68899    0.14817
 7042525.62060   56.20995   56.20995   56.20995   56.20995   56.20995  137.78066    0.03800    0.15498    3.50306    2.68802    0.15498
 7043149.18406   54.12211   54.12211   54.12211   54.12211   54.12211  138.83298    0.03800    0.16302    3.59917    2.69004    0.16302
