~VERSION INFORMATION
 VERS.                 2.0:   CWLS LOG ASCII STANDARD - VERSION 2.0
 WRAP.                  NO:   SINGLE LINE PER DEPTH STEP
 CREA.                 5/13/2021 1:24:19 AM
#CREATED USING DSPetro VERSION 10ep.4.05.01 BY H227404 ON 5/13/2021 1:24:19 AM
~WELL INFORMATION
#MNEM.UNIT       DATA                          DESCRIPTION MNEMONIC
#---------      ---------------------------   --------------------------
 STRT    .FT        0.0000                    : START DEPTH
 STOP    .FT        9000.0000                 : STOP DEPTH
 STEP    .FT        0.5000                    : STEP VALUE
 NULL    .      -999.0000                     : NULL VALUE
 DATE    .      5/13/2021                     : LAS file Creation Date
 WELL   .      SNRG-0001                          : Well Name
 COMP   .      Range Resources Appalachia, LLC      : Company
 FLD    .                                           : Field
 STATE  .      OH                                   : State
 COUNT  .      USA                                  : Country
 API    .      SNRG-0001                       : API Number
 UWI    .      SNRG-0001                       : Unique Well Identifier (UWI)
 LOC    .      750'SL & 1060'EL OF NW QTR., SEC. 30 : Location
 EPDAT  .      964                                  : Elevation of Permanent Datum
 GL     .      954.000                              : GL Elevation
 RWS    .      0                                    : Def_Rw
 WST    .      0                                    : Def_Rwt
 CNTY   .      Carroll                              : County
 PROV   .                                           : Province
 MDEC   .      0                                    : Magnetic Declination
 SRVC   .      WE                                   : Contractor
 GDAT   .      (Undefined)                          : Geodatum
 LONG   .      -81.2941990004645                    : Longitude
 LATI   .      40.6472950002882                     : Latitude
 COORDIN.                                           : Grid System
 XCOORD .                                           : X or East-West Coordinate
 YCOORD .                                           : Y or North-South Coordinate
~CURVE INFORMATION
#MNEM              UNIT       API CODE   Curve Type Comments
#----------  --------------- ----------  ---------- -----------
 DEPTH      .FT                        : Depth       
 AO10       .OHMM                      : ShalRes     Shallow Laterolog
 AO20       .OHMM                      : ShalRes     Shallow Laterolog
 AORX       .OHMM                      : ShalRes     Shallow Laterolog
 AT10       .OHMM                      : ShalRes     Shallow Laterolog
 AT20       .OHMM                      : ShalRes     Shallow Laterolog
 DEPTH      .FT                        : Depth       
 GR         .GAPI                      : GammaRay    Gamma Ray
 HDRA       .G/C3                      : Drho        Density Correction
 NPHI       .dec                       : Neutron     
 PEFZ       .B/E                       : PEF         PE
 RHOZ       .G/C3                      : Density     Compensated Density
 TNPH       .dec                       : Neutron     
~A  DEPTH    AO10      AO20      AORX      AT10      AT20     DEPTH       GR       HDRA      NPHI      PEFZ      RHOZ      TNPH   
# ...
5363.0000   44.7890   44.7890   44.7890   44.7890   44.7890 5363.0000  121.9910    0.0810    0.1292    3.6000    2.6570    0.1292 
5363.5000   43.1650   43.1650   43.1650   43.1650   43.1650 5363.5000  124.8020    0.0880    0.1334    3.6150    2.6530    0.1334 
5364.0000   43.4170   43.4170   43.4170   43.4170   43.4170 5364.0000  124.3730    0.0850    0.1349    3.6350    2.6470    0.1349 
5364.5000   44.5570   44.5570   44.5570   44.5570   44.5570 5364.5000  122.0860    0.0830    0.1365    3.6350    2.6460    0.1365 
5365.0000   45.3190   45.3190   45.3190   45.3190   45.3190 5365.0000  123.1500    0.0930    0.1405    3.6790    2.6460    0.1405 
5365.5000   44.7010   44.7010   44.7010   44.7010   44.7010 5365.5000  129.7810    0.1190    0.1443    3.7100    2.6480    0.1443 
5366.0000   42.8430   42.8430   42.8430   42.8430   42.8430 5366.0000  135.6750    0.1590    0.1444    3.7470    2.6430    0.1444 
5366.5000   40.7240   40.7240   40.7240   40.7240   40.7240 5366.5000  138.1370    0.2020    0.1436    3.7850    2.6390    0.1436 
5367.0000   38.6010   38.6010   38.6010   38.6010   38.6010 5367.0000  135.8020    0.2360    0.1490    3.8210    2.6310    0.1490 
5367.5000   36.8850   36.8850   36.8850   36.8850   36.8850 5367.5000  131.8440    0.2570    0.1599    3.8610    2.6260    0.1599 
5368.0000   35.3870   35.3870   35.3870   35.3870   35.3870 5368.0000  129.8430    0.2650    0.1709    3.8700    2.6170    0.1709 
5368.5000   34.3170   34.3170   34.3170   34.3170   34.3170 5368.5000  128.8620    0.2640    0.1746    3.8480    2.6030    0.1746 
5369.0000   34.2330   34.2330   34.2330   34.2330   34.2330 5369.0000  125.7420    0.2520    0.1692    3.7830    2.5850    0.1692 
5369.5000   35.0550   35.0550   35.0550   35.0550   35.0550 5369.5000  122.2480    0.2280    0.1662    3.6500    2.5650    0.1662 
5370.0000   36.6870   36.6870   36.6870   36.6870   36.6870 5370.0000  119.2870    0.2000    0.1684    3.5880    2.5570    0.1684 
5370.5000   38.8170   38.8170   38.8170   38.8170   38.8170 5370.5000  117.2890    0.1750    0.1691    3.5930    2.5640    0.1691 
5371.0000   40.5860   40.5860   40.5860   40.5860   40.5860 5371.0000  118.6200    0.1540    0.1643    3.5910    2.5830    0.1643 
5371.5000   42.0530   42.0530   42.0530   42.0530   42.0530 5371.5000  120.9450    0.1380    0.1542    3.5590    2.6060    0.1542 
5372.0000   43.6280   43.6280   43.6280   43.6280   43.6280 5372.0000  120.6340    0.1230    0.1452    3.5030    2.6200    0.1452 
5372.5000   45.2020   45.2020   45.2020   45.2020   45.2020 5372.5000  116.4110    0.1180    0.1396    3.5490    2.6240    0.1396 
5373.0000   45.9840   45.9840   45.9840   45.9840   45.9840 5373.0000  112.1770    0.1270    0.1358    3.6290    2.6080    0.1358 
5373.5000   44.0560   44.0560   44.0560   44.0560   44.0560 5373.5000  112.9980    0.1550    0.1392    3.6220    2.5720    0.1392 
5374.0000   40.3900   40.3900   40.3900   40.3900   40.3900 5374.0000  118.2830    0.1940    0.1512    3.5280    2.5250    0.1512 
5374.5000   36.9380   36.9380   36.9380   36.9380   36.9380 5374.5000  123.4890    0.2300    0.1658    3.3760    2.4880    0.1658 
5375.0000   35.0140   35.0140   35.0140   35.0140   35.0140 5375.0000  124.8290    0.2410    0.1762    3.2670    2.4690    0.1762 
5375.5000   35.0110   35.0110   35.0110   35.0110   35.0110 5375.5000  123.3620    0.2270    0.1795    3.2840    2.4790    0.1795 
5376.0000   35.5100   35.5100   35.5100   35.5100   35.5100 5376.0000  121.8690    0.2060    0.1783    3.4380    2.4930    0.1783 
5376.5000   35.5330   35.5330   35.5330   35.5330   35.5330 5376.5000  124.0710    0.1990    0.1721    3.5660    2.5090    0.1721 
5377.0000   35.1190   35.1190   35.1190   35.1190   35.1190 5377.0000  130.1450    0.2030    0.1632    3.5720    2.5110    0.1632 
5377.5000   35.3370   35.3370   35.3370   35.3370   35.3370 5377.5000  134.9930    0.2120    0.1566    3.4950    2.5190    0.1566 
5378.0000   37.9680   37.9680   37.9680   37.9680   37.9680 5378.0000  132.8490    0.2050    0.1533    3.4540    2.5350    0.1533 
5378.5000   42.6770   42.6770   42.6770   42.6770   42.6770 5378.5000  124.3610    0.1800    0.1483    3.5300    2.5700    0.1483 
5379.0000   47.2270   47.2270   47.2270   47.2270   47.2270 5379.0000  117.6370    0.1490    0.1397    3.6650    2.5990    0.1397 
5379.5000   48.1310   48.1310   48.1310   48.1310   48.1310 5379.5000  118.8900    0.1350    0.1363    3.7610    2.6150    0.1363 
5380.0000   44.8060   44.8060   44.8060   44.8060   44.8060 5380.0000  127.2610    0.1500    0.1453    3.7620    2.6140    0.1453 
5380.5000   40.2300   40.2300   40.2300   40.2300   40.2300 5380.5000  131.7460    0.1880    0.1615    3.7210    2.6010    0.1615 
5381.0000   36.7340   36.7340   36.7340   36.7340   36.7340 5381.0000  130.1600    0.2270    0.1738    3.6550    2.5900    0.1738 
5381.5000   35.5670   35.5670   35.5670   35.5670   35.5670 5381.5000  126.8230    0.2440    0.1758    3.5710    2.5880    0.1758 
5382.0000   36.4030   36.4030   36.4030   36.4030   36.4030 5382.0000  124.0220    0.2280    0.1693    3.4660    2.5920    0.1693 
5382.5000   38.5590   38.5590   38.5590   38.5590   38.5590 5382.5000  120.8700    0.1860    0.1570    3.3940    2.6030    0.1570 
5383.0000   41.6020   41.6020   41.6020   41.6020   41.6020 5383.0000  115.3730    0.1380    0.1426    3.4320    2.6240    0.1426 
5383.5000   44.3360   44.3360   44.3360   44.3360   44.3360 5383.5000  112.8770    0.0970    0.1328    3.5370    2.6440    0.1328 
5384.0000   45.6990   45.6990   45.6990   45.6990   45.6990 5384.0000  113.8820    0.0770    0.1318    3.6320    2.6650    0.1318 
5384.5000   45.5420   45.5420   45.5420   45.5420   45.5420 5384.5000  118.0920    0.0730    0.1370    3.6460    2.6740    0.1370 
5385.0000   44.7820   44.7820   44.7820   44.7820   44.7820 5385.0000  120.8840    0.0790    0.1423    3.6190    2.6710    0.1423 
5385.5000   44.2960   44.2960   44.2960   44.2960   44.2960 5385.5000  120.6900    0.0900    0.1424    3.6340    2.6560    0.1424 
5386.0000   44.0940   44.0940   44.0940   44.0940   44.0940 5386.0000  120.8470    0.1070    0.1376    3.7060    2.6290    0.1376 
5386.5000   43.5310   43.5310   43.5310   43.5310   43.5310 5386.5000  122.9640    0.1280    0.1330    3.7470    2.6000    0.1330 
5387.0000   41.6240   41.6240   41.6240   41.6240   41.6240 5387.0000  129.7250    0.1550    0.1356    3.6860    2.5800    0.1356 
5387.5000   39.4500   39.4500   39.4500   39.4500   39.4500 5387.5000  134.4480    0.1800    0.1465    3.5860    2.5650    0.1465 
5388.0000   37.5800   37.5800   37.5800   37.5800   37.5800 5388.0000  133.7330    0.2000    0.1585    3.5470    2.5640    0.1585 
5388.5000   36.9100   36.9100   36.9100   36.9100   36.9100 5388.5000  129.5180    0.2050    0.1630    3.5470    2.5720    0.1630 
5389.0000   37.7380   37.7380   37.7380   37.7380   37.7380 5389.0000  124.4650    0.1890    0.1593    3.5160    2.5880    0.1593 
5389.5000   39.6610   39.6610   39.6610   39.6610   39.6610 5389.5000  122.0330    0.1600    0.1533    3.5290    2.6110    0.1533 
5390.0000   42.7630   42.7630   42.7630   42.7630   42.7630 5390.0000  118.8160    0.1240    0.1469    3.6170    2.6370    0.1469 
5390.5000   46.0290   46.0290   46.0290   46.0290   46.0290 5390.5000  114.5380    0.0880    0.1385    3.7350    2.6600    0.1385 
5391.0000   48.2170   48.2170   48.2170   48.2170   48.2170 5391.0000  110.9870    0.0620    0.1289    3.7850    2.6750    0.1289 
5391.5000   48.3670   48.3670   48.3670   48.3670   48.3670 5391.5000  109.5080    0.0580    0.1227    3.7500    2.6780    0.1227 
5392.0000   46.6580   46.6580   46.6580   46.6580   46.6580 5392.0000  111.8870    0.0750    0.1217    3.6940    2.6710    0.1217 
5392.5000   43.9990   43.9990   43.9990   43.9990   43.9990 5392.5000  116.7670    0.1070    0.1249    3.6450    2.6600    0.1249 
5393.0000   41.3020   41.3020   41.3020   41.3020   41.3020 5393.0000  122.3450    0.1420    0.1304    3.6210    2.6520    0.1304 
5393.5000   39.4850   39.4850   39.4850   39.4850   39.4850 5393.5000  126.3350    0.1630    0.1379    3.5920    2.6480    0.1379 
