~Version ---------------------------------------------------
VERS.   2.0 : CWLS log ASCII Standard -VERSION 2.0
WRAP.    NO : One line per depth step
DLM . SPACE : Column Data Section Delimiter
~Well ------------------------------------------------------
STRT  .m                                 0.0 : START DEPTH
STOP  .m                   11221024.30872697 : STOP DEPTH
STEP  .m                           623.56345 : STEP
NULL  .                                 -999 : NULL VALUE
COMP  .      Range Resources Appalachia, LLC : COMPANY
WELL  .                            SNRG-0001 : WELL
FLD   .                                      : FIELD
LOC   . 750'SL & 1060'EL OF NW QTR., SEC. 30 : LOCATION
PROV  .                                      : PROVINCE
CNTY  .                              Carroll : COUNTY
STAT  .                                      : STATE
CTRY  .                                      : COUNTRY
SRVC  .                                      : SERVICE COMPANY
DATE  .           2021-07-11 01:47:10.230360 : DATE
UWI   .                            SNRG-0001 : UNIQUE WELL ID
API   .                            SNRG-0001 : API NUMBER
LIC   .                                      : 
LATI  .                     40.6472950002882 : 
LONG  .                    -81.2941990004645 : 
NS    .                                      : 
EW    .                                      : 
XCOORD.                                      : 
YCOORD.                                      : 
GDAT  .                          (Undefined) : 
SECT  .                                      : 
RANG  .                                      : 
TOWN  .                                      : 
~Curve Information -----------------------------------------
DEPT.m     : 
AO10.OHMM  : ShalRes     Shallow Laterolog
AO20.OHMM  : ShalRes     Shallow Laterolog
AORX.OHMM  : ShalRes     Shallow Laterolog
AT10.OHMM  : ShalRes     Shallow Laterolog
AT20.OHMM  : ShalRes     Shallow Laterolog
GR  .GAPI  : GammaRay    Gamma Ray
HDRA.G/C3  : Drho        Density Correction
NPHI.dec   : Neutron
PEFZ.B/E   : PEF         PE
RHOZ.G/C3  : Density     Compensated Density
TNPH.dec   : Neutron
~Params ----------------------------------------------------
EKB.      : 
EGL.      : 
KB .      : 
GL .      : 
TD .      : 
TDD.      : 
TDL.      : 
~Other -----------------------------------------------------
~ASCII -----------------------------------------------------
# ...
 6639080.06752   45.98428   45.98428   45.98428   45.98428   45.98428  129.46859    0.13084    0.14630    3.69725    2.66405    0.14630
 6639703.63097   46.31412   46.31412   46.31412   46.31412   46.31412  127.00426    0.11573    0.14627    3.72162    2.67005    0.14627
 6640327.19442   48.25939   48.25939   48.25939   48.25939   48.25939  122.61239    0.08974    0.14307    3.78125    2.67610    0.14307
 6640950.75787   51.28141   51.28141   51.28141   51.28141   51.28141  119.22717    0.06480    0.13966    3.80469    2.68605    0.13966
 6641574.32133   54.40059   54.40059   54.40059   54.40059   54.40059  120.08311    0.04594    0.13475    3.77468    2.69102    0.13475
 6642197.88478   57.62271   57.62271   57.62271   57.62271   57.62271  118.03683    0.03897    0.12926    3.74422    2.69301    0.12926
 6642821.44823   59.88977   59.88977   59.88977   59.88977   59.88977  112.16431    0.03599    0.12439    3.76523    2.69400    0.12439
 6643445.01168   60.71681   60.71681   60.71681   60.71681   60.71681  107.40501    0.03499    0.12352    3.78712    2.69401    0.12352
 6644068.57513   59.82951   59.82951   59.82951   59.82951   59.82951  104.72660    0.03400    0.12571    3.79979    2.69501    0.12571
 6644692.13858   58.63695   58.63695   58.63695   58.63695   58.63695  103.35051    0.03398    0.12680    3.87628    2.69600    0.12680
 6645315.70203   58.35267   58.35267   58.35267   58.35267   58.35267  102.94357    0.03198    0.12649    3.99914    2.69599    0.12649
 6645939.26549   58.99401   58.99401   58.99401   58.99401   58.99401  105.12772    0.02999    0.12509    4.10740    2.69500    0.12509
 6646562.82894   59.66447   59.66447   59.66447   59.66447   59.66447  108.74428    0.02902    0.12358    4.14589    2.69498    0.12358
 6647186.39239   59.89629   59.89629   59.89629   59.89629   59.89629  111.33832    0.03105    0.12178    4.13488    2.69301    0.12178
 6647809.95584   59.43666   59.43666   59.43666   59.43666   59.43666  110.99740    0.03705    0.11981    4.12215    2.69395    0.11981
 6648433.51929   58.34019   58.34019   58.34019   58.34019   58.34019  112.01982    0.04306    0.12054    4.04083    2.68796    0.12054
 6649057.08274   56.53046   56.53046   56.53046   56.53046   56.53046  115.54364    0.05006    0.12515    3.92826    2.68397    0.12515
 6649680.64619   54.46572   54.46572   54.46572   54.46572   54.46572  117.48892    0.05705    0.13072    3.85669    2.68103    0.13072
 6650304.20965   52.81130   52.81130   52.81130   52.81130   52.81130  115.35105    0.06203    0.13270    3.82790    2.68405    0.13270
 6650927.77310   51.78884   51.78884   51.78884   51.78884   51.78884  111.44652    0.06503    0.13231    3.81732    2.69007    0.13231
 6651551.33655   51.29359   51.29359   51.29359   51.29359   51.29359  110.66676    0.06804    0.13374    3.75169    2.69799    0.13374
 6652174.90000   50.96071   50.96071   50.96071   50.96071   50.96071  113.76027    0.07207    0.13766    3.72331    2.69695    0.13766
 6652798.46345   50.15801   50.15801   50.15801   50.15801   50.15801  121.45921    0.08006    0.14426    3.75181    2.69188    0.14426
 6653422.02690   48.62064   48.62064   48.62064   48.62064   48.62064  127.96015    0.08705    0.15085    3.73379    2.67994    0.15085
 6654045.59035   46.86055   46.86055   46.86055   46.86055   46.86055  129.09511    0.09201    0.15582    3.71403    2.67300    0.15582
 6654669.15381   45.48423   45.48423   45.48423   45.48423   45.48423  126.78986    0.09295    0.15788    3.71711    2.67305    0.15788
 6655292.71726   45.32416   45.32416   45.32416   45.32416   45.32416  123.25382    0.08695    0.15524    3.72856    2.67907    0.15524
 6655916.28071   46.20408   46.20408   46.20408   46.20408   46.20408  122.97470    0.08100    0.14854    3.78308    2.68706    0.14854
 6656539.84416   47.06731   47.06731   47.06731   47.06731   47.06731  125.44194    0.08110    0.14157    3.88604    2.69397    0.14157
 6657163.40761   47.08360   47.08360   47.08360   47.08360   47.08360  127.80165    0.09121    0.13800    3.98571    2.69095    0.13800
 6657786.97106   45.69754   45.69754   45.69754   45.69754   45.69754  126.48765    0.11112    0.13845    4.05306    2.68486    0.13845
 6658410.53451   43.83812   43.83812   43.83812   43.83812   43.83812  121.56599    0.12302    0.14355    3.96149    2.67094    0.14355
 6659034.09797   42.90684   42.90684   42.90684   42.90684   42.90684  117.34311    0.12487    0.14932    3.81766    2.66401    0.14932
 6659657.66142   43.76710   43.76710   43.76710   43.76710   43.76710  113.04144    0.11174    0.15097    3.78522    2.66506    0.15097
 6660281.22487   45.98655   45.98655   45.98655   45.98655   45.98655  109.26200    0.08672    0.14804    3.80682    2.67210    0.14804
 6660904.78832   48.63256   48.63256   48.63256   48.63256   48.63256  107.09196    0.05980    0.14195    3.88606    2.68205    0.14195
 6661528.35177   51.57435   51.57435   51.57435   51.57435   51.57435  108.84049    0.04093    0.13677    3.89211    2.68698    0.13677
 6662151.91522   55.54051   55.54051   55.54051   55.54051   55.54051  113.36640    0.03302    0.13326    3.80722    2.68496    0.13326
 6662775.47867   59.50123   59.50123   59.50123   59.50123   59.50123  114.91253    0.03506    0.12835    3.73240    2.68095    0.12835
 6663399.04213   61.20851   61.20851   61.20851   61.20851   61.20851  113.61701    0.04105    0.12258    3.67506    2.67600    0.12258
 6664022.60558   58.54734   58.54734   58.54734   58.54734   58.54734  111.92789    0.04603    0.12014    3.68233    2.67601    0.12014
 6664646.16903   53.21366   53.21366   53.21366   53.21366   53.21366  114.23504    0.04906    0.12447    3.71410    2.67704    0.12447
 6665269.73248   48.11989   48.11989   48.11989   48.11989   48.11989  118.26281    0.05518    0.13226    3.72421    2.68098    0.13226
 6665893.29593   45.15077   45.15077   45.15077   45.15077   45.15077  122.08606    0.07132    0.13885    3.74446    2.67893    0.13885
 6666516.85938   43.50340   43.50340   43.50340   43.50340   43.50340  126.82249    0.10243    0.14413    3.78937    2.67089    0.14413
 6667140.42283   42.29741   42.29741   42.29741   42.29741   42.29741  135.38531    0.14436    0.14791    3.82478    2.65984    0.14791
 6667763.98629   41.38514   41.38514   41.38514   41.38514   41.38514  162.95789    0.17911    0.14869    3.80311    2.64483    0.14869
 6668387.54974   41.21422   41.21422   41.21422   41.21422   41.21422  194.44214    0.18988    0.14759    3.71870    2.62896    0.14759
 6669011.11319   41.81191   41.81191   41.81191   41.81191   41.81191  202.04947    0.17766    0.14620    3.69130    2.62500    0.14620
 6669634.67664   42.56431   42.56431   42.56431   42.56431   42.56431  181.46095    0.14464    0.14621    3.71933    2.62505    0.14621
 6670258.24009   42.77814   42.77814   42.77814   42.77814   42.77814  147.40105    0.10976    0.14740    3.75105    2.63006    0.14740
 6670881.80354   42.31067   42.31067   42.31067   42.31067   42.31067  128.78707    0.08692    0.14710    3.75544    2.63597    0.14710
 6671505.36699   41.70790   41.70790   41.70790   41.70790   41.70790  126.88697    0.07801    0.14731    3.70206    2.63294    0.14731
 6672128.93045   41.41462   41.41462   41.41462   41.41462   41.41462  125.80437    0.07904    0.14850    3.61214    2.62696    0.14850
 6672752.49390   41.67260   41.67260   41.67260   41.67260   41.67260  121.90694    0.08302    0.14838    3.53084    2.62300    0.14838
 6673376.05735   42.69419   42.69419   42.69419   42.69419   42.69419  117.19254    0.08502    0.14645    3.51649    2.62312    0.14645
 6673999.62080   44.53324   44.53324   44.53324   44.53324   44.53324  110.87983    0.08697    0.14124    3.56353    2.63516    0.14124
 6674623.18425   46.56054   46.56054   46.56054   46.56054   46.56054  109.95775    0.08396    0.13497    3.61322    2.65011    0.13497
 6675246.74770   47.84214   47.84214   47.84214   47.84214   47.84214  114.41523    0.08003    0.13223    3.63457    2.66105    0.13223
