~VERSION INFORMATION
 VERS.                 2.0:   CWLS LOG ASCII STANDARD - VERSION 2.0
 WRAP.                  NO:   SINGLE LINE PER DEPTH STEP
 CREA.                 5/13/2021 1:24:19 AM
#CREATED USING DSPetro VERSION 10ep.4.05.01 BY H227404 ON 5/13/2021 1:24:19 AM
~WELL INFORMATION
#MNEM.UNIT       DATA                          DESCRIPTION MNEMONIC
#---------      ---------------------------   --------------------------
 STRT    .FT        0.0000                    : START DEPTH
 STOP    .FT        9000.0000                 : STOP DEPTH
 STEP    .FT        0.5000                    : STEP VALUE
 NULL    .      -999.0000                     : NULL VALUE
 DATE    .      5/13/2021                     : LAS file Creation Date
 WELL   .      SNRG-0001                          : Well Name
 COMP   .      Range Resources Appalachia, LLC      : Company
 FLD    .                                           : Field
 STATE  .      OH                                   : State
 COUNT  .      USA                                  : Country
 API    .      SNRG-0001                       : API Number
 UWI    .      SNRG-0001                       : Unique Well Identifier (UWI)
 LOC    .      750'SL & 1060'EL OF NW QTR., SEC. 30 : Location
 EPDAT  .      964                                  : Elevation of Permanent Datum
 GL     .      954.000                              : GL Elevation
 RWS    .      0                                    : Def_Rw
 WST    .      0                                    : Def_Rwt
 CNTY   .      Carroll                              : County
 PROV   .                                           : Province
 MDEC   .      0                                    : Magnetic Declination
 SRVC   .      WE                                   : Contractor
 GDAT   .      (Undefined)                          : Geodatum
 LONG   .      -81.2941990004645                    : Longitude
 LATI   .      40.6472950002882                     : Latitude
 COORDIN.                                           : Grid System
 XCOORD .                                           : X or East-West Coordinate
 YCOORD .                                           : Y or North-South Coordinate
~CURVE INFORMATION
#MNEM              UNIT       API CODE   Curve Type Comments
#----------  --------------- ----------  ---------- -----------
 DEPTH      .FT                        : Depth       
 AO10       .OHMM                      : ShalRes     Shallow Laterolog
 AO20       .OHMM                      : ShalRes     Shallow Laterolog
 AORX       .OHMM                      : ShalRes     Shallow Laterolog
 AT10       .OHMM                      : ShalRes     Shallow Laterolog
 AT20       .OHMM                      : ShalRes     Shallow Laterolog
 DEPTH      .FT                        : Depth       
 GR         .GAPI                      : GammaRay    Gamma Ray
 HDRA       .G/C3                      : Drho        Density Correction
 NPHI       .dec                       : Neutron     
 PEFZ       .B/E                       : PEF         PE
 RHOZ       .G/C3                      : Density     Compensated Density
 TNPH       .dec                       : Neutron     
~A  DEPTH    AO10      AO20      AORX      AT10      AT20     DEPTH       GR       HDRA      NPHI      PEFZ      RHOZ      TNPH   
# ...
6718.5000  409.7780  409.7780  409.7780  409.7780  409.7780 6718.5000   32.2570    0.1010    0.0310    4.3590    2.6650    0.0310 
6719.0000  444.4450  444.4450  444.4450  444.4450  444.4450 6719.0000   30.4500    0.0950    0.0254    4.5570    2.6730    0.0254 
6719.5000  474.8230  474.8230  474.8230  474.8230  474.8230 6719.5000   30.5590    0.0910    0.0229    4.5800    2.6730    0.0229 
6720.0000  478.7560  478.7560  478.7560  478.7560  478.7560 6720.0000   33.3520    0.0940    0.0250    4.3950    2.6740    0.0250 
6720.5000  461.2240  461.2240  461.2240  461.2240  461.2240 6720.5000   33.2270    0.1000    0.0286    4.2830    2.6720    0.0286 
6721.0000  456.3920  456.3920  456.3920  456.3920  456.3920 6721.0000   29.6210    0.1010    0.0305    4.2870    2.6670    0.0305 
6721.5000  459.4680  459.4680  459.4680  459.4680  459.4680 6721.5000   27.7350    0.0970    0.0305    4.3270    2.6620    0.0305 
6722.0000  460.6200  460.6200  460.6200  460.6200  460.6200 6722.0000   31.1720    0.0860    0.0320    4.2350    2.6570    0.0320 
6722.5000  424.9020  424.9020  424.9020  424.9020  424.9020 6722.5000   35.9590    0.0720    0.0371    4.0470    2.6540    0.0371 
6723.0000  373.4170  373.4170  373.4170  373.4170  373.4170 6723.0000   38.6840    0.0570    0.0440    3.9530    2.6540    0.0440 
6723.5000  338.0230  338.0230  338.0230  338.0230  338.0230 6723.5000   38.0220    0.0440    0.0483    3.9510    2.6550    0.0483 
6724.0000  320.4890  320.4890  320.4890  320.4890  320.4890 6724.0000   35.9140    0.0380    0.0488    3.9940    2.6590    0.0488 
6724.5000  307.0030  307.0030  307.0030  307.0030  307.0030 6724.5000   34.4710    0.0370    0.0486    4.0020    2.6610    0.0486 
6725.0000  289.9100  289.9100  289.9100  289.9100  289.9100 6725.0000   32.9470    0.0370    0.0504    3.9470    2.6610    0.0504 
6725.5000  281.1770  281.1770  281.1770  281.1770  281.1770 6725.5000   32.5950    0.0370    0.0535    3.8820    2.6570    0.0535 
6726.0000  279.7980  279.7980  279.7980  279.7980  279.7980 6726.0000   33.3260    0.0370    0.0556    3.8360    2.6530    0.0556 
6726.5000  287.8170  287.8170  287.8170  287.8170  287.8170 6726.5000   34.8460    0.0380    0.0554    3.8660    2.6510    0.0554 
6727.0000  291.0760  291.0760  291.0760  291.0760  291.0760 6727.0000   37.6750    0.0400    0.0536    4.0010    2.6510    0.0536 
6727.5000  280.3030  280.3030  280.3030  280.3030  280.3030 6727.5000   39.9370    0.0480    0.0521    4.1950    2.6510    0.0521 
6728.0000  260.3940  260.3940  260.3940  260.3940  260.3940 6728.0000   40.0090    0.0630    0.0519    4.4020    2.6500    0.0519 
6728.5000  235.3230  235.3230  235.3230  235.3230  235.3230 6728.5000   40.3290    0.0870    0.0535    4.4880    2.6370    0.0535 
6729.0000  190.4540  190.4540  190.4540  190.4540  190.4540 6729.0000   44.8710    0.1100    0.0563    4.3350    2.6190    0.0563 
6729.5000  147.0730  147.0730  147.0730  147.0730  147.0730 6729.5000   53.3420    0.1240    0.0616    4.0680    2.5950    0.0616 
6730.0000  113.1650  113.1650  113.1650  113.1650  113.1650 6730.0000   60.3040    0.1280    0.0699    3.8960    2.5790    0.0699 
6730.5000  101.1390  101.1390  101.1390  101.1390  101.1390 6730.5000   59.5880    0.1200    0.0762    3.8960    2.5740    0.0762 
6731.0000  112.1290  112.1290  112.1290  112.1290  112.1290 6731.0000   52.0630    0.1100    0.0759    3.9860    2.5830    0.0759 
6731.5000  151.7590  151.7590  151.7590  151.7590  151.7590 6731.5000   42.9730    0.1020    0.0683    3.9980    2.6050    0.0683 
6732.0000  246.7500  246.7500  246.7500  246.7500  246.7500 6732.0000   37.0930    0.0960    0.0575    4.0260    2.6290    0.0575 
6732.5000  435.7100  435.7100  435.7100  435.7100  435.7100 6732.5000   34.7520    0.0900    0.0485    4.2380    2.6510    0.0485 
6733.0000  723.2600  723.2600  723.2600  723.2600  723.2600 6733.0000   33.2390    0.0820    0.0399    4.4600    2.6640    0.0399 
6733.5000 1010.3970 1010.3970 1010.3970 1010.3970 1010.3970 6733.5000   30.4690    0.0720    0.0306    4.5860    2.6690    0.0306 
6734.0000 1219.0640 1219.0640 1219.0640 1219.0640 1219.0640 6734.0000   26.8160    0.0680    0.0226    4.5950    2.6710    0.0226 
6734.5000 1402.4800 1402.4800 1402.4800 1402.4800 1402.4800 6734.5000   24.8280    0.0700    0.0174    4.5280    2.6710    0.0174 
6735.0000 1434.6180 1434.6180 1434.6180 1434.6180 1434.6180 6735.0000   23.3680    0.0750    0.0167    4.4810    2.6720    0.0167 
6735.5000 1353.7570 1353.7570 1353.7570 1353.7570 1353.7570 6735.5000   22.1370    0.0790    0.0189    4.4260    2.6710    0.0189 
6736.0000  991.1370  991.1370  991.1370  991.1370  991.1370 6736.0000   21.9530    0.0760    0.0221    4.3420    2.6630    0.0221 
6736.5000  624.5280  624.5280  624.5280  624.5280  624.5280 6736.5000   23.3150    0.0740    0.0259    4.3480    2.6500    0.0259 
6737.0000  377.8890  377.8890  377.8890  377.8890  377.8890 6737.0000   29.2020    0.0760    0.0316    4.3720    2.6300    0.0316 
6737.5000  236.5440  236.5440  236.5440  236.5440  236.5440 6737.5000   37.7980    0.0840    0.0403    4.2970    2.6100    0.0403 
6738.0000  189.8250  189.8250  189.8250  189.8250  189.8250 6738.0000   46.0560    0.0920    0.0525    4.0800    2.5960    0.0525 
6738.5000  185.5820  185.5820  185.5820  185.5820  185.5820 6738.5000   49.3560    0.0940    0.0655    3.8340    2.5930    0.0655 
6739.0000  244.2180  244.2180  244.2180  244.2180  244.2180 6739.0000   45.0640    0.0860    0.0722    3.7750    2.6050    0.0722 
6739.5000  386.6350  386.6350  386.6350  386.6350  386.6350 6739.5000   38.3720    0.0720    0.0688    3.8970    2.6230    0.0688 
6740.0000  914.8130  914.8130  914.8130  914.8130  914.8130 6740.0000   31.7240    0.0570    0.0555    4.0970    2.6430    0.0555 
6740.5000 2106.0969 2106.0969 2106.0969 2106.0969 2106.0969 6740.5000   28.4770    0.0460    0.0415    4.2420    2.6540    0.0415 
6741.0000 3697.0439 3697.0439 3697.0439 3697.0439 3697.0439 6741.0000   29.2660    0.0430    0.0340    4.3070    2.6560    0.0340 
6741.5000 4229.6538 4229.6538 4229.6538 4229.6538 4229.6538 6741.5000   29.9340    0.0460    0.0322    4.3270    2.6510    0.0322 
6742.0000 3413.6169 3413.6169 3413.6169 3413.6169 3413.6169 6742.0000   28.9210    0.0520    0.0319    4.3620    2.6460    0.0319 
6742.5000 2879.2781 2879.2781 2879.2781 2879.2781 2879.2781 6742.5000   26.5860    0.0570    0.0299    4.3740    2.6410    0.0299 
6743.0000 2633.0291 2633.0291 2633.0291 2633.0291 2633.0291 6743.0000   25.1910    0.0590    0.0279    4.3460    2.6380    0.0279 
6743.5000 2083.0000 2083.0000 2083.0000 2083.0000 2083.0000 6743.5000   26.3660    0.0540    0.0274    4.2380    2.6340    0.0274 
6744.0000 1291.5410 1291.5410 1291.5410 1291.5410 1291.5410 6744.0000   29.2610    0.0460    0.0300    4.1330    2.6280    0.0300 
6744.5000  642.5970  642.5970  642.5970  642.5970  642.5970 6744.5000   35.1580    0.0440    0.0368    4.1150    2.6230    0.0368 
6745.0000  275.7830  275.7830  275.7830  275.7830  275.7830 6745.0000   47.1890    0.0500    0.0499    4.0420    2.5980    0.0499 
6745.5000  115.7550  115.7550  115.7550  115.7550  115.7550 6745.5000   63.2050    0.0630    0.0724    3.8110    2.5490    0.0724 
6746.0000   55.0910   55.0910   55.0910   55.0910   55.0910 6746.0000   73.9370    0.0730    0.1010    3.4300    2.4880    0.1010 
6746.5000   35.8600   35.8600   35.8600   35.8600   35.8600 6746.5000   68.0820    0.0760    0.1259    3.2490    2.4400    0.1259 
6747.0000   32.9670   32.9670   32.9670   32.9670   32.9670 6747.0000   48.8830    0.0710    0.1309    3.4310    2.4280    0.1309 
6747.5000   52.7960   52.7960   52.7960   52.7960   52.7960 6747.5000   28.9550    0.0620    0.1077    3.8490    2.4630    0.1077 
6748.0000  205.4720  205.4720  205.4720  205.4720  205.4720 6748.0000   18.2330    0.0560    0.0714    4.2740    2.5250    0.0714 
6748.5000 2931.2800 2931.2800 2931.2800 2931.2800 2931.2800 6748.5000   16.9920    0.0580    0.0407    4.4630    2.5930    0.0407 
6749.0000 19148.2109 19148.2109 19148.2109 19148.2109 19148.2109 6749.0000   17.6580    0.0660    0.0270    4.5350    2.6420    0.0270 
