~VERSION INFORMATION
 VERS.                 2.0:   CWLS LOG ASCII STANDARD - VERSION 2.0
 WRAP.                  NO:   SINGLE LINE PER DEPTH STEP
 CREA.                 5/13/2021 1:24:20 AM
#CREATED USING DSPetro VERSION 10ep.4.05.01 BY H227404 ON 5/13/2021 1:24:20 AM
~WELL INFORMATION
#MNEM.UNIT       DATA                          DESCRIPTION MNEMONIC
#---------      ---------------------------   --------------------------
 STRT    .FT        1000.0000                 : START DEPTH
 STOP    .FT        10000.0000                : STOP DEPTH
 STEP    .FT        0.5000                    : STEP VALUE
 NULL    .      -999.0000                     : NULL VALUE
 DATE    .      5/13/2021                     : LAS file Creation Date
 WELL   .      SNRG-0003                             : Well Name
 COMP   .      COLUMBIA NATURAL RESOURCES INC.        : Company
 FLD    .                                             : Field
 STATE  .      OH                                     : State
 COUNT  .      USA                                    : Country
 API    .      SNRG-0003                         : API Number
 UWI    .      SNRG-0003                         : Unique Well Identifier (UWI)
 LOC    .      200'NL & 500'WL OF  SE QTR. SECTION 28 : Location
 EPDAT  .      1135                                   : Elevation of Permanent Datum
 GL     .      1135                                   : GL Elevation
 RWS    .      0                                      : Def_Rw
 WST    .      0                                      : Def_Rwt
 CNTY   .      COLUMBIANA                             : County
 PROV   .                                             : Province
 MDEC   .      0                                      : Magnetic Declination
 SRVC   .      SCH                                    : Contractor
 GDAT   .      (Undefined)                            : Geodatum
 LONG   .      -80.8118599997626                      : Longitude
 LATI   .      40.6594309997559                       : Latitude
 COORDIN.                                             : Grid System
 XCOORD .                                             : X or East-West Coordinate
 YCOORD .                                             : Y or North-South Coordinate
~CURVE INFORMATION
#MNEM              UNIT       API CODE   Curve Type Comments
#----------  --------------- ----------  ---------- -----------
 DEPTH      .FT                        : Depth       
 AO10       .%                         : ShalRes     SNP
 AO20       .%                         : ShalRes     SNP
 AO30       .OHMM                      : MedRes      ILM
 AO60       .OHMM                      : MedRes      ILM
 AORX       .%                         : ShalRes     SNP
 AT10       .%                         : ShalRes     SNP
 AT20       .%                         : ShalRes     SNP
 AT30       .OHMM                      : MedRes      ILM
 AT60       .OHMM                      : MedRes      ILM
 DEPTH      .FT                        : Depth       
 GR         .GAPI                      : GammaRay    GR
 NPHI       .dec                       : Neutron     
 PEFZ       .B/E                       : PEF         PEF
 RHOZ       .G/CC                      : Density     RHOB
 TNPH       .dec                       : Neutron     
~A  DEPTH    AO10      AO20      AO30      AO60      AORX      AT10      AT20      AT30      AT60     DEPTH       GR       NPHI      PEFZ      RHOZ      TNPH   
# ...
9225.0000    0.5493    0.5493  557.2500  557.2500    0.5493    0.5493    0.5493  557.2500  557.2500 9225.0000   12.9180    0.0055    3.2163    2.9058    0.0055 
9225.5000    0.5981    0.5981  775.0000  775.0000    0.5981    0.5981    0.5981  775.0000  775.0000 9225.5000   11.8223    0.0060    3.3067    2.9268    0.0060 
9226.0000    0.7324    0.7324  916.5625  916.5625    0.7324    0.7324    0.7324  916.5625  916.5625 9226.0000   11.1191    0.0073    3.3330    2.9352    0.0073 
9226.5000    0.8423    0.8423  905.7500  905.7500    0.8423    0.8423    0.8423  905.7500  905.7500 9226.5000   11.3926    0.0084    3.3036    2.9481    0.0084 
9227.0000    0.8301    0.8301  832.0000  832.0000    0.8301    0.8301    0.8301  832.0000  832.0000 9227.0000   12.0586    0.0083    3.2716    2.9428    0.0083 
9227.5000    0.6592    0.6592  723.7500  723.7500    0.6592    0.6592    0.6592  723.7500  723.7500 9227.5000   12.2715    0.0066    3.2736    2.9100    0.0066 
9228.0000    0.4883    0.4883  616.1250  616.1250    0.4883    0.4883    0.4883  616.1250  616.1250 9228.0000   12.1465    0.0049    3.3254    2.8816    0.0049 
9228.5000    0.4761    0.4761  531.1250  531.1250    0.4761    0.4761    0.4761  531.1250  531.1250 9228.5000   12.2676    0.0048    3.4241    2.8648    0.0048 
9229.0000    0.5493    0.5493  440.1250  440.1250    0.5493    0.5493    0.5493  440.1250  440.1250 9229.0000   12.1328    0.0055    3.5444    2.8669    0.0055 
9229.5000    0.6348    0.6348  367.4375  367.4375    0.6348    0.6348    0.6348  367.4375  367.4375 9229.5000   11.0332    0.0063    3.6232    2.8815    0.0063 
9230.0000    0.7202    0.7202  328.8125  328.8125    0.7202    0.7202    0.7202  328.8125  328.8125 9230.0000   10.1172    0.0072    3.6086    2.8869    0.0072 
9230.5000    0.7690    0.7690  308.4375  308.4375    0.7690    0.7690    0.7690  308.4375  308.4375 9230.5000   10.3457    0.0077    3.5334    2.8785    0.0077 
9231.0000    0.7446    0.7446  298.5703  298.5703    0.7446    0.7446    0.7446  298.5703  298.5703 9231.0000   10.9063    0.0074    3.4564    2.8524    0.0074 
9231.5000    0.5981    0.5981  299.9219  299.9219    0.5981    0.5981    0.5981  299.9219  299.9219 9231.5000   10.5957    0.0060    3.3827    2.8381    0.0060 
9232.0000    0.3784    0.3784  320.2500  320.2500    0.3784    0.3784    0.3784  320.2500  320.2500 9232.0000    9.3418    0.0038    3.3111    2.8505    0.0038 
9232.5000    0.2441    0.2441  341.5469  341.5469    0.2441    0.2441    0.2441  341.5469  341.5469 9232.5000    7.9570    0.0024    3.2789    2.8613    0.0024 
9233.0000    0.2564    0.2564  338.6250  338.6250    0.2564    0.2564    0.2564  338.6250  338.6250 9233.0000    6.9961    0.0026    3.2755    2.8517    0.0026 
9233.5000    0.3296    0.3296  333.8672  333.8672    0.3296    0.3296    0.3296  333.8672  333.8672 9233.5000    6.6553    0.0033    3.2097    2.8394    0.0033 
9234.0000    0.4028    0.4028  357.6875  357.6875    0.4028    0.4028    0.4028  357.6875  357.6875 9234.0000    7.0195    0.0040    3.0537    2.8305    0.0040 
9234.5000    0.4883    0.4883  399.4375  399.4375    0.4883    0.4883    0.4883  399.4375  399.4375 9234.5000    8.0459    0.0049    2.9036    2.7999    0.0049 
9235.0000    0.5859    0.5859  428.5000  428.5000    0.5859    0.5859    0.5859  428.5000  428.5000 9235.0000    9.5430    0.0059    2.8444    2.7579    0.0059 
9235.5000    0.5981    0.5981  445.7813  445.7813    0.5981    0.5981    0.5981  445.7813  445.7813 9235.5000   10.7148    0.0060    2.8809    2.7303    0.0060 
9236.0000    0.4883    0.4883  490.5000  490.5000    0.4883    0.4883    0.4883  490.5000  490.5000 9236.0000   10.8398    0.0049    2.9873    2.7038    0.0049 
9236.5000    0.3784    0.3784  550.5000  550.5000    0.3784    0.3784    0.3784  550.5000  550.5000 9236.5000   10.5762    0.0038    3.1147    2.6475    0.0038 
9237.0000    0.3784    0.3784  607.4375  607.4375    0.3784    0.3784    0.3784  607.4375  607.4375 9237.0000   10.2012    0.0038    3.2295    2.5956    0.0038 
9237.5000    0.4272    0.4272  707.0000  707.0000    0.4272    0.4272    0.4272  707.0000  707.0000 9237.5000    9.0625    0.0043    3.3486    2.6094    0.0043 
9238.0000    0.4394    0.4394  811.3750  811.3750    0.4394    0.4394    0.4394  811.3750  811.3750 9238.0000    7.4492    0.0044    3.4530    2.6639    0.0044 
9238.5000    0.4639    0.4639  831.6875  831.6875    0.4639    0.4639    0.4639  831.6875  831.6875 9238.5000    6.8408    0.0046    3.5099    2.7144    0.0046 
9239.0000    0.5127    0.5127  816.5313  816.5313    0.5127    0.5127    0.5127  816.5313  816.5313 9239.0000    8.2988    0.0051    3.5283    2.7677    0.0051 
9239.5000    0.5493    0.5493  833.4375  833.4375    0.5493    0.5493    0.5493  833.4375  833.4375 9239.5000   10.6103    0.0055    3.5205    2.8338    0.0055 
9240.0000    0.5493    0.5493  822.5000  822.5000    0.5493    0.5493    0.5493  822.5000  822.5000 9240.0000   12.0254    0.0055    3.4728    2.8775    0.0055 
9240.5000    0.5005    0.5005  756.3750  756.3750    0.5005    0.5005    0.5005  756.3750  756.3750 9240.5000   12.0918    0.0050    3.3910    2.8577    0.0050 
9241.0000    0.4517    0.4517  684.8750  684.8750    0.4517    0.4517    0.4517  684.8750  684.8750 9241.0000   11.0195    0.0045    3.3230    2.7992    0.0045 
9241.5000    0.4883    0.4883  604.7500  604.7500    0.4883    0.4883    0.4883  604.7500  604.7500 9241.5000    9.7617    0.0049    3.2694    2.7563    0.0049 
9242.0000    0.6104    0.6104  554.7500  554.7500    0.6104    0.6104    0.6104  554.7500  554.7500 9242.0000    9.1836    0.0061    3.1907    2.7611    0.0061 
9242.5000    0.7324    0.7324  608.1250  608.1250    0.7324    0.7324    0.7324  608.1250  608.1250 9242.5000    9.5430    0.0073    3.1006    2.8014    0.0073 
9243.0000    0.8179    0.8179  679.2500  679.2500    0.8179    0.8179    0.8179  679.2500  679.2500 9243.0000   10.2930    0.0082    3.0824    2.8242    0.0082 
9243.5000    0.9033    0.9033  715.8750  715.8750    0.9033    0.9033    0.9033  715.8750  715.8750 9243.5000   10.8105    0.0090    3.1716    2.8003    0.0090 
9244.0000 -999.0000 -999.0000 -999.0000 -999.0000 -999.0000 -999.0000 -999.0000 -999.0000 -999.0000 9244.0000 -999.0000 -999.0000 -999.0000 -999.0000 -999.0000 
9244.5000 -999.0000 -999.0000 -999.0000 -999.0000 -999.0000 -999.0000 -999.0000 -999.0000 -999.0000 9244.5000 -999.0000 -999.0000 -999.0000 -999.0000 -999.0000 
9245.0000 -999.0000 -999.0000 -999.0000 -999.0000 -999.0000 -999.0000 -999.0000 -999.0000 -999.0000 9245.0000 -999.0000 -999.0000 -999.0000 -999.0000 -999.0000 
9245.5000 -999.0000 -999.0000 -999.0000 -999.0000 -999.0000 -999.0000 -999.0000 -999.0000 -999.0000 9245.5000 -999.0000 -999.0000 -999.0000 -999.0000 -999.0000 
9246.0000 -999.0000 -999.0000 -999.0000 -999.0000 -999.0000 -999.0000 -999.0000 -999.0000 -999.0000 9246.0000 -999.0000 -999.0000 -999.0000 -999.0000 -999.0000 
9246.5000 -999.0000 -999.0000 -999.0000 -999.0000 -999.0000 -999.0000 -999.0000 -999.0000 -999.0000 9246.5000 -999.0000 -999.0000 -999.0000 -999.0000 -999.0000 
9247.0000 -999.0000 -999.0000 -999.0000 -999.0000 -999.0000 -999.0000 -999.0000 -999.0000 -999.0000 9247.0000 -999.0000 -999.0000 -999.0000 -999.0000 -999.0000 
9247.5000 -999.0000 -999.0000 -999.0000 -999.0000 -999.0000 -999.0000 -999.0000 -999.0000 -999.0000 9247.5000 -999.0000 -999.0000 -999.0000 -999.0000 -999.0000 
9248.0000 -999.0000 -999.0000 -999.0000 -999.0000 -999.0000 -999.0000 -999.0000 -999.0000 -999.0000 9248.0000 -999.0000 -999.0000 -999.0000 -999.0000 -999.0000 
9248.5000 -999.0000 -999.0000 -999.0000 -999.0000 -999.0000 -999.0000 -999.0000 -999.0000 -999.0000 9248.5000 -999.0000 -999.0000 -999.0000 -999.0000 -999.0000 
9249.0000 -999.0000 -999.0000 -999.0000 -999.0000 -999.0000 -999.0000 -999.0000 -999.0000 -999.0000 9249.0000 -999.0000 -999.0000 -999.0000 -999.0000 -999.0000 
9249.5000 -999.0000 -999.0000 -999.0000 -999.0000 -999.0000 -999.0000 -999.0000 -999.0000 -999.0000 9249.5000 -999.0000 -999.0000 -999.0000 -999.0000 -999.0000 
