~VERSION INFORMATION
 VERS.                 2.0:   CWLS LOG ASCII STANDARD - VERSION 2.0
 WRAP.                  NO:   SINGLE LINE PER DEPTH STEP
 CREA.                 5/13/2021 1:24:20 AM
#CREATED USING DSPetro VERSION 10ep.4.05.01 BY H227404 ON 5/13/2021 1:24:20 AM
~WELL INFORMATION
#MNEM.UNIT       DATA                          DESCRIPTION MNEMONIC
#---------      ---------------------------   --------------------------
 STRT    .FT        1000.0000                 : START DEPTH
 STOP    .FT        10000.0000                : STOP DEPTH
 STEP    .FT        0.5000                    : STEP VALUE
 NULL    .      -999.0000                     : NULL VALUE
 DATE    .      5/13/2021                     : LAS file Creation Date
 WELL   .      SNRG-0003                             : Well Name
 COMP   .      COLUMBIA NATURAL RESOURCES INC.        : Company
 FLD    .                                             : Field
 STATE  .      OH                                     : State
 COUNT  .      USA                                    : Country
 API    .      SNRG-0003                         : API Number
 UWI    .      SNRG-0003                         : Unique Well Identifier (UWI)
 LOC    .      200'NL & 500'WL OF  SE QTR. SECTION 28 : Location
 EPDAT  .      1135                                   : Elevation of Permanent Datum
 GL     .      1135                                   : GL Elevation
 RWS    .      0                                      : Def_Rw
 WST    .      0                                      : Def_Rwt
 CNTY   .      COLUMBIANA                             : County
 PROV   .                                             : Province
 MDEC   .      0                                      : Magnetic Declination
 SRVC   .      SCH                                    : Contractor
 GDAT   .      (Undefined)                            : Geodatum
 LONG   .      -80.8118599997626                      : Longitude
 LATI   .      40.6594309997559                       : Latitude
 COORDIN.                                             : Grid System
 XCOORD .                                             : X or East-West Coordinate
 YCOORD .                                             : Y or North-South Coordinate
~CURVE INFORMATION
#MNEM              UNIT       API CODE   Curve Type Comments
#----------  --------------- ----------  ---------- -----------
 DEPTH      .FT                        : Depth       
 AO10       .%                         : ShalRes     SNP
 AO20       .%                         : ShalRes     SNP
 AO30       .OHMM                      : MedRes      ILM
 AO60       .OHMM                      : MedRes      ILM
 AORX       .%                         : ShalRes     SNP
 AT10       .%                         : ShalRes     SNP
 AT20       .%                         : ShalRes     SNP
 AT30       .OHMM                      : MedRes      ILM
 AT60       .OHMM                      : MedRes      ILM
 DEPTH      .FT                        : Depth       
 GR         .GAPI                      : GammaRay    GR
 NPHI       .dec                       : Neutron     
 PEFZ       .B/E                       : PEF         PEF
 RHOZ       .G/CC                      : Density     RHOB
 TNPH       .dec                       : Neutron     
~A  DEPTH    AO10      AO20      AO30      AO60      AORX      AT10      AT20      AT30      AT60     DEPTH       GR       NPHI      PEFZ      RHOZ      TNPH   
# ...
3750.0000   13.7695   13.7695   15.8098   15.8098   13.7695   13.7695   13.7695   15.8098   15.8098 3750.0000  167.2813    0.1377    4.0159    2.7580    0.1377 
3750.5000   13.4522   13.4522   15.8529   15.8529   13.4522   13.4522   13.4522   15.8529   15.8529 3750.5000  166.5313    0.1345    3.9431    2.7550    0.1345 
3751.0000   13.3545   13.3545   15.9257   15.9257   13.3545   13.3545   13.3545   15.9257   15.9257 3751.0000  171.1250    0.1335    3.7422    2.7278    0.1335 
3751.5000   13.5132   13.5132   15.9035   15.9035   13.5132   13.5132   13.5132   15.9035   15.9035 3751.5000  175.7188    0.1351    3.4397    2.7185    0.1351 
3752.0000   14.1724   14.1724   15.7578   15.7578   14.1724   14.1724   14.1724   15.7578   15.7578 3752.0000  175.5000    0.1417    3.0610    2.7228    0.1417 
3752.5000   14.9780   14.9780   15.6226   15.6226   14.9780   14.9780   14.9780   15.6226   15.6226 3752.5000  174.1563    0.1498    2.9568    2.7323    0.1498 
3753.0000   15.2222   15.2222   15.4779   15.4779   15.2222   15.2222   15.2222   15.4779   15.4779 3753.0000  174.7188    0.1522    2.9726    2.7444    0.1522 
3753.5000   14.8438   14.8438   15.3458   15.3458   14.8438   14.8438   14.8438   15.3458   15.3458 3753.5000  176.0938    0.1484    3.0313    2.7565    0.1484 
3754.0000   14.2090   14.2090   15.2037   15.2037   14.2090   14.2090   14.2090   15.2037   15.2037 3754.0000  174.9375    0.1421    3.0474    2.7660    0.1421 
3754.5000   14.0381   14.0381   15.0456   15.0456   14.0381   14.0381   14.0381   15.0456   15.0456 3754.5000  173.2500    0.1404    2.9824    2.7703    0.1404 
3755.0000   14.5874   14.5874   14.9081   14.9081   14.5874   14.5874   14.5874   14.9081   14.9081 3755.0000  172.7500    0.1459    2.8768    2.7687    0.1459 
3755.5000   15.1733   15.1733   14.6985   14.6985   15.1733   15.1733   15.1733   14.6985   14.6985 3755.5000  171.6563    0.1517    2.8023    2.7638    0.1517 
3756.0000   15.2222   15.2222   14.4542   14.4542   15.2222   15.2222   15.2222   14.4542   14.4542 3756.0000  169.3438    0.1522    2.7774    2.7598    0.1522 
3756.5000   14.8193   14.8193   14.2811   14.2811   14.8193   14.8193   14.8193   14.2811   14.2811 3756.5000  167.6250    0.1482    2.7942    2.7559    0.1482 
3757.0000   14.4775   14.4775   14.2603   14.2603   14.4775   14.4775   14.4775   14.2603   14.2603 3757.0000  167.7500    0.1448    2.8466    2.7516    0.1448 
3757.5000   14.4653   14.4653   14.3889   14.3889   14.4653   14.4653   14.4653   14.3889   14.3889 3757.5000  168.4688    0.1447    2.9286    2.7475    0.1447 
3758.0000   14.7095   14.7095   14.7251   14.7251   14.7095   14.7095   14.7095   14.7251   14.7251 3758.0000  170.9375    0.1471    3.0497    2.7447    0.1471 
3758.5000   15.1733   15.1733   15.2175   15.2175   15.1733   15.1733   15.1733   15.2175   15.2175 3758.5000  176.4375    0.1517    3.1916    2.7432    0.1517 
3759.0000   15.5884   15.5884   15.5058   15.5058   15.5884   15.5884   15.5884   15.5058   15.5058 3759.0000  182.6563    0.1559    3.3132    2.7423    0.1559 
3759.5000   15.6982   15.6982   15.3608   15.3608   15.6982   15.6982   15.6982   15.3608   15.3608 3759.5000  183.5000    0.1570    3.3816    2.7413    0.1570 
3760.0000   15.5762   15.5762   15.0687   15.0687   15.5762   15.5762   15.5762   15.0687   15.0687 3760.0000  176.9063    0.1558    3.3967    2.7411    0.1558 
3760.5000   15.3809   15.3809   15.0225   15.0225   15.3809   15.3809   15.3809   15.0225   15.0225 3760.5000  168.4375    0.1538    3.3856    2.7452    0.1538 
3761.0000   14.9902   14.9902   15.1990   15.1990   14.9902   14.9902   14.9902   15.1990   15.1990 3761.0000  164.5625    0.1499    3.3536    2.7558    0.1499 
3761.5000   14.5142   14.5142   15.3460   15.3460   14.5142   14.5142   14.5142   15.3460   15.3460 3761.5000  169.4375    0.1451    3.1726    2.7593    0.1451 
3762.0000   14.5386   14.5386   15.3029   15.3029   14.5386   14.5386   14.5386   15.3029   15.3029 3762.0000  179.7500    0.1454    3.0623    2.7521    0.1454 
3762.5000   14.9780   14.9780   15.1592   15.1592   14.9780   14.9780   14.9780   15.1592   15.1592 3762.5000  186.3750    0.1498    3.1382    2.7457    0.1498 
3763.0000   15.0879   15.0879   15.1527   15.1527   15.0879   15.0879   15.0879   15.1527   15.1527 3763.0000  185.7813    0.1509    3.2957    2.7412    0.1509 
3763.5000   14.8438   14.8438   15.3967   15.3967   14.8438   14.8438   14.8438   15.3967   15.3967 3763.5000  182.0313    0.1484    3.5079    2.7395    0.1484 
3764.0000   14.8438   14.8438   15.8547   15.8547   14.8438   14.8438   14.8438   15.8547   15.8547 3764.0000  179.0625    0.1484    3.7142    2.7370    0.1484 
3764.5000   15.1855   15.1855   16.4123   16.4123   15.1855   15.1855   15.1855   16.4123   16.4123 3764.5000  175.9063    0.1519    3.7183    2.7294    0.1519 
3765.0000   15.2954   15.2954   17.1680   17.1680   15.2954   15.2954   15.2954   17.1680   17.1680 3765.0000  172.8125    0.1530    3.5435    2.7240    0.1530 
3765.5000   15.0757   15.0757   18.1177   18.1177   15.0757   15.0757   15.0757   18.1177   18.1177 3765.5000  173.4375    0.1508    3.2940    2.7255    0.1508 
3766.0000   15.2832   15.2832   18.5795   18.5795   15.2832   15.2832   15.2832   18.5795   18.5795 3766.0000  176.7500    0.1528    3.0508    2.7281    0.1528 
3766.5000   15.9180   15.9180   18.3103   18.3103   15.9180   15.9180   15.9180   18.3103   18.3103 3766.5000  178.0313    0.1592    2.9360    2.7306    0.1592 
3767.0000   16.1621   16.1621   17.9548   17.9548   16.1621   16.1621   16.1621   17.9548   17.9548 3767.0000  175.2500    0.1616    2.9683    2.7305    0.1616 
3767.5000   15.6250   15.6250   18.0289   18.0289   15.6250   15.6250   15.6250   18.0289   18.0289 3767.5000  170.9063    0.1563    3.1450    2.7308    0.1563 
3768.0000   14.6728   14.6728   18.8198   18.8198   14.6728   14.6728   14.6728   18.8198   18.8198 3768.0000  167.6250    0.1467    3.2817    2.7348    0.1467 
3768.5000   13.8550   13.8550   20.5889   20.5889   13.8550   13.8550   13.8550   20.5889   20.5889 3768.5000  164.7500    0.1385    3.2700    2.7424    0.1385 
3769.0000   13.3789   13.3789   23.1289   23.1289   13.3789   13.3789   13.3789   23.1289   23.1289 3769.0000  160.9375    0.1338    3.1513    2.7517    0.1338 
3769.5000   13.2324   13.2324   25.1309   25.1309   13.2324   13.2324   13.2324   25.1309   25.1309 3769.5000  156.8750    0.1323    2.9969    2.7567    0.1323 
3770.0000   13.4033   13.4033   26.5332   26.5332   13.4033   13.4033   13.4033   26.5332   26.5332 3770.0000  156.5000    0.1340    2.8723    2.7544    0.1340 
3770.5000   13.8550   13.8550   27.6543   27.6543   13.8550   13.8550   13.8550   27.6543   27.6543 3770.5000  161.0938    0.1385    2.8173    2.7457    0.1385 
3771.0000   14.5264   14.5264   29.0674   29.0674   14.5264   14.5264   14.5264   29.0674   29.0674 3771.0000  167.6875    0.1453    2.8394    2.7342    0.1453 
3771.5000   15.1489   15.1489   30.9375   30.9375   15.1489   15.1489   15.1489   30.9375   30.9375 3771.5000  174.3125    0.1515    2.9221    2.7241    0.1515 
3772.0000   15.3198   15.3198   33.2305   33.2305   15.3198   15.3198   15.3198   33.2305   33.2305 3772.0000  180.0313    0.1532    3.0314    2.7161    0.1532 
3772.5000   15.1855   15.1855   36.3203   36.3203   15.1855   15.1855   15.1855   36.3203   36.3203 3772.5000  182.8750    0.1519    3.1197    2.7055    0.1519 
3773.0000   15.2954   15.2954   40.7734   40.7734   15.2954   15.2954   15.2954   40.7734   40.7734 3773.0000  184.5000    0.1530    3.1590    2.6827    0.1530 
3773.5000   15.9668   15.9668   46.3984   46.3984   15.9668   15.9668   15.9668   46.3984   46.3984 3773.5000  191.9688    0.1597    3.2021    2.6530    0.1597 
3774.0000   16.7969   16.7969   51.8945   51.8945   16.7969   16.7969   16.7969   51.8945   51.8945 3774.0000  207.4688    0.1680    3.3204    2.6292    0.1680 
3774.5000   17.1753   17.1753   55.9531   55.9531   17.1753   17.1753   17.1753   55.9531   55.9531 3774.5000  221.5313    0.1718    3.5059    2.6203    0.1718 
