~VERSION INFORMATION
 VERS.                 2.0:   CWLS LOG ASCII STANDARD - VERSION 2.0
 WRAP.                  NO:   SINGLE LINE PER DEPTH STEP
 CREA.                 5/13/2021 1:24:19 AM
#CREATED USING DSPetro VERSION 10ep.4.05.01 BY H227404 ON 5/13/2021 1:24:19 AM
~WELL INFORMATION
#MNEM.UNIT       DATA                          DESCRIPTION MNEMONIC
#---------      ---------------------------   --------------------------
 STRT    .FT        0.0000                    : START DEPTH
 STOP    .FT        9000.0000                 : STOP DEPTH
 STEP    .FT        0.5000                    : STEP VALUE
 NULL    .      -999.0000                     : NULL VALUE
 DATE    .      5/13/2021                     : LAS file Creation Date
 WELL   .      SNRG-0001                          : Well Name
 COMP   .      Range Resources Appalachia, LLC      : Company
 FLD    .                                           : Field
 STATE  .      OH                                   : State
 COUNT  .      USA                                  : Country
 API    .      SNRG-0001                       : API Number
 UWI    .      SNRG-0001                       : Unique Well Identifier (UWI)
 LOC    .      750'SL & 1060'EL OF NW QTR., SEC. 30 : Location
 EPDAT  .      964                                  : Elevation of Permanent Datum
 GL     .      954.000                              : GL Elevation
 RWS    .      0                                    : Def_Rw
 WST    .      0                                    : Def_Rwt
 CNTY   .      Carroll                              : County
 PROV   .                                           : Province
 MDEC   .      0                                    : Magnetic Declination
 SRVC   .      WE                                   : Contractor
 GDAT   .      (Undefined)                          : Geodatum
 LONG   .      -81.2941990004645                    : Longitude
 LATI   .      40.6472950002882                     : Latitude
 COORDIN.                                           : Grid System
 XCOORD .                                           : X or East-West Coordinate
 YCOORD .                                           : Y or North-South Coordinate
~CURVE INFORMATION
#MNEM              UNIT       API CODE   Curve Type Comments
#----------  --------------- ----------  ---------- -----------
 DEPTH      .FT                        : Depth       
 AO10       .OHMM                      : ShalRes     Shallow Laterolog
 AO20       .OHMM                      : ShalRes     Shallow Laterolog
 AORX       .OHMM                      : ShalRes     Shallow Laterolog
 AT10       .OHMM                      : ShalRes     Shallow Laterolog
 AT20       .OHMM                      : ShalRes     Shallow Laterolog
 DEPTH      .FT                        : Depth       
 GR         .GAPI                      : GammaRay    Gamma Ray
 HDRA       .G/C3                      : Drho        Density Correction
 NPHI       .dec                       : Neutron     
 PEFZ       .B/E                       : PEF         PE
 RHOZ       .G/C3                      : Density     Compensated Density
 TNPH       .dec                       : Neutron     
~A  DEPTH    AO10      AO20      AORX      AT10      AT20     DEPTH       GR       HDRA      NPHI      PEFZ      RHOZ      TNPH   
# ...
7514.0000   60.3470   60.3470   60.3470   60.3470   60.3470 7514.0000   67.1500    0.0380    0.0976    3.5230    2.7540    0.0976 
7514.5000   65.0080   65.0080   65.0080   65.0080   65.0080 7514.5000   77.7200    0.0340    0.1066    3.4570    2.7420    0.1066 
7515.0000   78.4830   78.4830   78.4830   78.4830   78.4830 7515.0000   84.5600    0.0310    0.1148    3.4130    2.7340    0.1148 
7515.5000   97.2860   97.2860   97.2860   97.2860   97.2860 7515.5000   81.0420    0.0300    0.1204    3.3870    2.7340    0.1204 
7516.0000  117.1160  117.1160  117.1160  117.1160  117.1160 7516.0000   66.6770    0.0290    0.1185    3.4070    2.7390    0.1185 
7516.5000  132.0910  132.0910  132.0910  132.0910  132.0910 7516.5000   48.6570    0.0290    0.1066    3.4420    2.7490    0.1066 
7517.0000  143.9610  143.9610  143.9610  143.9610  143.9610 7517.0000   40.8270    0.0290    0.0895    3.4800    2.7550    0.0895 
7517.5000  149.7210  149.7210  149.7210  149.7210  149.7210 7517.5000   48.2920    0.0300    0.0777    3.5020    2.7550    0.0777 
7518.0000  145.9920  145.9920  145.9920  145.9920  145.9920 7518.0000   64.5810    0.0320    0.0782    3.4780    2.7510    0.0782 
7518.5000  135.3980  135.3980  135.3980  135.3980  135.3980 7518.5000   80.8770    0.0340    0.0895    3.4180    2.7460    0.0895 
7519.0000  124.4380  124.4380  124.4380  124.4380  124.4380 7519.0000   91.8050    0.0360    0.1032    3.3550    2.7400    0.1032 
7519.5000  118.2180  118.2180  118.2180  118.2180  118.2180 7519.5000   94.3170    0.0360    0.1113    3.3420    2.7380    0.1113 
7520.0000  118.4310  118.4310  118.4310  118.4310  118.4310 7520.0000   89.1870    0.0350    0.1115    3.3800    2.7400    0.1115 
7520.5000  120.7510  120.7510  120.7510  120.7510  120.7510 7520.5000   77.8850    0.0340    0.1040    3.4670    2.7430    0.1040 
7521.0000  116.8510  116.8510  116.8510  116.8510  116.8510 7521.0000   66.0890    0.0340    0.0934    3.5020    2.7480    0.0934 
7521.5000  104.4280  104.4280  104.4280  104.4280  104.4280 7521.5000   63.2650    0.0330    0.0862    3.4550    2.7480    0.0862 
7522.0000   88.7500   88.7500   88.7500   88.7500   88.7500 7522.0000   70.0920    0.0330    0.0853    3.3810    2.7470    0.0853 
7522.5000   77.6910   77.6910   77.6910   77.6910   77.6910 7522.5000   78.7190    0.0320    0.0914    3.3240    2.7430    0.0914 
7523.0000   73.5240   73.5240   73.5240   73.5240   73.5240 7523.0000   82.0830    0.0320    0.0994    3.3380    2.7400    0.0994 
7523.5000   75.1730   75.1730   75.1730   75.1730   75.1730 7523.5000   83.4300    0.0330    0.1046    3.3490    2.7370    0.1046 
7524.0000   79.1160   79.1160   79.1160   79.1160   79.1160 7524.0000   90.0300    0.0340    0.1068    3.3350    2.7340    0.1068 
7524.5000   81.9430   81.9430   81.9430   81.9430   81.9430 7524.5000  101.7320    0.0360    0.1083    3.3220    2.7290    0.1083 
7525.0000   78.4200   78.4200   78.4200   78.4200   78.4200 7525.0000  107.7160    0.0380    0.1105    3.3180    2.7240    0.1105 
7525.5000   68.3640   68.3640   68.3640   68.3640   68.3640 7525.5000  101.8090    0.0380    0.1122    3.3610    2.7220    0.1122 
7526.0000   56.8810   56.8810   56.8810   56.8810   56.8810 7526.0000   89.1780    0.0380    0.1108    3.3960    2.7240    0.1108 
7526.5000   48.6420   48.6420   48.6420   48.6420   48.6420 7526.5000   79.2780    0.0370    0.1052    3.3930    2.7260    0.1052 
7527.0000   45.4660   45.4660   45.4660   45.4660   45.4660 7527.0000   74.1670    0.0350    0.0971    3.3890    2.7290    0.0971 
7527.5000   45.8770   45.8770   45.8770   45.8770   45.8770 7527.5000   71.8290    0.0340    0.0899    3.4030    2.7300    0.0899 
7528.0000   47.9430   47.9430   47.9430   47.9430   47.9430 7528.0000   70.6320    0.0350    0.0879    3.4320    2.7290    0.0879 
7528.5000   50.1520   50.1520   50.1520   50.1520   50.1520 7528.5000   71.0620    0.0360    0.0928    3.4440    2.7300    0.0928 
7529.0000   51.7150   51.7150   51.7150   51.7150   51.7150 7529.0000   78.1850    0.0380    0.1018    3.4020    2.7270    0.1018 
7529.5000   52.5350   52.5350   52.5350   52.5350   52.5350 7529.5000   90.3370    0.0380    0.1113    3.3660    2.7220    0.1113 
7530.0000   52.0570   52.0570   52.0570   52.0570   52.0570 7530.0000   97.6430    0.0360    0.1184    3.3500    2.7170    0.1184 
7530.5000   50.6510   50.6510   50.6510   50.6510   50.6510 7530.5000   97.7560    0.0330    0.1215    3.3290    2.7130    0.1215 
7531.0000   48.0310   48.0310   48.0310   48.0310   48.0310 7531.0000   90.0380    0.0300    0.1188    3.3130    2.7130    0.1188 
7531.5000   45.2120   45.2120   45.2120   45.2120   45.2120 7531.5000   80.0240    0.0290    0.1113    3.3010    2.7160    0.1113 
7532.0000   42.2390   42.2390   42.2390   42.2390   42.2390 7532.0000   69.8660    0.0280    0.1017    3.2880    2.7200    0.1017 
7532.5000   39.3040   39.3040   39.3040   39.3040   39.3040 7532.5000   60.1120    0.0280    0.0930    3.2340    2.7230    0.0930 
7533.0000   36.7350   36.7350   36.7350   36.7350   36.7350 7533.0000   56.5190    0.0270    0.0860    3.1780    2.7220    0.0860 
7533.5000   34.7160   34.7160   34.7160   34.7160   34.7160 7533.5000   58.8500    0.0280    0.0816    3.1660    2.7230    0.0816 
7534.0000   33.8710   33.8710   33.8710   33.8710   33.8710 7534.0000   63.0850    0.0270    0.0820    3.2170    2.7220    0.0820 
7534.5000   33.9250   33.9250   33.9250   33.9250   33.9250 7534.5000   65.5050    0.0290    0.0849    3.2660    2.7250    0.0849 
7535.0000   34.8780   34.8780   34.8780   34.8780   34.8780 7535.0000   66.8320    0.0310    0.0856    3.2850    2.7310    0.0856 
7535.5000   36.9230   36.9230   36.9230   36.9230   36.9230 7535.5000   67.1710    0.0330    0.0826    3.2790    2.7400    0.0826 
7536.0000   40.9020   40.9020   40.9020   40.9020   40.9020 7536.0000   67.8400    0.0350    0.0776    3.2700    2.7480    0.0776 
7536.5000   48.5900   48.5900   48.5900   48.5900   48.5900 7536.5000   65.7980    0.0370    0.0725    3.2650    2.7550    0.0725 
7537.0000   62.2780   62.2780   62.2780   62.2780   62.2780 7537.0000   60.4200    0.0380    0.0657    3.2490    2.7600    0.0657 
7537.5000   88.7380   88.7380   88.7380   88.7380   88.7380 7537.5000   54.9200    0.0400    0.0557    3.2690    2.7680    0.0557 
7538.0000  132.9330  132.9330  132.9330  132.9330  132.9330 7538.0000   53.1090    0.0420    0.0453    3.2940    2.7750    0.0453 
7538.5000  199.7870  199.7870  199.7870  199.7870  199.7870 7538.5000   57.6820    0.0450    0.0392    3.2950    2.7790    0.0392 
7539.0000  291.3730  291.3730  291.3730  291.3730  291.3730 7539.0000   62.4010    0.0510    0.0393    3.3020    2.7740    0.0393 
7539.5000  386.5130  386.5130  386.5130  386.5130  386.5130 7539.5000   61.5090    0.0660    0.0437    3.3460    2.7580    0.0437 
7540.0000  467.3770  467.3770  467.3770  467.3770  467.3770 7540.0000   55.7150    0.0840    0.0464    3.3620    2.7370    0.0464 
7540.5000  462.2900  462.2900  462.2900  462.2900  462.2900 7540.5000   51.8010    0.0990    0.0459    3.2830    2.7170    0.0459 
7541.0000  382.4170  382.4170  382.4170  382.4170  382.4170 7541.0000   55.9040    0.1050    0.0479    3.1820    2.7080    0.0479 
7541.5000  273.7160  273.7160  273.7160  273.7160  273.7160 7541.5000   64.0560    0.0950    0.0553    3.1350    2.7130    0.0553 
7542.0000  193.3210  193.3210  193.3210  193.3210  193.3210 7542.0000   68.8780    0.0760    0.0634    3.1530    2.7220    0.0634 
7542.5000  155.3660  155.3660  155.3660  155.3660  155.3660 7542.5000   68.6810    0.0560    0.0660    3.1730    2.7320    0.0660 
7543.0000  142.4030  142.4030  142.4030  142.4030  142.4030 7543.0000   64.5400    0.0410    0.0621    3.1240    2.7350    0.0621 
7543.5000  147.2320  147.2320  147.2320  147.2320  147.2320 7543.5000   58.8310    0.0370    0.0531    3.0230    2.7310    0.0531 
7544.0000  153.4750  153.4750  153.4750  153.4750  153.4750 7544.0000   51.9570    0.0400    0.0413    2.8720    2.7230    0.0413 
7544.5000  154.7190  154.7190  154.7190  154.7190  154.7190 7544.5000   45.0370    0.0430    0.0294    2.7430    2.7110    0.0294 
