~VERSION INFORMATION
 VERS.                 2.0:   CWLS LOG ASCII STANDARD - VERSION 2.0
 WRAP.                  NO:   SINGLE LINE PER DEPTH STEP
 CREA.                 5/13/2021 1:24:19 AM
#CREATED USING DSPetro VERSION 10ep.4.05.01 BY H227404 ON 5/13/2021 1:24:19 AM
~WELL INFORMATION
#MNEM.UNIT       DATA                          DESCRIPTION MNEMONIC
#---------      ---------------------------   --------------------------
 STRT    .FT        0.0000                    : START DEPTH
 STOP    .FT        9000.0000                 : STOP DEPTH
 STEP    .FT        0.5000                    : STEP VALUE
 NULL    .      -999.0000                     : NULL VALUE
 DATE    .      5/13/2021                     : LAS file Creation Date
 WELL   .      SNRG-0001                          : Well Name
 COMP   .      Range Resources Appalachia, LLC      : Company
 FLD    .                                           : Field
 STATE  .      OH                                   : State
 COUNT  .      USA                                  : Country
 API    .      SNRG-0001                       : API Number
 UWI    .      SNRG-0001                       : Unique Well Identifier (UWI)
 LOC    .      750'SL & 1060'EL OF NW QTR., SEC. 30 : Location
 EPDAT  .      964                                  : Elevation of Permanent Datum
 GL     .      954.000                              : GL Elevation
 RWS    .      0                                    : Def_Rw
 WST    .      0                                    : Def_Rwt
 CNTY   .      Carroll                              : County
 PROV   .                                           : Province
 MDEC   .      0                                    : Magnetic Declination
 SRVC   .      WE                                   : Contractor
 GDAT   .      (Undefined)                          : Geodatum
 LONG   .      -81.2941990004645                    : Longitude
 LATI   .      40.6472950002882                     : Latitude
 COORDIN.                                           : Grid System
 XCOORD .                                           : X or East-West Coordinate
 YCOORD .                                           : Y or North-South Coordinate
~CURVE INFORMATION
#MNEM              UNIT       API CODE   Curve Type Comments
#----------  --------------- ----------  ---------- -----------
 DEPTH      .FT                        : Depth       
 AO10       .OHMM                      : ShalRes     Shallow Laterolog
 AO20       .OHMM                      : ShalRes     Shallow Laterolog
 AORX       .OHMM                      : ShalRes     Shallow Laterolog
 AT10       .OHMM                      : ShalRes     Shallow Laterolog
 AT20       .OHMM                      : ShalRes     Shallow Laterolog
 DEPTH      .FT                        : Depth       
 GR         .GAPI                      : GammaRay    Gamma Ray
 HDRA       .G/C3                      : Drho        Density Correction
 NPHI       .dec                       : Neutron     
 PEFZ       .B/E                       : PEF         PE
 RHOZ       .G/C3                      : Density     Compensated Density
 TNPH       .dec                       : Neutron     
~A  DEPTH    AO10      AO20      AORX      AT10      AT20     DEPTH       GR       HDRA      NPHI      PEFZ      RHOZ      TNPH   
# ...
8596.0000 5581.5122 5581.5122 5581.5122 5581.5122 5581.5122 8596.0000   59.2650    0.0330    0.0010    3.1750    2.7280    0.0010 
8596.5000 16036.8818 16036.8818 16036.8818 16036.8818 16036.8818 8596.5000   60.7230    0.0290    0.0001    3.2940    2.7220    0.0001 
8597.0000 48228.0313 48228.0313 48228.0313 48228.0313 48228.0313 8597.0000   58.1810    0.0250    0.0032    3.4090    2.7300    0.0032 
8597.5000 108188.2656 108188.2656 108188.2656 108188.2656 108188.2656 8597.5000   49.2880    0.0220    0.0088    3.4450    2.7450    0.0088 
8598.0000 108188.2656 108188.2656 108188.2656 108188.2656 108188.2656 8598.0000   41.0240    0.0190    0.0155    3.4370    2.7590    0.0155 
8598.5000 100361.3281 100361.3281 100361.3281 100361.3281 100361.3281 8598.5000   40.8820    0.0190    0.0212    3.3660    2.7660    0.0212 
8599.0000 49943.9219 49943.9219 49943.9219 49943.9219 49943.9219 8599.0000   51.7430    0.0220    0.0241    3.3380    2.7670    0.0241 
8599.5000 18969.3555 18969.3555 18969.3555 18969.3555 18969.3555 8599.5000   65.8450    0.0250    0.0243    3.3390    2.7610    0.0243 
8600.0000 6735.0322 6735.0322 6735.0322 6735.0322 6735.0322 8600.0000   74.3300    0.0300    0.0228    3.3860    2.7570    0.0228 
8600.5000 3891.6140 3891.6140 3891.6140 3891.6140 3891.6140 8600.5000   76.9330    0.0330    0.0206    3.4240    2.7510    0.0206 
8601.0000 3288.0569 3288.0569 3288.0569 3288.0569 3288.0569 8601.0000   77.1380    0.0350    0.0177    3.4170    2.7500    0.0177 
8601.5000 2977.9910 2977.9910 2977.9910 2977.9910 2977.9910 8601.5000   75.5660    0.0370    0.0140    3.4770    2.7550    0.0140 
8602.0000 3062.6189 3062.6189 3062.6189 3062.6189 3062.6189 8602.0000   69.4910    0.0370    0.0099    3.5930    2.7590    0.0099 
8602.5000 3213.7690 3213.7690 3213.7690 3213.7690 3213.7690 8602.5000   62.0040    0.0360    0.0066    3.6720    2.7610    0.0066 
8603.0000 3709.6899 3709.6899 3709.6899 3709.6899 3709.6899 8603.0000   60.0190    0.0340    0.0042    3.6290    2.7540    0.0042 
8603.5000 4043.6450 4043.6450 4043.6450 4043.6450 4043.6450 8603.5000   67.0740    0.0320    0.0023    3.5080    2.7420    0.0023 
8604.0000 4396.0430 4396.0430 4396.0430 4396.0430 4396.0430 8604.0000   76.2890    0.0300    0.0010    3.4640    2.7280    0.0010 
8604.5000 4997.9922 4997.9922 4997.9922 4997.9922 4997.9922 8604.5000   76.7230    0.0290    0.0019    3.5040    2.7220    0.0019 
8605.0000 5663.0962 5663.0962 5663.0962 5663.0962 5663.0962 8605.0000   66.8070    0.0270    0.0059    3.5020    2.7250    0.0059 
8605.5000 6847.1660 6847.1660 6847.1660 6847.1660 6847.1660 8605.5000   51.7070    0.0270    0.0131    3.4310    2.7400    0.0131 
8606.0000 8140.1548 8140.1548 8140.1548 8140.1548 8140.1548 8606.0000   41.1510    0.0280    0.0212    3.3690    2.7580    0.0212 
8606.5000 9193.7949 9193.7949 9193.7949 9193.7949 9193.7949 8606.5000   39.6920    0.0290    0.0272    3.3400    2.7700    0.0272 
8607.0000 10721.2764 10721.2764 10721.2764 10721.2764 10721.2764 8607.0000   41.8940    0.0300    0.0303    3.3440    2.7760    0.0303 
8607.5000 11501.0801 11501.0801 11501.0801 11501.0801 11501.0801 8607.5000   43.8870    0.0310    0.0307    3.3290    2.7770    0.0307 
8608.0000 10345.4648 10345.4648 10345.4648 10345.4648 10345.4648 8608.0000   42.6310    0.0300    0.0303    3.2940    2.7760    0.0303 
8608.5000 6740.1948 6740.1948 6740.1948 6740.1948 6740.1948 8608.5000   40.2560    0.0290    0.0305    3.2690    2.7760    0.0305 
8609.0000 4144.3359 4144.3359 4144.3359 4144.3359 4144.3359 8609.0000   37.8030    0.0290    0.0313    3.2620    2.7790    0.0313 
8609.5000 2805.6379 2805.6379 2805.6379 2805.6379 2805.6379 8609.5000   39.3600    0.0310    0.0321    3.2770    2.7780    0.0321 
8610.0000 2065.3940 2065.3940 2065.3940 2065.3940 2065.3940 8610.0000   48.8670    0.0360    0.0322    3.2770    2.7710    0.0322 
8610.5000 1354.9440 1354.9440 1354.9440 1354.9440 1354.9440 8610.5000   62.6540    0.0400    0.0303    3.2150    2.7520    0.0303 
8611.0000  870.7190  870.7190  870.7190  870.7190  870.7190 8611.0000   73.6160    0.0430    0.0269    3.0970    2.7260    0.0269 
8611.5000  658.9990  658.9990  658.9990  658.9990  658.9990 8611.5000   73.2150    0.0430    0.0248    3.0240    2.7080    0.0248 
8612.0000  702.2810  702.2810  702.2810  702.2810  702.2810 8612.0000   64.2020    0.0400    0.0266    3.0410    2.7050    0.0266 
8612.5000  966.9730  966.9730  966.9730  966.9730  966.9730 8612.5000   52.6690    0.0380    0.0310    3.1210    2.7220    0.0310 
8613.0000 1771.6990 1771.6990 1771.6990 1771.6990 1771.6990 8613.0000   44.8160    0.0360    0.0342    3.2000    2.7480    0.0342 
8613.5000 3247.9209 3247.9209 3247.9209 3247.9209 3247.9209 8613.5000   44.9980    0.0350    0.0344    3.2190    2.7680    0.0344 
8614.0000 5044.3779 5044.3779 5044.3779 5044.3779 5044.3779 8614.0000   51.9950    0.0360    0.0319    3.1920    2.7770    0.0319 
8614.5000 6028.8521 6028.8521 6028.8521 6028.8521 6028.8521 8614.5000   60.4170    0.0370    0.0292    3.1940    2.7760    0.0292 
8615.0000 7105.1650 7105.1650 7105.1650 7105.1650 7105.1650 8615.0000   63.3830    0.0360    0.0283    3.2430    2.7720    0.0283 
8615.5000 9554.7822 9554.7822 9554.7822 9554.7822 9554.7822 8615.5000   57.4950    0.0360    0.0288    3.3140    2.7750    0.0288 
8616.0000 9828.1924 9828.1924 9828.1924 9828.1924 9828.1924 8616.0000   46.0130    0.0360    0.0298    3.3630    2.7850    0.0298 
8616.5000 7981.0669 7981.0669 7981.0669 7981.0669 7981.0669 8616.5000   38.8280    0.0370    0.0299    3.3670    2.7980    0.0299 
8617.0000 4482.4810 4482.4810 4482.4810 4482.4810 4482.4810 8617.0000   41.1660    0.0400    0.0278    3.3740    2.8010    0.0278 
8617.5000 2558.2241 2558.2241 2558.2241 2558.2241 2558.2241 8617.5000   52.9660    0.0410    0.0238    3.3590    2.7880    0.0238 
8618.0000 1734.9940 1734.9940 1734.9940 1734.9940 1734.9940 8618.0000   67.0710    0.0400    0.0199    3.2880    2.7640    0.0199 
8618.5000 1356.8571 1356.8571 1356.8571 1356.8571 1356.8571 8618.5000   74.5400    0.0380    0.0186    3.2180    2.7430    0.0186 
8619.0000 1348.9810 1348.9810 1348.9810 1348.9810 1348.9810 8619.0000   70.9550    0.0340    0.0211    3.2190    2.7340    0.0211 
8619.5000 1623.7710 1623.7710 1623.7710 1623.7710 1623.7710 8619.5000   60.5340    0.0310    0.0251    3.3070    2.7420    0.0251 
8620.0000 2182.7949 2182.7949 2182.7949 2182.7949 2182.7949 8620.0000   50.5890    0.0310    0.0274    3.4080    2.7600    0.0274 
8620.5000 2591.7371 2591.7371 2591.7371 2591.7371 2591.7371 8620.5000   50.4920    0.0330    0.0267    3.4250    2.7720    0.0267 
8621.0000 2690.9839 2690.9839 2690.9839 2690.9839 2690.9839 8621.0000   62.4050    0.0370    0.0248    3.3550    2.7700    0.0248 
8621.5000 2513.6311 2513.6311 2513.6311 2513.6311 2513.6311 8621.5000   78.3860    0.0410    0.0236    3.3220    2.7590    0.0236 
8622.0000 3433.2629 3433.2629 3433.2629 3433.2629 3433.2629 8622.0000   86.1690    0.0430    0.0247    3.3560    2.7500    0.0247 
8622.5000 11144.7041 11144.7041 11144.7041 11144.7041 11144.7041 8622.5000   76.5510    0.0420    0.0287    3.3950    2.7520    0.0287 
8623.0000 34698.8984 34698.8984 34698.8984 34698.8984 34698.8984 8623.0000   58.8080    0.0400    0.0329    3.4120    2.7650    0.0329 
8623.5000 54039.4844 54039.4844 54039.4844 54039.4844 54039.4844 8623.5000   46.5030    0.0360    0.0339    3.3730    2.7780    0.0339 
8624.0000 23757.2129 23757.2129 23757.2129 23757.2129 23757.2129 8624.0000   45.0390    0.0320    0.0314    3.3480    2.7790    0.0314 
8624.5000 6442.6699 6442.6699 6442.6699 6442.6699 6442.6699 8624.5000   55.5090    0.0290    0.0269    3.3110    2.7650    0.0269 
8625.0000 1653.1560 1653.1560 1653.1560 1653.1560 1653.1560 8625.0000   70.7180    0.0260    0.0241    3.2380    2.7430    0.0241 
8625.5000  977.0280  977.0280  977.0280  977.0280  977.0280 8625.5000   81.0360    0.0250    0.0247    3.1890    2.7290    0.0247 
8626.0000  849.1730  849.1730  849.1730  849.1730  849.1730 8626.0000   78.4310    0.0260    0.0273    3.1730    2.7290    0.0273 
