~VERSION INFORMATION
 VERS.                 2.0:   CWLS LOG ASCII STANDARD - VERSION 2.0
 WRAP.                  NO:   SINGLE LINE PER DEPTH STEP
 CREA.                 5/13/2021 1:24:19 AM
#CREATED USING DSPetro VERSION 10ep.4.05.01 BY H227404 ON 5/13/2021 1:24:19 AM
~WELL INFORMATION
#MNEM.UNIT       DATA                          DESCRIPTION MNEMONIC
#---------      ---------------------------   --------------------------
 STRT    .FT        0.0000                    : START DEPTH
 STOP    .FT        9000.0000                 : STOP DEPTH
 STEP    .FT        0.5000                    : STEP VALUE
 NULL    .      -999.0000                     : NULL VALUE
 DATE    .      5/13/2021                     : LAS file Creation Date
 WELL   .      SNRG-0001                          : Well Name
 COMP   .      Range Resources Appalachia, LLC      : Company
 FLD    .                                           : Field
 STATE  .      OH                                   : State
 COUNT  .      USA                                  : Country
 API    .      SNRG-0001                       : API Number
 UWI    .      SNRG-0001                       : Unique Well Identifier (UWI)
 LOC    .      750'SL & 1060'EL OF NW QTR., SEC. 30 : Location
 EPDAT  .      964                                  : Elevation of Permanent Datum
 GL     .      954.000                              : GL Elevation
 RWS    .      0                                    : Def_Rw
 WST    .      0                                    : Def_Rwt
 CNTY   .      Carroll                              : County
 PROV   .                                           : Province
 MDEC   .      0                                    : Magnetic Declination
 SRVC   .      WE                                   : Contractor
 GDAT   .      (Undefined)                          : Geodatum
 LONG   .      -81.2941990004645                    : Longitude
 LATI   .      40.6472950002882                     : Latitude
 COORDIN.                                           : Grid System
 XCOORD .                                           : X or East-West Coordinate
 YCOORD .                                           : Y or North-South Coordinate
~CURVE INFORMATION
#MNEM              UNIT       API CODE   Curve Type Comments
#----------  --------------- ----------  ---------- -----------
 DEPTH      .FT                        : Depth       
 AO10       .OHMM                      : ShalRes     Shallow Laterolog
 AO20       .OHMM                      : ShalRes     Shallow Laterolog
 AORX       .OHMM                      : ShalRes     Shallow Laterolog
 AT10       .OHMM                      : ShalRes     Shallow Laterolog
 AT20       .OHMM                      : ShalRes     Shallow Laterolog
 DEPTH      .FT                        : Depth       
 GR         .GAPI                      : GammaRay    Gamma Ray
 HDRA       .G/C3                      : Drho        Density Correction
 NPHI       .dec                       : Neutron     
 PEFZ       .B/E                       : PEF         PE
 RHOZ       .G/C3                      : Density     Compensated Density
 TNPH       .dec                       : Neutron     
~A  DEPTH    AO10      AO20      AORX      AT10      AT20     DEPTH       GR       HDRA      NPHI      PEFZ      RHOZ      TNPH   
# ...
7240.5000 1026.4091 1026.4091 1026.4091 1026.4091 1026.4091 7240.5000   16.4200    0.0330    0.0098    4.6550    2.6970    0.0098 
7241.0000 1043.3160 1043.3160 1043.3160 1043.3160 1043.3160 7241.0000   14.6620    0.0320    0.0095    4.6560    2.6920    0.0095 
7241.5000 1131.3560 1131.3560 1131.3560 1131.3560 1131.3560 7241.5000   12.3240    0.0310    0.0088    4.6970    2.6880    0.0088 
7242.0000 1090.8490 1090.8490 1090.8490 1090.8490 1090.8490 7242.0000   11.0050    0.0290    0.0080    4.7380    2.6860    0.0080 
7242.5000  876.6720  876.6720  876.6720  876.6720  876.6720 7242.5000    9.9760    0.0260    0.0080    4.7650    2.6830    0.0080 
7243.0000  626.9840  626.9840  626.9840  626.9840  626.9840 7243.0000   10.0360    0.0240    0.0089    4.8150    2.6800    0.0089 
7243.5000  515.4590  515.4590  515.4590  515.4590  515.4590 7243.5000   11.1970    0.0230    0.0097    4.7920    2.6810    0.0097 
7244.0000  593.3600  593.3600  593.3600  593.3600  593.3600 7244.0000   11.4030    0.0250    0.0090    4.7600    2.6850    0.0090 
7244.5000  780.1370  780.1370  780.1370  780.1370  780.1370 7244.5000   10.1790    0.0270    0.0073    4.7230    2.6910    0.0073 
7245.0000 1054.9990 1054.9990 1054.9990 1054.9990 1054.9990 7245.0000    8.5710    0.0300    0.0062    4.6900    2.6960    0.0062 
7245.5000 1267.0530 1267.0530 1267.0530 1267.0530 1267.0530 7245.5000    8.3040    0.0310    0.0059    4.7330    2.7000    0.0059 
7246.0000 1503.2321 1503.2321 1503.2321 1503.2321 1503.2321 7246.0000   10.0900    0.0320    0.0056    4.7650    2.7020    0.0056 
7246.5000 1482.7090 1482.7090 1482.7090 1482.7090 1482.7090 7246.5000   11.8840    0.0320    0.0049    4.7720    2.7020    0.0049 
7247.0000 1340.7450 1340.7450 1340.7450 1340.7450 1340.7450 7247.0000   11.8560    0.0310    0.0044    4.7650    2.7010    0.0044 
7247.5000 1110.9750 1110.9750 1110.9750 1110.9750 1110.9750 7247.5000   11.5240    0.0320    0.0045    4.7360    2.7010    0.0045 
7248.0000  867.9120  867.9120  867.9120  867.9120  867.9120 7248.0000   11.4630    0.0340    0.0050    4.7190    2.6990    0.0050 
7248.5000  711.0710  711.0710  711.0710  711.0710  711.0710 7248.5000   11.9160    0.0360    0.0056    4.7070    2.6990    0.0056 
7249.0000  549.9350  549.9350  549.9350  549.9350  549.9350 7249.0000   12.6280    0.0380    0.0068    4.6730    2.6990    0.0068 
7249.5000  458.9800  458.9800  458.9800  458.9800  458.9800 7249.5000   12.3640    0.0390    0.0081    4.6250    2.6980    0.0081 
7250.0000  407.4710  407.4710  407.4710  407.4710  407.4710 7250.0000   12.9070    0.0370    0.0088    4.5980    2.6950    0.0088 
7250.5000  464.6540  464.6540  464.6540  464.6540  464.6540 7250.5000   14.2190    0.0320    0.0082    4.5880    2.6870    0.0082 
7251.0000  560.9280  560.9280  560.9280  560.9280  560.9280 7251.0000   15.0880    0.0260    0.0068    4.6440    2.6790    0.0068 
7251.5000  605.0460  605.0460  605.0460  605.0460  605.0460 7251.5000   15.6500    0.0220    0.0052    4.7390    2.6760    0.0052 
7252.0000  581.1690  581.1690  581.1690  581.1690  581.1690 7252.0000   15.3690    0.0220    0.0040    4.7800    2.6750    0.0040 
7252.5000  503.0480  503.0480  503.0480  503.0480  503.0480 7252.5000   14.6030    0.0240    0.0033    4.7810    2.6770    0.0033 
7253.0000  518.7910  518.7910  518.7910  518.7910  518.7910 7253.0000   14.3460    0.0260    0.0033    4.7630    2.6800    0.0033 
7253.5000  560.6460  560.6460  560.6460  560.6460  560.6460 7253.5000   15.0030    0.0260    0.0040    4.7390    2.6770    0.0040 
7254.0000  605.3480  605.3480  605.3480  605.3480  605.3480 7254.0000   16.1140    0.0240    0.0049    4.7390    2.6710    0.0049 
7254.5000  667.7920  667.7920  667.7920  667.7920  667.7920 7254.5000   17.4040    0.0210    0.0050    4.7730    2.6670    0.0050 
7255.0000  797.7700  797.7700  797.7700  797.7700  797.7700 7255.0000   17.9200    0.0190    0.0046    4.8280    2.6670    0.0046 
7255.5000 2204.3889 2204.3889 2204.3889 2204.3889 2204.3889 7255.5000   17.4900    0.0200    0.0040    4.8590    2.6720    0.0040 
7256.0000 8967.2549 8967.2549 8967.2549 8967.2549 8967.2549 7256.0000   15.8150    0.0230    0.0032    4.8940    2.6790    0.0032 
7256.5000 14949.2090 14949.2090 14949.2090 14949.2090 14949.2090 7256.5000   13.2700    0.0250    0.0023    4.9470    2.6830    0.0023 
7257.0000 9883.8604 9883.8604 9883.8604 9883.8604 9883.8604 7257.0000   11.9260    0.0270    0.0018    4.9780    2.6850    0.0018 
7257.5000 1732.7340 1732.7340 1732.7340 1732.7340 1732.7340 7257.5000   12.6640    0.0270    0.0020    4.9590    2.6860    0.0020 
7258.0000  516.4590  516.4590  516.4590  516.4590  516.4590 7258.0000   13.9220    0.0250    0.0024    4.8730    2.6830    0.0024 
7258.5000  362.3380  362.3380  362.3380  362.3380  362.3380 7258.5000   14.6980    0.0250    0.0025    4.7990    2.6830    0.0025 
7259.0000  360.2450  360.2450  360.2450  360.2450  360.2450 7259.0000   14.3410    0.0250    0.0022    4.7620    2.6840    0.0022 
7259.5000  382.3710  382.3710  382.3710  382.3710  382.3710 7259.5000   13.8030    0.0250    0.0019    4.7890    2.6870    0.0019 
7260.0000  400.5750  400.5750  400.5750  400.5750  400.5750 7260.0000   14.4430    0.0270    0.0016    4.8420    2.6900    0.0016 
7260.5000  411.3240  411.3240  411.3240  411.3240  411.3240 7260.5000   14.5100    0.0290    0.0017    4.8610    2.6920    0.0017 
7261.0000  457.0050  457.0050  457.0050  457.0050  457.0050 7261.0000   15.2750    0.0300    0.0029    4.7710    2.6910    0.0029 
7261.5000  560.9960  560.9960  560.9960  560.9960  560.9960 7261.5000   15.6800    0.0320    0.0049    4.6490    2.6900    0.0049 
7262.0000  714.0220  714.0220  714.0220  714.0220  714.0220 7262.0000   15.2590    0.0330    0.0067    4.6380    2.6860    0.0067 
7262.5000  920.6850  920.6850  920.6850  920.6850  920.6850 7262.5000   14.7900    0.0330    0.0077    4.6750    2.6790    0.0077 
7263.0000 1081.2020 1081.2020 1081.2020 1081.2020 1081.2020 7263.0000   14.7350    0.0340    0.0079    4.7100    2.6750    0.0079 
7263.5000 1233.3220 1233.3220 1233.3220 1233.3220 1233.3220 7263.5000   15.2860    0.0360    0.0077    4.7070    2.6730    0.0077 
7264.0000 1282.6460 1282.6460 1282.6460 1282.6460 1282.6460 7264.0000   16.2170    0.0390    0.0073    4.6850    2.6790    0.0073 
7264.5000 1148.7061 1148.7061 1148.7061 1148.7061 1148.7061 7264.5000   17.1760    0.0430    0.0073    4.7080    2.6870    0.0073 
7265.0000  850.8330  850.8330  850.8330  850.8330  850.8330 7265.0000   17.5530    0.0460    0.0077    4.7210    2.6950    0.0077 
7265.5000  578.8800  578.8800  578.8800  578.8800  578.8800 7265.5000   17.9160    0.0480    0.0081    4.7080    2.7030    0.0081 
7266.0000  519.6800  519.6800  519.6800  519.6800  519.6800 7266.0000   16.9430    0.0480    0.0078    4.7310    2.7060    0.0078 
7266.5000 2388.4441 2388.4441 2388.4441 2388.4441 2388.4441 7266.5000   15.2440    0.0460    0.0069    4.7890    2.7050    0.0069 
7267.0000 12624.6670 12624.6670 12624.6670 12624.6670 12624.6670 7267.0000   14.2330    0.0430    0.0065    4.8050    2.7010    0.0065 
7267.5000 50002.7734 50002.7734 50002.7734 50002.7734 50002.7734 7267.5000   13.6820    0.0390    0.0072    4.7420    2.6950    0.0072 
7268.0000 33505.7734 33505.7734 33505.7734 33505.7734 33505.7734 7268.0000   14.0130    0.0350    0.0078    4.6380    2.6860    0.0078 
7268.5000 9273.7783 9273.7783 9273.7783 9273.7783 9273.7783 7268.5000   15.7190    0.0330    0.0074    4.6110    2.6820    0.0074 
7269.0000 2080.2749 2080.2749 2080.2749 2080.2749 2080.2749 7269.0000   17.7440    0.0330    0.0067    4.6820    2.6810    0.0067 
7269.5000 1084.3740 1084.3740 1084.3740 1084.3740 1084.3740 7269.5000   19.0640    0.0350    0.0057    4.7240    2.6850    0.0057 
7270.0000 1070.3580 1070.3580 1070.3580 1070.3580 1070.3580 7270.0000   19.9200    0.0360    0.0046    4.7110    2.6900    0.0046 
7270.5000 2348.1489 2348.1489 2348.1489 2348.1489 2348.1489 7270.5000   20.4560    0.0370    0.0035    4.7250    2.6950    0.0035 
