~VERSION INFORMATION
 VERS.                 2.0:   CWLS LOG ASCII STANDARD - VERSION 2.0
 WRAP.                  NO:   SINGLE LINE PER DEPTH STEP
 CREA.                 5/13/2021 1:24:20 AM
#CREATED USING DSPetro VERSION 10ep.4.05.01 BY H227404 ON 5/13/2021 1:24:20 AM
~WELL INFORMATION
#MNEM.UNIT       DATA                          DESCRIPTION MNEMONIC
#---------      ---------------------------   --------------------------
 STRT    .FT        1000.0000                 : START DEPTH
 STOP    .FT        10000.0000                : STOP DEPTH
 STEP    .FT        0.5000                    : STEP VALUE
 NULL    .      -999.0000                     : NULL VALUE
 DATE    .      5/13/2021                     : LAS file Creation Date
 WELL   .      SNRG-0003                             : Well Name
 COMP   .      COLUMBIA NATURAL RESOURCES INC.        : Company
 FLD    .                                             : Field
 STATE  .      OH                                     : State
 COUNT  .      USA                                    : Country
 API    .      SNRG-0003                         : API Number
 UWI    .      SNRG-0003                         : Unique Well Identifier (UWI)
 LOC    .      200'NL & 500'WL OF  SE QTR. SECTION 28 : Location
 EPDAT  .      1135                                   : Elevation of Permanent Datum
 GL     .      1135                                   : GL Elevation
 RWS    .      0                                      : Def_Rw
 WST    .      0                                      : Def_Rwt
 CNTY   .      COLUMBIANA                             : County
 PROV   .                                             : Province
 MDEC   .      0                                      : Magnetic Declination
 SRVC   .      SCH                                    : Contractor
 GDAT   .      (Undefined)                            : Geodatum
 LONG   .      -80.8118599997626                      : Longitude
 LATI   .      40.6594309997559                       : Latitude
 COORDIN.                                             : Grid System
 XCOORD .                                             : X or East-West Coordinate
 YCOORD .                                             : Y or North-South Coordinate
~CURVE INFORMATION
#MNEM              UNIT       API CODE   Curve Type Comments
#----------  --------------- ----------  ---------- -----------
 DEPTH      .FT                        : Depth       
 AO10       .%                         : ShalRes     SNP
 AO20       .%                         : ShalRes     SNP
 AO30       .OHMM                      : MedRes      ILM
 AO60       .OHMM                      : MedRes      ILM
 AORX       .%                         : ShalRes     SNP
 AT10       .%                         : ShalRes     SNP
 AT20       .%                         : ShalRes     SNP
 AT30       .OHMM                      : MedRes      ILM
 AT60       .OHMM                      : MedRes      ILM
 DEPTH      .FT                        : Depth       
 GR         .GAPI                      : GammaRay    GR
 NPHI       .dec                       : Neutron     
 PEFZ       .B/E                       : PEF         PEF
 RHOZ       .G/CC                      : Density     RHOB
 TNPH       .dec                       : Neutron     
~A  DEPTH    AO10      AO20      AO30      AO60      AORX      AT10      AT20      AT30      AT60     DEPTH       GR       NPHI      PEFZ      RHOZ      TNPH   
# ...
5925.0000    0.9521    0.9521  277.5313  277.5313    0.9521    0.9521    0.9521  277.5313  277.5313 5925.0000   17.5195    0.0095    2.4062    2.8480    0.0095 
5925.5000    0.9399    0.9399  272.5469  272.5469    0.9399    0.9399    0.9399  272.5469  272.5469 5925.5000   17.6289    0.0094    2.4199    2.8545    0.0094 
5926.0000    0.9155    0.9155  294.4375  294.4375    0.9155    0.9155    0.9155  294.4375  294.4375 5926.0000   17.8446    0.0092    2.4538    2.8589    0.0092 
5926.5000    0.8911    0.8911  294.0313  294.0313    0.8911    0.8911    0.8911  294.0313  294.0313 5926.5000   17.8420    0.0089    2.4839    2.8606    0.0089 
5927.0000    0.9155    0.9155  284.5898  284.5898    0.9155    0.9155    0.9155  284.5898  284.5898 5927.0000   17.6102    0.0092    2.5400    2.8569    0.0092 
5927.5000    1.0010    1.0010  285.6751  285.6751    1.0010    1.0010    1.0010  285.6751  285.6751 5927.5000   18.3916    0.0100    2.6973    2.8517    0.0100 
5928.0000    1.0864    1.0864  284.9919  284.9919    1.0864    1.0864    1.0864  284.9919  284.9919 5928.0000   20.4785    0.0109    2.8742    2.8473    0.0109 
5928.5000    1.2085    1.2085  271.0699  271.0699    1.2085    1.2085    1.2085  271.0699  271.0699 5928.5000   22.0732    0.0121    2.9770    2.8416    0.0121 
5929.0000    1.4160    1.4160  262.1576  262.1576    1.4160    1.4160    1.4160  262.1576  262.1576 5929.0000   22.5508    0.0142    2.9802    2.8362    0.0142 
5929.5000    1.5625    1.5625  259.0834  259.0834    1.5625    1.5625    1.5625  259.0834  259.0834 5929.5000   22.3477    0.0156    2.9309    2.8315    0.0156 
5930.0000    1.5137    1.5137  267.1235  267.1235    1.5137    1.5137    1.5137  267.1235  267.1235 5930.0000   20.9609    0.0151    2.8894    2.8298    0.0151 
5930.5000    1.3061    1.3061  278.4544  278.4544    1.3061    1.3061    1.3061  278.4544  278.4544 5930.5000   18.2598    0.0131    2.9304    2.8298    0.0131 
5931.0000    1.0498    1.0498  282.0155  282.0155    1.0498    1.0498    1.0498  282.0155  282.0155 5931.0000   15.1855    0.0105    3.0989    2.8295    0.0105 
5931.5000    0.8789    0.8789  283.9312  283.9312    0.8789    0.8789    0.8789  283.9312  283.9312 5931.5000   13.6934    0.0088    3.2336    2.8253    0.0088 
5932.0000    0.7935    0.7935  275.0078  275.0078    0.7935    0.7935    0.7935  275.0078  275.0078 5932.0000   14.2988    0.0079    3.1416    2.8166    0.0079 
5932.5000    0.7446    0.7446  269.6406  269.6406    0.7446    0.7446    0.7446  269.6406  269.6406 5932.5000   15.7969    0.0074    2.9009    2.8091    0.0074 
5933.0000    0.7568    0.7568  263.5938  263.5938    0.7568    0.7568    0.7568  263.5938  263.5938 5933.0000   17.9648    0.0076    2.6998    2.8120    0.0076 
5933.5000    0.8179    0.8179  252.5625  252.5625    0.8179    0.8179    0.8179  252.5625  252.5625 5933.5000   21.6211    0.0082    2.5972    2.8354    0.0082 
5934.0000    0.8911    0.8911  245.5117  245.5117    0.8911    0.8911    0.8911  245.5117  245.5117 5934.0000   25.1113    0.0089    2.5509    2.8626    0.0089 
5934.5000    0.9644    0.9644  244.4697  244.4697    0.9644    0.9644    0.9644  244.4697  244.4697 5934.5000   26.0332    0.0096    2.5497    2.8686    0.0096 
5935.0000    1.0254    1.0254  248.0195  248.0195    1.0254    1.0254    1.0254  248.0195  248.0195 5935.0000   24.2207    0.0103    2.5874    2.8595    0.0103 
5935.5000    1.0742    1.0742  251.5078  251.5078    1.0742    1.0742    1.0742  251.5078  251.5078 5935.5000   21.2266    0.0107    2.6234    2.8480    0.0107 
5936.0000    1.1475    1.1475  255.0508  255.0508    1.1475    1.1475    1.1475  255.0508  255.0508 5936.0000   19.4453    0.0115    2.6408    2.8370    0.0115 
5936.5000    1.2085    1.2085  255.2744  255.2744    1.2085    1.2085    1.2085  255.2744  255.2744 5936.5000   20.3027    0.0121    2.6523    2.8328    0.0121 
5937.0000    1.1597    1.1597  251.4609  251.4609    1.1597    1.1597    1.1597  251.4609  251.4609 5937.0000   23.3164    0.0116    2.6615    2.8387    0.0116 
5937.5000    1.0864    1.0864  244.6094  244.6094    1.0864    1.0864    1.0864  244.6094  244.6094 5937.5000   27.5273    0.0109    2.6465    2.8491    0.0109 
5938.0000    1.1719    1.1719  236.0000  236.0000    1.1719    1.1719    1.1719  236.0000  236.0000 5938.0000   31.9844    0.0117    2.5852    2.8590    0.0117 
5938.5000    1.4648    1.4648  226.2031  226.2031    1.4648    1.4648    1.4648  226.2031  226.2031 5938.5000   35.6563    0.0146    2.4990    2.8673    0.0146 
5939.0000    1.8311    1.8311  215.1406  215.1406    1.8311    1.8311    1.8311  215.1406  215.1406 5939.0000   37.8242    0.0183    2.4470    2.8683    0.0183 
5939.5000    2.0630    2.0630  202.6707  202.6707    2.0630    2.0630    2.0630  202.6707  202.6707 5939.5000   38.2012    0.0206    2.4838    2.8568    0.0206 
5940.0000    2.0752    2.0752  194.0763  194.0763    2.0752    2.0752    2.0752  194.0763  194.0763 5940.0000   36.9063    0.0208    2.6414    2.8396    0.0208 
5940.5000    1.8555    1.8555  200.5012  200.5012    1.8555    1.8555    1.8555  200.5012  200.5012 5940.5000   34.0859    0.0186    2.8909    2.8283    0.0186 
5941.0000    1.5259    1.5259  214.1174  214.1174    1.5259    1.5259    1.5259  214.1174  214.1174 5941.0000   29.2617    0.0153    3.1071    2.8239    0.0153 
5941.5000    1.3184    1.3184  225.8305  225.8305    1.3184    1.3184    1.3184  225.8305  225.8305 5941.5000   23.1016    0.0132    3.1403    2.8025    0.0132 
5942.0000    1.2451    1.2451  235.4776  235.4776    1.2451    1.2451    1.2451  235.4776  235.4776 5942.0000   18.8594    0.0125    2.9517    2.7310    0.0125 
5942.5000    1.1963    1.1963  250.6660  250.6660    1.1963    1.1963    1.1963  250.6660  250.6660 5942.5000   19.6719    0.0120    2.6834    2.6450    0.0120 
5943.0000    1.2085    1.2085  263.6535  263.6535    1.2085    1.2085    1.2085  263.6535  263.6535 5943.0000   27.0273    0.0121    2.5777    2.6435    0.0121 
5943.5000    1.4160    1.4160  254.1628  254.1628    1.4160    1.4160    1.4160  254.1628  254.1628 5943.5000   38.1289    0.0142    2.7266    2.7415    0.0142 
5944.0000    1.7944    1.7944  224.7734  224.7734    1.7944    1.7944    1.7944  224.7734  224.7734 5944.0000   49.1484    0.0179    2.9251    2.8255    0.0179 
5944.5000    2.1851    2.1851  198.4104  198.4104    2.1851    2.1851    2.1851  198.4104  198.4104 5944.5000   56.9453    0.0219    2.9673    2.8360    0.0219 
5945.0000    2.4780    2.4780  184.4777  184.4777    2.4780    2.4780    2.4780  184.4777  184.4777 5945.0000   57.1882    0.0248    2.8658    2.8256    0.0248 
5945.5000    2.6001    2.6001  182.4014  182.4014    2.6001    2.6001    2.6001  182.4014  182.4014 5945.5000   50.5391    0.0260    2.7144    2.8281    0.0260 
5946.0000    2.4780    2.4780  195.0157  195.0157    2.4780    2.4780    2.4780  195.0157  195.0157 5946.0000   40.1719    0.0248    2.6161    2.8371    0.0248 
5946.5000    2.1240    2.1240  214.4360  214.4360    2.1240    2.1240    2.1240  214.4360  214.4360 5946.5000   30.0313    0.0212    2.5969    2.8449    0.0212 
5947.0000    1.7822    1.7822  225.8790  225.8790    1.7822    1.7822    1.7822  225.8790  225.8790 5947.0000   23.3008    0.0178    2.5813    2.8473    0.0178 
5947.5000    1.5869    1.5869  222.5040  222.5040    1.5869    1.5869    1.5869  222.5040  222.5040 5947.5000   20.9421    0.0159    2.5064    2.8450    0.0159 
5948.0000    1.4648    1.4648  218.5156  218.5156    1.4648    1.4648    1.4648  218.5156  218.5156 5948.0000   21.8008    0.0146    2.4166    2.8423    0.0146 
5948.5000    1.2939    1.2939  234.2656  234.2656    1.2939    1.2939    1.2939  234.2656  234.2656 5948.5000   23.5264    0.0129    2.4221    2.8421    0.0129 
5949.0000    1.0864    1.0864  250.6523  250.6523    1.0864    1.0864    1.0864  250.6523  250.6523 5949.0000   24.2258    0.0109    2.5151    2.8466    0.0109 
5949.5000    1.0254    1.0254  245.3594  245.3594    1.0254    1.0254    1.0254  245.3594  245.3594 5949.5000   24.0469    0.0103    2.6205    2.8521    0.0103 
