~Version ---------------------------------------------------
VERS.   2.0 : CWLS log ASCII Standard -VERSION 2.0
WRAP.    NO : One line per depth step
DLM . SPACE : Column Data Section Delimiter
~Well ------------------------------------------------------
STRT  .m                                 0.0 : START DEPTH
STOP  .m                   11221024.30872697 : STOP DEPTH
STEP  .m                           623.56345 : STEP
NULL  .                                 -999 : NULL VALUE
COMP  .      Range Resources Appalachia, LLC : COMPANY
WELL  .                            SNRG-0001 : WELL
FLD   .                                      : FIELD
LOC   . 750'SL & 1060'EL OF NW QTR., SEC. 30 : LOCATION
PROV  .                                      : PROVINCE
CNTY  .                              Carroll : COUNTY
STAT  .                                      : STATE
CTRY  .                                      : COUNTRY
SRVC  .                                      : SERVICE COMPANY
DATE  .           2021-07-11 01:47:10.230360 : DATE
UWI   .                            SNRG-0001 : UNIQUE WELL ID
API   .                            SNRG-0001 : API NUMBER
LIC   .                                      : 
LATI  .                     40.6472950002882 : 
LONG  .                    -81.2941990004645 : 
NS    .                                      : 
EW    .                                      : 
XCOORD.                                      : 
YCOORD.                                      : 
GDAT  .                          (Undefined) : 
SECT  .                                      : 
RANG  .                                      : 
TOWN  .                                      : 
~Curve Information -----------------------------------------
DEPT.m     : 
AO10.OHMM  : ShalRes     Shallow Laterolog
AO20.OHMM  : ShalRes     Shallow Laterolog
AORX.OHMM  : ShalRes     Shallow Laterolog
AT10.OHMM  : ShalRes     Shallow Laterolog
AT20.OHMM  : ShalRes     Shallow Laterolog
GR  .GAPI  : GammaRay    Gamma Ray
HDRA.G/C3  : Drho        Density Correction
NPHI.dec   : Neutron
PEFZ.B/E   : PEF         PE
RHOZ.G/C3  : Density     Compensated Density
TNPH.dec   : Neutron
~Params ----------------------------------------------------
EKB.      : 
EGL.      : 
KB .      : 
GL .      : 
TD .      : 
TDD.      : 
TDL.      : 
~Other -----------------------------------------------------
~ASCII -----------------------------------------------------
# ...
 10013181.90328   64.69450   64.69450   64.69450   64.69450   64.69450   15.46880    0.15132    0.09584    3.15892    2.60487    0.09584
 10013805.46673   59.23620   59.23620   59.23620   59.23620   59.23620   16.15963    0.17120    0.09895    3.21802    2.59624    0.09895
 10014429.03018   58.19030   58.19030   58.19030   58.19030   58.19030   16.94912    0.18304    0.09563    3.28336    2.61138    0.09563
 10015052.59364   58.99272   58.99272   58.99272   58.99272   58.99272   16.55867    0.18588    0.09045    3.30545    2.63640    0.09045
 10015676.15709   61.00705   61.00705   61.00705   61.00705   61.00705   15.14088    0.17774    0.08678    3.26970    2.66230    0.08678
 10016299.72054   62.27602   62.27602   62.27602   62.27602   62.27602   14.25680    0.16066    0.08536    3.18764    2.68121    0.08536
 10016923.28399   58.26740   58.26740   58.26740   58.26740   58.26740   14.57508    0.13863    0.08958    3.16543    2.69418    0.08958
 10017546.84744   50.38700   50.38700   50.38700   50.38700   50.38700   15.78551    0.11464    0.10063    3.19288    2.70513    0.10063
 10018170.41089   42.78453   42.78453   42.78453   42.78453   42.78453   16.44485    0.09170    0.11512    3.18438    2.71418    0.11512
 10018793.97434   38.94574   38.94574   38.94574   38.94574   38.94574   16.30822    0.07279    0.12262    3.14431    2.72525    0.12262
 10019417.53780   40.86301   40.86301   40.86301   40.86301   40.86301   16.25523    0.05992    0.11670    3.10076    2.74125    0.11670
 10020041.10125   44.14904   44.14904   44.14904   44.14904   44.14904   16.02866    0.05399    0.10447    3.08678    2.75712    0.10447
 10020664.66470   45.19174   45.19174   45.19174   45.19174   45.19174   16.78657    0.05304    0.09579    3.13757    2.76504    0.09579
 10021288.22815   43.19954   43.19954   43.19954   43.19954   43.19954   18.54829    0.05607    0.09537    3.23696    2.76804    0.09537
 10021911.79160   41.34876   41.34876   41.34876   41.34876   41.34876   20.54892    0.06101    0.10022    3.29832    2.77101    0.10022
 10022535.35505   46.19806   46.19806   46.19806   46.19806   46.19806   22.89063    0.06194    0.10137    3.31801    2.77203    0.10137
 10023158.91850   66.42103   66.42103   66.42103   66.42103   66.42103   24.37657    0.05796    0.09254    3.31929    2.77396    0.09254
 10023782.48196  119.52123  119.52123  119.52123  119.52123  119.52123   24.32713    0.05520    0.07554    3.33788    2.77082    0.07554
 10024406.04541  212.85906  212.85906  212.85906  212.85906  212.85906   22.73861    0.06753    0.05917    3.39316    2.75947    0.05917
 10025029.60886  310.25698  310.25698  310.25698  310.25698  310.25698   20.94644    0.10071    0.05036    3.40172    2.72634    0.05036
 10025653.17231  352.59067  352.59067  352.59067  352.59067  352.59067   20.36405    0.14661    0.04721    3.31964    2.68442    0.04721
 10026276.73576  351.00542  351.00542  351.00542  351.00542  351.00542   21.72176    0.18522    0.04766    3.17020    2.64775    0.04766
 10026900.29921  351.57072  351.57072  351.57072  351.57072  351.57072   24.17204    0.19868    0.05211    3.05700    2.63218    0.05211
 10027523.86266  358.47820  358.47820  358.47820  358.47820  358.47820   25.22039    0.17841    0.05926    3.05857    2.64354    0.05926
 10028147.42612  349.66652  349.66652  349.66652  349.66652  349.66652   23.63827    0.14038    0.06343    3.15833    2.67761    0.06343
 10028770.98957  288.96990  288.96990  288.96990  288.96990  288.96990   21.13729    0.10062    0.05846    3.24176    2.71653    0.05846
 10029394.55302  214.54714  214.54714  214.54714  214.54714  214.54714   20.79947    0.07593    0.04942    3.22642    2.74921    0.04942
 10030018.11647  154.39620  154.39620  154.39620  154.39620  154.39620   22.28459    0.07104    0.04370    3.18954    2.76206    0.04370
 10030641.67992  115.73977  115.73977  115.73977  115.73977  115.73977   23.00424    0.07403    0.04407    3.16022    2.76596    0.04407
 10031265.24337   95.38670   95.38670   95.38670   95.38670   95.38670   22.37969    0.07601    0.04937    3.17465    2.76296    0.04937
 10031888.80682   82.80444   82.80444   82.80444   82.80444   82.80444   21.55262    0.07701    0.05431    3.21639    2.75988    0.05431
 10032512.37028   73.73931   73.73931   73.73931   73.73931   73.73931   22.16827    0.07807    0.05517    3.24122    2.75191    0.05517
 10033135.93373   65.75071   65.75071   65.75071   65.75071   65.75071   23.00411    0.08311    0.05318    3.25491    2.74589    0.05318
 10033759.49718   58.99876   58.99876   58.99876   58.99876   58.99876   23.12058    0.09007    0.05181    3.24884    2.73880    0.05181
 10034383.06063   53.46123   53.46123   53.46123   53.46123   53.46123   21.93330    0.09506    0.05284    3.23866    2.72680    0.05284
 10035006.62408   49.20812   49.20812   49.20812   49.20812   49.20812   19.79418    0.09901    0.05606    3.21621    2.71482    0.05606
 10035630.18753   44.89985   44.89985   44.89985   44.89985   44.89985   18.16882    0.09999    0.06076    3.16502    2.70400    0.06076
 10036253.75098   41.61982   41.61982   41.61982   41.61982   41.61982   17.92352    0.09897    0.06535    3.10303    2.70424    0.06535
 10036877.31444   41.32245   41.32245   41.32245   41.32245   41.32245   19.17415    0.09691    0.06882    3.10611    2.71933    0.06882
 10037500.87789   47.90086   47.90086   47.90086   47.90086   47.90086   20.96361    0.09088    0.07049    3.17629    2.74036    0.07049
 10038124.44134   62.86620   62.86620   62.86620   62.86620   62.86620   22.59109    0.08287    0.06979    3.25757    2.76328    0.06979
 10038748.00479   73.92955   73.92955   73.92955   73.92955   73.92955   23.98229    0.07392    0.06902    3.29260    2.78082    0.06902
 10039371.56824   56.39531   56.39531   56.39531   56.39531   56.39531   24.36861    0.06803    0.07025    3.26673    2.76939    0.07025
 10039995.13169   29.42102   29.42102   29.42102   29.42102   29.42102   23.79041    0.07022    0.07392    3.24951    2.73010    0.07392
 10040618.69514   14.92155   14.92155   14.92155   14.92155   14.92155   24.59100    0.08432    0.08231    3.21789    2.67316    0.08231
 10041242.25860    9.74804    9.74804    9.74804    9.74804    9.74804   26.17090    0.10433    0.09519    3.14789    2.61972    0.09519
 10041865.82205    9.67372    9.67372    9.67372    9.67372    9.67372   26.97698    0.12518    0.10663    3.07883    2.60220    0.10663
 10042489.38550   13.29078   13.29078   13.29078   13.29078   13.29078   26.76799    0.13596    0.10870    3.06872    2.61470    0.10870
 10043112.94895   31.47504   31.47504   31.47504   31.47504   31.47504   25.36636    0.13275    0.09600    3.11449    2.65974    0.09600
 10043736.51240   82.13288   82.13288   82.13288   82.13288   82.13288   23.87123    0.11667    0.07758    3.14511    2.70743    0.07758
 10044360.07585  174.25236  174.25236  174.25236  174.25236  174.25236   23.00070    0.09575    0.06420    3.15200    2.73506    0.06420
 10044983.63930  200.65342  200.65342  200.65342  200.65342  200.65342   22.48667    0.07994    0.05769    3.15229    2.73887    0.05769
 10045607.20276  118.70841  118.70841  118.70841  118.70841  118.70841   22.99373    0.07612    0.05683    3.17279    2.72992    0.05683
 10046230.76621   55.20086   55.20086   55.20086   55.20086   55.20086   24.87075    0.08425    0.05928    3.35198    2.72403    0.05928
 10046854.32966   27.02312   27.02312   27.02312   27.02312   27.02312   25.78424    0.10021    0.06492    3.60274    2.72607    0.06492
 10047477.89311   16.83243   16.83243   16.83243   16.83243   16.83243   25.02138    0.11311    0.07302    3.71037    2.73106    0.07302
 10048101.45656   13.85341   13.85341   13.85341   13.85341   13.85341   23.13520    0.12000    0.08127    3.60486    2.73512    0.08127
 10048725.02001   14.11384   14.11384   14.11384   14.11384   14.11384   21.07139    0.11989    0.08588    3.34357    2.74309    0.08588
 10049348.58346   17.51981   17.51981   17.51981   17.51981   17.51981   20.53681    0.11282    0.08400    3.19040    2.74921    0.08400
