~Version ---------------------------------------------------
VERS.   2.0 : CWLS log ASCII Standard -VERSION 2.0
WRAP.    NO : One line per depth step
DLM . SPACE : Column Data Section Delimiter
~Well ------------------------------------------------------
STRT  .m                                 0.0 : START DEPTH
STOP  .m                   11221024.30872697 : STOP DEPTH
STEP  .m                           623.56345 : STEP
NULL  .                                 -999 : NULL VALUE
COMP  .      Range Resources Appalachia, LLC : COMPANY
WELL  .                            SNRG-0001 : WELL
FLD   .                                      : FIELD
LOC   . 750'SL & 1060'EL OF NW QTR., SEC. 30 : LOCATION
PROV  .                                      : PROVINCE
CNTY  .                              Carroll : COUNTY
STAT  .                                      : STATE
CTRY  .                                      : COUNTRY
SRVC  .                                      : SERVICE COMPANY
DATE  .           2021-07-11 01:47:10.230360 : DATE
UWI   .                            SNRG-0001 : UNIQUE WELL ID
API   .                            SNRG-0001 : API NUMBER
LIC   .                                      : 
LATI  .                     40.6472950002882 : 
LONG  .                    -81.2941990004645 : 
NS    .                                      : 
EW    .                                      : 
XCOORD.                                      : 
YCOORD.                                      : 
GDAT  .                          (Undefined) : 
SECT  .                                      : 
RANG  .                                      : 
TOWN  .                                      : 
~Curve Information -----------------------------------------
DEPT.m     : 
AO10.OHMM  : ShalRes     Shallow Laterolog
AO20.OHMM  : ShalRes     Shallow Laterolog
AORX.OHMM  : ShalRes     Shallow Laterolog
AT10.OHMM  : ShalRes     Shallow Laterolog
AT20.OHMM  : ShalRes     Shallow Laterolog
GR  .GAPI  : GammaRay    Gamma Ray
HDRA.G/C3  : Drho        Density Correction
NPHI.dec   : Neutron
PEFZ.B/E   : PEF         PE
RHOZ.G/C3  : Density     Compensated Density
TNPH.dec   : Neutron
~Params ----------------------------------------------------
EKB.      : 
EGL.      : 
KB .      : 
GL .      : 
TD .      : 
TDD.      : 
TDL.      : 
~Other -----------------------------------------------------
~ASCII -----------------------------------------------------
# ...
 10710325.84199 3963.91027 3963.91027 3963.91027 3963.91027 3963.91027   59.89162    0.03203    0.01075    3.27558    2.75214    0.01075
 10710949.40545 4875.23544 4875.23544 4875.23544 4875.23544 4875.23544   57.15123    0.03403    0.00712    3.42906    2.76131    0.00712
 10711572.96890 12779.21686 12779.21686 12779.21686 12779.21686 12779.21686   48.28016    0.03603    0.00838    3.54965    2.77932    0.00838
 10712196.53235 35097.25724 35097.25724 35097.25724 35097.25724 35097.25724   39.68049    0.03800    0.01380    3.52688    2.79813    0.01380
 10712820.09580 83173.20844 83173.20844 83173.20844 83173.20844 83173.20844   37.81120    0.03799    0.01986    3.40009    2.80594    0.01986
 10713443.65925 100544.20687 100544.20687 100544.20687 100544.20687 100544.20687   44.57331    0.03697    0.02362    3.28739    2.80179    0.02362
 10714067.22270 67077.90405 67077.90405 67077.90405 67077.90405 67077.90405   55.95089    0.03497    0.02492    3.25192    2.78981    0.02492
 10714690.78615 42160.11230 42160.11230 42160.11230 42160.11230 42160.11230   61.22269    0.03297    0.02613    3.30728    2.77897    0.02613
 10715314.34961 28394.39963 28394.39963 28394.39963 28394.39963 28394.39963   56.57783    0.03100    0.02802    3.38238    2.77710    0.02802
 10715937.91306 16631.43924 16631.43924 16631.43924 16631.43924 16631.43924   45.73790    0.03100    0.02919    3.40420    2.78321    0.02919
 10716561.47651 10222.89179 10222.89179 10222.89179 10222.89179 10222.89179   36.46653    0.03103    0.02858    3.35609    2.79519    0.02858
 10717185.03996 5417.73504 5417.73504 5417.73504 5417.73504 5417.73504   33.60903    0.03301    0.02696    3.30278    2.80596    0.02696
 10717808.60341 4016.59088 4016.59088 4016.59088 4016.59088 4016.59088   36.89973    0.03401    0.02424    3.28997    2.80279    0.02424
 10718432.16686 3579.64186 3579.64186 3579.64186 3579.64186 3579.64186   44.79321    0.03500    0.01979    3.28711    2.79062    0.01979
 10719055.73031 3238.97270 3238.97270 3238.97270 3238.97270 3238.97270   51.39456    0.03499    0.01288    3.23405    2.76761    0.01288
 10719679.29377 3201.27085 3201.27085 3201.27085 3201.27085 3201.27085   56.11470    0.03399    0.00573    3.17796    2.74373    0.00573
 10720302.85722 5757.61934 5757.61934 5757.61934 5757.61934 5757.61934   59.28933    0.03294    0.00099    3.17701    2.72790    0.00099
 10720926.42067 16577.87703 16577.87703 16577.87703 16577.87703 16577.87703   60.68016    0.02894    0.00015    3.29593    2.72213    0.00015
 10721549.98412 49232.36758 49232.36758 49232.36758 49232.36758 49232.36758   58.03178    0.02496    0.00329    3.40960    2.73025    0.00329
 10722173.54757 108188.02052 108188.02052 108188.02052 108188.02052 108188.02052   49.14958    0.02196    0.00891    3.44487    2.74524    0.00891
 10722797.11102 108055.57489 108055.57489 108055.57489 108055.57489 108055.57489   41.02195    0.01900    0.01559    3.43580    2.75911    0.01559
 10723420.67448 99515.76356 99515.76356 99515.76356 99515.76356 99515.76356   41.06438    0.01904    0.02124    3.36554    2.76601    0.02124
 10724044.23793 49424.64984 49424.64984 49424.64984 49424.64984 49424.64984   51.97951    0.02204    0.02410    3.33802    2.76690    0.02410
 10724667.80138 18764.29328 18764.29328 18764.29328 18764.29328 18764.29328   65.98724    0.02507    0.02428    3.33978    2.76094    0.02428
 10725291.36483 6687.37474 6687.37474 6687.37474 6687.37474 6687.37474   74.37363    0.03004    0.02277    3.38663    2.75690    0.02277
 10725914.92828 3881.49123 3881.49123 3881.49123 3881.49123 3881.49123   76.93638    0.03303    0.02056    3.42389    2.75099    0.02056
 10726538.49173 3282.86408 3282.86408 3282.86408 3282.86408 3282.86408   77.11147    0.03503    0.01765    3.41800    2.75007    0.01765
 10727162.05518 2979.41391 2979.41391 2979.41391 2979.41391 2979.41391   75.46397    0.03700    0.01394    3.47894    2.75506    0.01394
 10727785.61864 3065.16734 3065.16734 3065.16734 3065.16734 3065.16734   69.36547    0.03699    0.00985    3.59433    2.75903    0.00985
 10728409.18209 3222.09118 3222.09118 3222.09118 3222.09118 3222.09118   61.97095    0.03597    0.00656    3.67128    2.76089    0.00656
 10729032.74554 3715.29810 3715.29810 3715.29810 3715.29810 3715.29810   60.13753    0.03397    0.00417    3.62696    2.75379    0.00417
 10729656.30899 4049.57077 4049.57077 4049.57077 4049.57077 4049.57077   67.22848    0.03197    0.00228    3.50727    2.74176    0.00228
 10730279.87244 4406.15387 4406.15387 4406.15387 4406.15387 4406.15387   76.29597    0.02999    0.00101    3.46467    2.72790    0.00101
 10730903.43589 5009.17912 5009.17912 5009.17912 5009.17912 5009.17912   76.55629    0.02897    0.00196    3.50397    2.72204    0.00196
 10731526.99934 5682.98657 5682.98657 5682.98657 5682.98657 5682.98657   66.55354    0.02700    0.00602    3.50080    2.72525    0.00602
 10732150.56280 6868.87489 6868.87489 6868.87489 6868.87489 6868.87489   51.52999    0.02701    0.01323    3.42996    2.74031    0.01323
 10732774.12625 8157.86789 8157.86789 8157.86789 8157.86789 8157.86789   41.12661    0.02801    0.02130    3.36851    2.75821    0.02130
 10733397.68970 9219.42910 9219.42910 9219.42910 9219.42910 9219.42910   39.72899    0.02901    0.02725    3.34006    2.77010    0.02725
 10734021.25315 10734.31603 10734.31603 10734.31603 10734.31603 10734.31603   41.92738    0.03001    0.03031    3.34375    2.77601    0.03031
 10734644.81660 11481.58996 11481.58996 11481.58996 11481.58996 11481.58996   43.86586    0.03099    0.03069    3.32841    2.77699    0.03069
 10735268.38005 10284.92153 10284.92153 10284.92153 10284.92153 10284.92153   42.59109    0.02999    0.03030    3.29359    2.77600    0.03030
 10735891.94350 6696.61908 6696.61908 6696.61908 6696.61908 6696.61908   40.21491    0.02900    0.03051    3.26889    2.77604    0.03051
 10736515.50696 4121.85959 4121.85959 4121.85959 4121.85959 4121.85959   37.82941    0.02903    0.03131    3.26225    2.77899    0.03131
 10737139.07041 2793.20001 2793.20001 2793.20001 2793.20001 2793.20001   39.51989    0.03107    0.03210    3.27700    2.77789    0.03210
 10737762.63386 2053.46147 2053.46147 2053.46147 2053.46147 2053.46147   49.09860    0.03606    0.03217    3.27595    2.77068    0.03217
 10738386.19731 1346.81478 1346.81478 1346.81478 1346.81478 1346.81478   62.83787    0.04004    0.03025    3.21302    2.75158    0.03025
 10739009.76076  867.16848  867.16848  867.16848  867.16848  867.16848   73.60899    0.04300    0.02687    3.09577    2.72569    0.02687
 10739633.32421  659.73340  659.73340  659.73340  659.73340  659.73340   73.06344    0.04296    0.02483    3.02429    2.70796    0.02483
 10740256.88766  706.74674  706.74674  706.74674  706.74674  706.74674   64.00827    0.03997    0.02667    3.04234    2.70529    0.02667
 10740880.45112  980.52098  980.52098  980.52098  980.52098  980.52098   52.53724    0.03797    0.03105    3.12233    2.72242    0.03105
 10741504.01457 1796.52372 1796.52372 1796.52372 1796.52372 1796.52372   44.81928    0.03599    0.03420    3.20032    2.74834    0.03420
 10742127.57802 3278.09753 3278.09753 3278.09753 3278.09753 3278.09753   45.11568    0.03501    0.03436    3.21856    2.76814    0.03436
 10742751.14147 5060.93181 5060.93181 5060.93181 5060.93181 5060.93181   52.13642    0.03601    0.03186    3.19203    2.77699    0.03186
 10743374.70492 6046.99203 6046.99203 6046.99203 6046.99203 6046.99203   60.46660    0.03699    0.02919    3.19481    2.77594    0.02919
 10743998.26837 7146.28455 7146.28455 7146.28455 7146.28455 7146.28455   63.28382    0.03600    0.02831    3.24420    2.77204    0.02831
 10744621.83182 9559.31337 9559.31337 9559.31337 9559.31337 9559.31337   57.30206    0.03600    0.02881    3.31481    2.77518    0.02881
 10745245.39528 9797.07949 9797.07949 9797.07949 9797.07949 9797.07949   45.89248    0.03601    0.02980    3.36306    2.78522    0.02980
 10745868.95873 7922.27770 7922.27770 7922.27770 7922.27770 7922.27770   38.86762    0.03704    0.02987    3.36711    2.79804    0.02987
