~Version ---------------------------------------------------
VERS.   2.0 : CWLS log ASCII Standard -VERSION 2.0
WRAP.    NO : One line per depth step
DLM . SPACE : Column Data Section Delimiter
~Well ------------------------------------------------------
STRT  .m                                 0.0 : START DEPTH
STOP  .m                   11221024.30872697 : STOP DEPTH
STEP  .m                           623.56345 : STEP
NULL  .                                 -999 : NULL VALUE
COMP  .      Range Resources Appalachia, LLC : COMPANY
WELL  .                            SNRG-0001 : WELL
FLD   .                                      : FIELD
LOC   . 750'SL & 1060'EL OF NW QTR., SEC. 30 : LOCATION
PROV  .                                      : PROVINCE
CNTY  .                              Carroll : COUNTY
STAT  .                                      : STATE
CTRY  .                                      : COUNTRY
SRVC  .                                      : SERVICE COMPANY
DATE  .           2021-07-11 01:47:10.230360 : DATE
UWI   .                            SNRG-0001 : UNIQUE WELL ID
API   .                            SNRG-0001 : API NUMBER
LIC   .                                      : 
LATI  .                     40.6472950002882 : 
LONG  .                    -81.2941990004645 : 
NS    .                                      : 
EW    .                                      : 
XCOORD.                                      : 
YCOORD.                                      : 
GDAT  .                          (Undefined) : 
SECT  .                                      : 
RANG  .                                      : 
TOWN  .                                      : 
~Curve Information -----------------------------------------
DEPT.m     : 
AO10.OHMM  : ShalRes     Shallow Laterolog
AO20.OHMM  : ShalRes     Shallow Laterolog
AORX.OHMM  : ShalRes     Shallow Laterolog
AT10.OHMM  : ShalRes     Shallow Laterolog
AT20.OHMM  : ShalRes     Shallow Laterolog
GR  .GAPI  : GammaRay    Gamma Ray
HDRA.G/C3  : Drho        Density Correction
NPHI.dec   : Neutron
PEFZ.B/E   : PEF         PE
RHOZ.G/C3  : Density     Compensated Density
TNPH.dec   : Neutron
~Params ----------------------------------------------------
EKB.      : 
EGL.      : 
KB .      : 
GL .      : 
TD .      : 
TDD.      : 
TDL.      : 
~Other -----------------------------------------------------
~ASCII -----------------------------------------------------
# ...
 8000319.08202 2177.15477 2177.15477 2177.15477 2177.15477 2177.15477  145.18227    0.04799    0.19546    3.83557    2.60596    0.19546
 8000942.64547 2866.80819 2866.80819 2866.80819 2866.80819 2866.80819  141.52813    0.04698    0.20105    3.80027    2.60190    0.20105
 8001566.20892 3306.43710 3306.43710 3306.43710 3306.43710 3306.43710  137.72913    0.04497    0.20539    3.74165    2.59390    0.20539
 8002189.77238 3238.51616 3238.51616 3238.51616 3238.51616 3238.51616  136.07593    0.04197    0.20408    3.71389    2.58586    0.20408
 8002813.33583 2592.40418 2592.40418 2592.40418 2592.40418 2592.40418  135.60339    0.03898    0.20242    3.70506    2.57393    0.20242
 8003436.89928 1971.73685 1971.73685 1971.73685 1971.73685 1971.73685  136.11148    0.03700    0.20422    3.71004    2.56797    0.20422
 8004060.46273 1341.01022 1341.01022 1341.01022 1341.01022 1341.01022  136.47151    0.03700    0.20611    3.71403    2.56503    0.20611
 8004684.02618 1103.63903 1103.63903 1103.63903 1103.63903 1103.63903  136.97115    0.03700    0.20731    3.71726    2.56803    0.20731
 8005307.58963  978.48812  978.48812  978.48812  978.48812  978.48812  135.61655    0.03701    0.20841    3.73837    2.57110    0.20841
 8005931.15308  934.38734  934.38734  934.38734  934.38734  934.38734  133.49955    0.03801    0.20906    3.76837    2.57908    0.20906
 8006554.71654 1028.93851 1028.93851 1028.93851 1028.93851 1028.93851  130.88572    0.03899    0.20554    3.79859    2.58608    0.20554
 8007178.27999 1209.89431 1209.89431 1209.89431 1209.89431 1209.89431  126.15782    0.03801    0.19303    3.84535    2.59311    0.19303
 8007801.84344 1330.70795 1330.70795 1330.70795 1330.70795 1330.70795  121.69821    0.03900    0.17974    3.87304    2.60210    0.17974
 8008425.40689 1285.09440 1285.09440 1285.09440 1285.09440 1285.09440  119.34195    0.03900    0.17481    3.87680    2.61007    0.17481
 8009048.97034 1080.39291 1080.39291 1080.39291 1080.39291 1080.39291  118.85852    0.03901    0.17530    3.86201    2.61603    0.17530
 8009672.53379  933.30364  933.30364  933.30364  933.30364  933.30364  118.34898    0.04001    0.17507    3.86352    2.61903    0.17507
 8010296.09724  854.55353  854.55353  854.55353  854.55353  854.55353  118.51179    0.04101    0.17258    3.90426    2.62203    0.17258
 8010919.66070  821.13396  821.13396  821.13396  821.13396  821.13396  119.05669    0.04202    0.17090    3.92513    2.62506    0.17090
 8011543.22415  913.81446  913.81446  913.81446  913.81446  913.81446  119.81593    0.04402    0.17110    3.93600    2.63003    0.17110
 8012166.78760 1185.09215 1185.09215 1185.09215 1185.09215 1185.09215  119.40690    0.04600    0.17130    3.93626    2.63302    0.17130
 8012790.35105 1614.28141 1614.28141 1614.28141 1614.28141 1614.28141  118.59791    0.04598    0.17141    3.95730    2.63496    0.17141
 8013413.91450 1867.12062 1867.12062 1867.12062 1867.12062 1867.12062  117.49498    0.04398    0.17217    3.98100    2.63093    0.17217
 8014037.47795 1742.88274 1742.88274 1742.88274 1742.88274 1742.88274  118.21762    0.04197    0.16933    3.98074    2.62490    0.16933
 8014661.04140 1460.45290 1460.45290 1460.45290 1460.45290 1460.45290  119.45567    0.03899    0.16343    3.95957    2.61698    0.16343
 8015284.60486 1285.07299 1285.07299 1285.07299 1285.07299 1285.07299  119.97338    0.03800    0.15686    3.92451    2.61499    0.15686
 8015908.16831 1163.28328 1163.28328 1163.28328 1163.28328 1163.28328  119.15227    0.03801    0.15374    3.88635    2.61402    0.15374
 8016531.73176 1060.13436 1060.13436 1060.13436 1060.13436 1060.13436  113.40552    0.03899    0.15714    3.91558    2.61602    0.15714
 8017155.29521 1142.18399 1142.18399 1142.18399 1142.18399 1142.18399  105.18375    0.03799    0.16040    4.04080    2.61799    0.16040
 8017778.85866 1435.61423 1435.61423 1435.61423 1435.61423 1435.61423   99.32200    0.03698    0.16038    4.10374    2.61694    0.16038
 8018402.42211 1677.98718 1677.98718 1677.98718 1677.98718 1677.98718   98.59566    0.03499    0.15840    4.08129    2.61197    0.15840
 8019025.98556 1620.09684 1620.09684 1620.09684 1620.09684 1620.09684  104.19660    0.03401    0.15826    3.94535    2.60897    0.15826
 8019649.54902 1302.41803 1302.41803 1302.41803 1302.41803 1302.41803  114.39650    0.03501    0.16408    3.81562    2.60599    0.16408
 8020273.11247 1053.23792 1053.23792 1053.23792 1053.23792 1053.23792  120.74637    0.03603    0.17095    3.78454    2.60502    0.17095
 8020896.67592  877.98749  877.98749  877.98749  877.98749  877.98749  121.55961    0.03902    0.17510    3.74777    2.60703    0.17510
 8021520.23937  733.62999  733.62999  733.62999  733.62999  733.62999  121.31793    0.04102    0.17546    3.73008    2.61004    0.17546
 8022143.80282  651.29400  651.29400  651.29400  651.29400  651.29400  123.72070    0.04302    0.17155    3.73720    2.61404    0.17155
 8022767.36627  640.26040  640.26040  640.26040  640.26040  640.26040  127.89946    0.04500    0.16697    3.75208    2.61802    0.16697
 8023390.92972  674.58590  674.58590  674.58590  674.58590  674.58590  130.51180    0.04499    0.16391    3.75842    2.62003    0.16391
 8024014.49318  713.19708  713.19708  713.19708  713.19708  713.19708  128.56979    0.04399    0.16473    3.71227    2.62300    0.16473
 8024638.05663  688.27410  688.27410  688.27410  688.27410  688.27410  125.21564    0.04299    0.16730    3.65388    2.62298    0.16730
 8025261.62008  584.36540  584.36540  584.36540  584.36540  584.36540  122.42335    0.04200    0.16688    3.64467    2.62097    0.16688
 8025885.18353  462.64527  462.64527  462.64527  462.64527  462.64527  121.60179    0.04203    0.16511    3.69787    2.61798    0.16511
 8026508.74698  379.11142  379.11142  379.11142  379.11142  379.11142  123.09497    0.04503    0.16637    3.76616    2.61599    0.16637
 8027132.31043  345.79582  345.79582  345.79582  345.79582  345.79582  124.44059    0.04802    0.17228    3.77862    2.61501    0.17228
 8027755.87388  347.51547  347.51547  347.51547  347.51547  347.51547  125.26514    0.04999    0.17934    3.74776    2.61603    0.17934
 8028379.43734  361.87487  361.87487  361.87487  361.87487  361.87487  124.50372    0.04898    0.18320    3.72876    2.61902    0.18320
 8029003.00079  376.10262  376.10262  376.10262  376.10262  376.10262  125.78719    0.04697    0.18295    3.70990    2.62101    0.18295
 8029626.56424  375.75040  375.75040  375.75040  375.75040  375.75040  130.01328    0.04397    0.17885    3.70188    2.62198    0.17885
 8030250.12769  353.97881  353.97881  353.97881  353.97881  353.97881  133.73800    0.04099    0.17469    3.69204    2.62000    0.17469
 8030873.69114  331.97919  331.97919  331.97919  331.97919  331.97919  134.23834    0.03999    0.17383    3.69655    2.61999    0.17383
 8031497.25459  335.77444  335.77444  335.77444  335.77444  335.77444  129.69450    0.03901    0.17621    3.73982    2.61906    0.17621
 8032120.81804  371.63146  371.63146  371.63146  371.63146  371.63146  121.91585    0.04001    0.17717    3.80593    2.62404    0.17717
 8032744.38150  424.34328  424.34328  424.34328  424.34328  424.34328  119.02553    0.04101    0.17402    3.87964    2.62806    0.17402
 8033367.94495  457.97583  457.97583  457.97583  457.97583  457.97583  121.87616    0.04201    0.16710    3.93090    2.63307    0.16710
 8033991.50840  461.01585  461.01585  461.01585  461.01585  461.01585  126.84586    0.04300    0.15874    3.92237    2.63906    0.15874
 8034615.07185  438.57934  438.57934  438.57934  438.57934  438.57934  127.09756    0.04299    0.15339    3.87200    2.64402    0.15339
 8035238.63530  401.58747  401.58747  401.58747  401.58747  401.58747  122.48885    0.04200    0.15243    3.87225    2.64603    0.15243
 8035862.19875  360.22979  360.22979  360.22979  360.22979  360.22979  121.21152    0.04202    0.15516    3.89227    2.64902    0.15516
 8036485.76220  327.69170  327.69170  327.69170  327.69170  327.69170  120.42863    0.04402    0.16016    3.91453    2.65103    0.16016
