~VERSION INFORMATION
 VERS.                 2.0:   CWLS LOG ASCII STANDARD - VERSION 2.0
 WRAP.                  NO:   SINGLE LINE PER DEPTH STEP
 CREA.                 5/13/2021 1:24:19 AM
#CREATED USING DSPetro VERSION 10ep.4.05.01 BY H227404 ON 5/13/2021 1:24:19 AM
~WELL INFORMATION
#MNEM.UNIT       DATA                          DESCRIPTION MNEMONIC
#---------      ---------------------------   --------------------------
 STRT    .FT        0.0000                    : START DEPTH
 STOP    .FT        9000.0000                 : STOP DEPTH
 STEP    .FT        0.5000                    : STEP VALUE
 NULL    .      -999.0000                     : NULL VALUE
 DATE    .      5/13/2021                     : LAS file Creation Date
 WELL   .      SNRG-0001                          : Well Name
 COMP   .      Range Resources Appalachia, LLC      : Company
 FLD    .                                           : Field
 STATE  .      OH                                   : State
 COUNT  .      USA                                  : Country
 API    .      SNRG-0001                       : API Number
 UWI    .      SNRG-0001                       : Unique Well Identifier (UWI)
 LOC    .      750'SL & 1060'EL OF NW QTR., SEC. 30 : Location
 EPDAT  .      964                                  : Elevation of Permanent Datum
 GL     .      954.000                              : GL Elevation
 RWS    .      0                                    : Def_Rw
 WST    .      0                                    : Def_Rwt
 CNTY   .      Carroll                              : County
 PROV   .                                           : Province
 MDEC   .      0                                    : Magnetic Declination
 SRVC   .      WE                                   : Contractor
 GDAT   .      (Undefined)                          : Geodatum
 LONG   .      -81.2941990004645                    : Longitude
 LATI   .      40.6472950002882                     : Latitude
 COORDIN.                                           : Grid System
 XCOORD .                                           : X or East-West Coordinate
 YCOORD .                                           : Y or North-South Coordinate
~CURVE INFORMATION
#MNEM              UNIT       API CODE   Curve Type Comments
#----------  --------------- ----------  ---------- -----------
 DEPTH      .FT                        : Depth       
 AO10       .OHMM                      : ShalRes     Shallow Laterolog
 AO20       .OHMM                      : ShalRes     Shallow Laterolog
 AORX       .OHMM                      : ShalRes     Shallow Laterolog
 AT10       .OHMM                      : ShalRes     Shallow Laterolog
 AT20       .OHMM                      : ShalRes     Shallow Laterolog
 DEPTH      .FT                        : Depth       
 GR         .GAPI                      : GammaRay    Gamma Ray
 HDRA       .G/C3                      : Drho        Density Correction
 NPHI       .dec                       : Neutron     
 PEFZ       .B/E                       : PEF         PE
 RHOZ       .G/C3                      : Density     Compensated Density
 TNPH       .dec                       : Neutron     
~A  DEPTH    AO10      AO20      AORX      AT10      AT20     DEPTH       GR       HDRA      NPHI      PEFZ      RHOZ      TNPH   
# ...
6963.5000  499.7110  499.7110  499.7110  499.7110  499.7110 6963.5000   16.5870    0.1120    0.0152    4.7280    2.6730    0.0152 
6964.0000  428.4170  428.4170  428.4170  428.4170  428.4170 6964.0000   19.9390    0.1260    0.0186    4.6770    2.6660    0.0186 
6964.5000  370.4510  370.4510  370.4510  370.4510  370.4510 6964.5000   21.2070    0.1370    0.0220    4.5780    2.6550    0.0220 
6965.0000  361.4170  361.4170  361.4170  361.4170  361.4170 6965.0000   21.0690    0.1470    0.0237    4.4580    2.6450    0.0237 
6965.5000  414.9440  414.9440  414.9440  414.9440  414.9440 6965.5000   19.1120    0.1530    0.0225    4.3850    2.6390    0.0225 
6966.0000  528.4790  528.4790  528.4790  528.4790  528.4790 6966.0000   17.7460    0.1570    0.0198    4.4020    2.6400    0.0198 
6966.5000  642.4600  642.4600  642.4600  642.4600  642.4600 6966.5000   17.6160    0.1580    0.0167    4.4240    2.6450    0.0167 
6967.0000  654.9300  654.9300  654.9300  654.9300  654.9300 6967.0000   16.6420    0.1580    0.0146    4.4560    2.6520    0.0146 
6967.5000  608.4950  608.4950  608.4950  608.4950  608.4950 6967.5000   15.8730    0.1600    0.0127    4.4800    2.6570    0.0127 
6968.0000  679.8920  679.8920  679.8920  679.8920  679.8920 6968.0000   15.1150    0.1580    0.0094    4.4790    2.6530    0.0094 
6968.5000 1125.2490 1125.2490 1125.2490 1125.2490 1125.2490 6968.5000   14.8480    0.1550    0.0062    4.4770    2.6460    0.0062 
6969.0000 2277.2610 2277.2610 2277.2610 2277.2610 2277.2610 6969.0000   14.8620    0.1530    0.0053    4.5280    2.6420    0.0053 
6969.5000 3538.7791 3538.7791 3538.7791 3538.7791 3538.7791 6969.5000   14.5530    0.1490    0.0068    4.5890    2.6390    0.0068 
6970.0000 3398.0750 3398.0750 3398.0750 3398.0750 3398.0750 6970.0000   14.2590    0.1430    0.0097    4.6190    2.6410    0.0097 
6970.5000 2067.4380 2067.4380 2067.4380 2067.4380 2067.4380 6970.5000   14.1570    0.1370    0.0115    4.5940    2.6440    0.0115 
6971.0000 1229.3950 1229.3950 1229.3950 1229.3950 1229.3950 6971.0000   14.0370    0.1310    0.0112    4.5510    2.6480    0.0112 
6971.5000  760.2810  760.2810  760.2810  760.2810  760.2810 6971.5000   14.4980    0.1230    0.0103    4.5580    2.6500    0.0103 
6972.0000  573.4270  573.4270  573.4270  573.4270  573.4270 6972.0000   15.5870    0.1140    0.0103    4.5940    2.6510    0.0103 
6972.5000  475.7170  475.7170  475.7170  475.7170  475.7170 6972.5000   16.7380    0.1080    0.0119    4.6270    2.6540    0.0119 
6973.0000  431.0590  431.0590  431.0590  431.0590  431.0590 6973.0000   18.2500    0.1070    0.0138    4.6450    2.6590    0.0138 
6973.5000  413.0840  413.0840  413.0840  413.0840  413.0840 6973.5000   18.8030    0.1130    0.0141    4.6440    2.6620    0.0141 
6974.0000  438.5260  438.5260  438.5260  438.5260  438.5260 6974.0000   17.9440    0.1230    0.0129    4.5790    2.6630    0.0129 
6974.5000  629.0950  629.0950  629.0950  629.0950  629.0950 6974.5000   16.0000    0.1360    0.0112    4.4680    2.6620    0.0112 
6975.0000 1153.2930 1153.2930 1153.2930 1153.2930 1153.2930 6975.0000   13.5300    0.1450    0.0100    4.3700    2.6630    0.0100 
6975.5000 2349.5239 2349.5239 2349.5239 2349.5239 2349.5239 6975.5000   12.6220    0.1490    0.0090    4.4050    2.6630    0.0090 
6976.0000 2837.0039 2837.0039 2837.0039 2837.0039 2837.0039 6976.0000   12.1660    0.1480    0.0076    4.5320    2.6630    0.0076 
6976.5000 1933.4170 1933.4170 1933.4170 1933.4170 1933.4170 6976.5000   12.0520    0.1450    0.0061    4.5450    2.6630    0.0061 
6977.0000  932.7230  932.7230  932.7230  932.7230  932.7230 6977.0000   12.9660    0.1430    0.0058    4.4540    2.6630    0.0058 
6977.5000  533.0530  533.0530  533.0530  533.0530  533.0530 6977.5000   14.1920    0.1420    0.0076    4.3690    2.6630    0.0076 
6978.0000  393.3860  393.3860  393.3860  393.3860  393.3860 6978.0000   16.8720    0.1410    0.0111    4.3790    2.6620    0.0111 
6978.5000  334.3220  334.3220  334.3220  334.3220  334.3220 6978.5000   19.8580    0.1430    0.0159    4.4910    2.6620    0.0159 
6979.0000  294.8290  294.8290  294.8290  294.8290  294.8290 6979.0000   21.4380    0.1460    0.0200    4.5700    2.6580    0.0200 
6979.5000  286.5150  286.5150  286.5150  286.5150  286.5150 6979.5000   22.2940    0.1490    0.0212    4.5860    2.6490    0.0212 
6980.0000  297.2200  297.2200  297.2200  297.2200  297.2200 6980.0000   21.4900    0.1510    0.0196    4.5890    2.6410    0.0196 
6980.5000  362.6870  362.6870  362.6870  362.6870  362.6870 6980.5000   20.2670    0.1470    0.0166    4.5750    2.6390    0.0166 
6981.0000  526.8590  526.8590  526.8590  526.8590  526.8590 6981.0000   20.1780    0.1380    0.0153    4.5170    2.6440    0.0153 
6981.5000  792.6000  792.6000  792.6000  792.6000  792.6000 6981.5000   20.1720    0.1270    0.0162    4.4610    2.6520    0.0162 
6982.0000  933.1940  933.1940  933.1940  933.1940  933.1940 6982.0000   20.6470    0.1200    0.0174    4.4240    2.6570    0.0174 
6982.5000  777.0890  777.0890  777.0890  777.0890  777.0890 6982.5000   20.8780    0.1220    0.0175    4.4420    2.6600    0.0175 
6983.0000  584.3320  584.3320  584.3320  584.3320  584.3320 6983.0000   19.0620    0.1320    0.0154    4.4620    2.6600    0.0154 
6983.5000  502.6240  502.6240  502.6240  502.6240  502.6240 6983.5000   16.1290    0.1460    0.0114    4.4630    2.6600    0.0114 
6984.0000  597.7170  597.7170  597.7170  597.7170  597.7170 6984.0000   14.8570    0.1620    0.0073    4.5120    2.6640    0.0073 
6984.5000  891.2000  891.2000  891.2000  891.2000  891.2000 6984.5000   16.6530    0.1750    0.0049    4.5390    2.6660    0.0049 
6985.0000 1430.4659 1430.4659 1430.4659 1430.4659 1430.4659 6985.0000   19.4870    0.1820    0.0064    4.5330    2.6660    0.0064 
6985.5000 1660.0990 1660.0990 1660.0990 1660.0990 1660.0990 6985.5000   20.5740    0.1840    0.0111    4.4790    2.6650    0.0111 
6986.0000 1524.3879 1524.3879 1524.3879 1524.3879 1524.3879 6986.0000   19.2470    0.1800    0.0162    4.4510    2.6640    0.0162 
6986.5000  957.1400  957.1400  957.1400  957.1400  957.1400 6986.5000   17.0360    0.1730    0.0188    4.4870    2.6670    0.0188 
6987.0000  614.8360  614.8360  614.8360  614.8360  614.8360 6987.0000   16.8730    0.1650    0.0177    4.4880    2.6730    0.0177 
6987.5000  403.4260  403.4260  403.4260  403.4260  403.4260 6987.5000   18.6100    0.1580    0.0146    4.4790    2.6780    0.0146 
6988.0000  304.2190  304.2190  304.2190  304.2190  304.2190 6988.0000   19.8230    0.1540    0.0125    4.4810    2.6800    0.0125 
6988.5000  287.5370  287.5370  287.5370  287.5370  287.5370 6988.5000   19.5790    0.1540    0.0124    4.5110    2.6810    0.0124 
6989.0000  300.7520  300.7520  300.7520  300.7520  300.7520 6989.0000   18.0550    0.1540    0.0128    4.5510    2.6790    0.0128 
6989.5000  334.8550  334.8550  334.8550  334.8550  334.8550 6989.5000   16.5180    0.1550    0.0126    4.5260    2.6770    0.0126 
6990.0000  365.7570  365.7570  365.7570  365.7570  365.7570 6990.0000   16.2900    0.1570    0.0115    4.5150    2.6740    0.0115 
6990.5000  401.3970  401.3970  401.3970  401.3970  401.3970 6990.5000   16.8690    0.1610    0.0111    4.5530    2.6700    0.0111 
6991.0000  496.7930  496.7930  496.7930  496.7930  496.7930 6991.0000   18.4400    0.1690    0.0127    4.5650    2.6640    0.0127 
6991.5000  605.0380  605.0380  605.0380  605.0380  605.0380 6991.5000   20.2570    0.1770    0.0147    4.5100    2.6590    0.0147 
6992.0000  700.6850  700.6850  700.6850  700.6850  700.6850 6992.0000   19.8800    0.1840    0.0155    4.4180    2.6540    0.0155 
6992.5000  634.5080  634.5080  634.5080  634.5080  634.5080 6992.5000   18.3410    0.1850    0.0151    4.3560    2.6510    0.0151 
6993.0000  479.8660  479.8660  479.8660  479.8660  479.8660 6993.0000   17.3470    0.1790    0.0146    4.3760    2.6500    0.0146 
6993.5000  348.2260  348.2260  348.2260  348.2260  348.2260 6993.5000   18.6990    0.1650    0.0162    4.4490    2.6500    0.0162 
6994.0000  281.2230  281.2230  281.2230  281.2230  281.2230 6994.0000   21.5040    0.1510    0.0209    4.5240    2.6500    0.0209 
