~VERSION INFORMATION
 VERS.                 2.0:   CWLS LOG ASCII STANDARD - VERSION 2.0
 WRAP.                  NO:   SINGLE LINE PER DEPTH STEP
 CREA.                 5/13/2021 1:24:20 AM
#CREATED USING DSPetro VERSION 10ep.4.05.01 BY H227404 ON 5/13/2021 1:24:20 AM
~WELL INFORMATION
#MNEM.UNIT       DATA                          DESCRIPTION MNEMONIC
#---------      ---------------------------   --------------------------
 STRT    .FT        1000.0000                 : START DEPTH
 STOP    .FT        10000.0000                : STOP DEPTH
 STEP    .FT        0.5000                    : STEP VALUE
 NULL    .      -999.0000                     : NULL VALUE
 DATE    .      5/13/2021                     : LAS file Creation Date
 WELL   .      SNRG-0003                             : Well Name
 COMP   .      COLUMBIA NATURAL RESOURCES INC.        : Company
 FLD    .                                             : Field
 STATE  .      OH                                     : State
 COUNT  .      USA                                    : Country
 API    .      SNRG-0003                         : API Number
 UWI    .      SNRG-0003                         : Unique Well Identifier (UWI)
 LOC    .      200'NL & 500'WL OF  SE QTR. SECTION 28 : Location
 EPDAT  .      1135                                   : Elevation of Permanent Datum
 GL     .      1135                                   : GL Elevation
 RWS    .      0                                      : Def_Rw
 WST    .      0                                      : Def_Rwt
 CNTY   .      COLUMBIANA                             : County
 PROV   .                                             : Province
 MDEC   .      0                                      : Magnetic Declination
 SRVC   .      SCH                                    : Contractor
 GDAT   .      (Undefined)                            : Geodatum
 LONG   .      -80.8118599997626                      : Longitude
 LATI   .      40.6594309997559                       : Latitude
 COORDIN.                                             : Grid System
 XCOORD .                                             : X or East-West Coordinate
 YCOORD .                                             : Y or North-South Coordinate
~CURVE INFORMATION
#MNEM              UNIT       API CODE   Curve Type Comments
#----------  --------------- ----------  ---------- -----------
 DEPTH      .FT                        : Depth       
 AO10       .%                         : ShalRes     SNP
 AO20       .%                         : ShalRes     SNP
 AO30       .OHMM                      : MedRes      ILM
 AO60       .OHMM                      : MedRes      ILM
 AORX       .%                         : ShalRes     SNP
 AT10       .%                         : ShalRes     SNP
 AT20       .%                         : ShalRes     SNP
 AT30       .OHMM                      : MedRes      ILM
 AT60       .OHMM                      : MedRes      ILM
 DEPTH      .FT                        : Depth       
 GR         .GAPI                      : GammaRay    GR
 NPHI       .dec                       : Neutron     
 PEFZ       .B/E                       : PEF         PEF
 RHOZ       .G/CC                      : Density     RHOB
 TNPH       .dec                       : Neutron     
~A  DEPTH    AO10      AO20      AO30      AO60      AORX      AT10      AT20      AT30      AT60     DEPTH       GR       NPHI      PEFZ      RHOZ      TNPH   
# ...
6475.0000   12.8296   12.8296   40.6465   40.6465   12.8296   12.8296   12.8296   40.6465   40.6465 6475.0000  166.9375    0.1283    3.8462    2.7451    0.1283 
6475.5000   12.8784   12.8784   40.0767   40.0767   12.8784   12.8784   12.8784   40.0767   40.0767 6475.5000  168.3438    0.1288    3.8540    2.7392    0.1288 
6476.0000   12.4390   12.4390   39.0674   39.0674   12.4390   12.4390   12.4390   39.0674   39.0674 6476.0000  162.1563    0.1244    3.8272    2.7359    0.1244 
6476.5000   11.9873   11.9873   37.5664   37.5664   11.9873   11.9873   11.9873   37.5664   37.5664 6476.5000  156.1563    0.1199    3.7808    2.7332    0.1199 
6477.0000   11.6821   11.6821   35.9141   35.9141   11.6821   11.6821   11.6821   35.9141   35.9141 6477.0000  153.9063    0.1168    3.7251    2.7304    0.1168 
6477.5000   11.3892   11.3892   34.4941   34.4941   11.3892   11.3892   11.3892   34.4941   34.4941 6477.5000  153.0938    0.1139    3.7144    2.7295    0.1139 
6478.0000   11.2060   11.2060   33.5322   33.5322   11.2060   11.2060   11.2060   33.5322   33.5322 6478.0000  151.2188    0.1121    3.7749    2.7329    0.1121 
6478.5000   11.3281   11.3281   33.1814   33.1814   11.3281   11.3281   11.3281   33.1814   33.1814 6478.5000  147.8750    0.1133    3.8447    2.7365    0.1133 
6479.0000   11.8286   11.8286   32.9800   32.9800   11.8286   11.8286   11.8286   32.9800   32.9800 6479.0000  144.8750    0.1183    3.9033    2.7366    0.1183 
6479.5000   12.3535   12.3535   32.6753   32.6753   12.3535   12.3535   12.3535   32.6753   32.6753 6479.5000  145.0313    0.1235    3.9146    2.7345    0.1235 
6480.0000   12.5977   12.5977   32.5078   32.5078   12.5977   12.5977   12.5977   32.5078   32.5078 6480.0000  148.5625    0.1260    3.9067    2.7348    0.1260 
6480.5000   12.5855   12.5855   32.4957   32.4957   12.5855   12.5855   12.5855   32.4957   32.4957 6480.5000  152.5938    0.1259    3.9277    2.7402    0.1259 
6481.0000   12.4390   12.4390   32.6218   32.6218   12.4390   12.4390   12.4390   32.6218   32.6218 6481.0000  154.0313    0.1244    3.9907    2.7460    0.1244 
6481.5000   12.2925   12.2925   32.8545   32.8545   12.2925   12.2925   12.2925   32.8545   32.8545 6481.5000  154.2188    0.1229    4.0679    2.7493    0.1229 
6482.0000   12.1826   12.1826   32.9562   32.9562   12.1826   12.1826   12.1826   32.9562   32.9562 6482.0000  157.0000    0.1218    4.0708    2.7504    0.1218 
6482.5000   12.0850   12.0850   32.9191   32.9191   12.0850   12.0850   12.0850   32.9191   32.9191 6482.5000  160.9375    0.1208    3.9346    2.7470    0.1208 
6483.0000   11.8530   11.8530   33.2192   33.2192   11.8530   11.8530   11.8530   33.2192   33.2192 6483.0000  161.7813    0.1185    3.7446    2.7397    0.1185 
6483.5000   11.4868   11.4868   34.1934   34.1934   11.4868   11.4868   11.4868   34.1934   34.1934 6483.5000  158.9688    0.1149    3.6577    2.7325    0.1149 
6484.0000   11.3159   11.3159   36.0039   36.0039   11.3159   11.3159   11.3159   36.0039   36.0039 6484.0000  154.7813    0.1132    3.7041    2.7285    0.1132 
6484.5000   11.3525   11.3525   39.0078   39.0078   11.3525   11.3525   11.3525   39.0078   39.0078 6484.5000  152.2500    0.1135    3.7725    2.7293    0.1135 
6485.0000   11.2915   11.2915   44.1172   44.1172   11.2915   11.2915   11.2915   44.1172   44.1172 6485.0000  150.1563    0.1129    3.7759    2.7330    0.1129 
6485.5000   11.0596   11.0596   52.5781   52.5781   11.0596   11.0596   11.0596   52.5781   52.5781 6485.5000  146.4063    0.1106    3.7978    2.7360    0.1106 
6486.0000   10.9009   10.9009   64.6250   64.6250   10.9009   10.9009   10.9009   64.6250   64.6250 6486.0000  142.1250    0.1090    3.8721    2.7368    0.1090 
6486.5000   11.0474   11.0474   78.5156   78.5156   11.0474   11.0474   11.0474   78.5156   78.5156 6486.5000  139.9688    0.1105    3.9199    2.7339    0.1105 
6487.0000   11.5723   11.5723   90.5469   90.5469   11.5723   11.5723   11.5723   90.5469   90.5469 6487.0000  143.1250    0.1157    3.9311    2.7286    0.1157 
6487.5000   12.2681   12.2681   95.1641   95.1641   12.2681   12.2681   12.2681   95.1641   95.1641 6487.5000  149.6563    0.1227    3.9663    2.7219    0.1227 
6488.0000   12.6831   12.6831   88.8125   88.8125   12.6831   12.6831   12.6831   88.8125   88.8125 6488.0000  155.2500    0.1268    4.0015    2.7157    0.1268 
6488.5000   12.5610   12.5610   75.1250   75.1250   12.5610   12.5610   12.5610   75.1250   75.1250 6488.5000  157.4688    0.1256    3.9302    2.7146    0.1256 
6489.0000   12.0361   12.0361   61.7656   61.7656   12.0361   12.0361   12.0361   61.7656   61.7656 6489.0000  156.4063    0.1204    3.7471    2.7200    0.1204 
6489.5000   11.5112   11.5112   52.8672   52.8672   11.5112   11.5112   11.5112   52.8672   52.8672 6489.5000  153.7500    0.1151    3.6011    2.7244    0.1151 
6490.0000   11.1206   11.1206   47.6641   47.6641   11.1206   11.1206   11.1206   47.6641   47.6641 6490.0000  150.7813    0.1112    3.5596    2.7226    0.1112 
6490.5000   10.7910   10.7910   44.4336   44.4336   10.7910   10.7910   10.7910   44.4336   44.4336 6490.5000  149.6875    0.1079    3.5425    2.7194    0.1079 
6491.0000   10.4858   10.4858   42.4463   42.4463   10.4858   10.4858   10.4858   42.4463   42.4463 6491.0000  150.8750    0.1049    3.5220    2.7180    0.1049 
6491.5000   10.2173   10.2173   41.5520   41.5520   10.2173   10.2173   10.2173   41.5520   41.5520 6491.5000  152.7813    0.1022    3.5132    2.7167    0.1022 
6492.0000   10.0708   10.0708   41.2839   41.2839   10.0708   10.0708   10.0708   41.2839   41.2839 6492.0000  151.9688    0.1007    3.5039    2.7171    0.1007 
6492.5000   10.0220   10.0220   41.0414   41.0414   10.0220   10.0220   10.0220   41.0414   41.0414 6492.5000  148.2188    0.1002    3.4653    2.7239    0.1002 
6493.0000   10.0098   10.0098   41.0000   41.0000   10.0098   10.0098   10.0098   41.0000   41.0000 6493.0000  147.1563    0.1001    3.4541    2.7336    0.1001 
6493.5000   10.1440   10.1440   41.7519   41.7519   10.1440   10.1440   10.1440   41.7519   41.7519 6493.5000  149.3750    0.1014    3.5020    2.7412    0.1014 
6494.0000   10.4370   10.4370   43.1016   43.1016   10.4370   10.4370   10.4370   43.1016   43.1016 6494.0000  151.0313    0.1044    3.5381    2.7451    0.1044 
6494.5000   10.5957   10.5957   45.0313   45.0313   10.5957   10.5957   10.5957   45.0313   45.0313 6494.5000  149.6250    0.1060    3.5542    2.7459    0.1060 
6495.0000   10.3882   10.3882   48.1719   48.1719   10.3882   10.3882   10.3882   48.1719   48.1719 6495.0000  147.6875    0.1039    3.6138    2.7451    0.1039 
6495.5000    9.8145    9.8145   51.6685   51.6685    9.8145    9.8145    9.8145   51.6685   51.6685 6495.5000  147.0000    0.0981    3.7446    2.7421    0.0981 
6496.0000    9.1187    9.1187   52.8027   52.8027    9.1187    9.1187    9.1187   52.8027   52.8027 6496.0000  144.9063    0.0912    3.8765    2.7375    0.0912 
6496.5000    8.7036    8.7036   51.2285   51.2285    8.7036    8.7036    8.7036   51.2285   51.2285 6496.5000  141.6875    0.0870    3.9429    2.7319    0.0870 
6497.0000    8.8501    8.8501   49.9766   49.9766    8.8501    8.8501    8.8501   49.9766   49.9766 6497.0000  141.0938    0.0885    3.8848    2.7228    0.0885 
6497.5000    9.3994    9.3994   50.6748   50.6748    9.3994    9.3994    9.3994   50.6748   50.6748 6497.5000  143.3750    0.0940    3.6831    2.7123    0.0940 
6498.0000    9.8267    9.8267   51.8984   51.8984    9.8267    9.8267    9.8267   51.8984   51.8984 6498.0000  144.3125    0.0983    3.4614    2.7085    0.0983 
6498.5000    9.7534    9.7534   52.2061   52.2061    9.7534    9.7534    9.7534   52.2061   52.2061 6498.5000  141.6250    0.0975    3.3501    2.7142    0.0975 
6499.0000    9.3872    9.3872   51.6309   51.6309    9.3872    9.3872    9.3872   51.6309   51.6309 6499.0000  137.2813    0.0939    3.3838    2.7253    0.0939 
6499.5000    9.3872    9.3872   50.9326   50.9326    9.3872    9.3872    9.3872   50.9326   50.9326 6499.5000  136.9375    0.0939    3.4883    2.7313    0.0939 
