~Version ---------------------------------------------------
VERS.   2.0 : CWLS log ASCII Standard -VERSION 2.0
WRAP.    NO : One line per depth step
DLM . SPACE : Column Data Section Delimiter
~Well ------------------------------------------------------
STRT  .m                                 0.0 : START DEPTH
STOP  .m                   11221024.30872697 : STOP DEPTH
STEP  .m                           623.56345 : STEP
NULL  .                                 -999 : NULL VALUE
COMP  .      Range Resources Appalachia, LLC : COMPANY
WELL  .                            SNRG-0001 : WELL
FLD   .                                      : FIELD
LOC   . 750'SL & 1060'EL OF NW QTR., SEC. 30 : LOCATION
PROV  .                                      : PROVINCE
CNTY  .                              Carroll : COUNTY
STAT  .                                      : STATE
CTRY  .                                      : COUNTRY
SRVC  .                                      : SERVICE COMPANY
DATE  .           2021-07-11 01:47:10.230360 : DATE
UWI   .                            SNRG-0001 : UNIQUE WELL ID
API   .                            SNRG-0001 : API NUMBER
LIC   .                                      : 
LATI  .                     40.6472950002882 : 
LONG  .                    -81.2941990004645 : 
NS    .                                      : 
EW    .                                      : 
XCOORD.                                      : 
YCOORD.                                      : 
GDAT  .                          (Undefined) : 
SECT  .                                      : 
RANG  .                                      : 
TOWN  .                                      : 
~Curve Information -----------------------------------------
DEPT.m     : 
AO10.OHMM  : ShalRes     Shallow Laterolog
AO20.OHMM  : ShalRes     Shallow Laterolog
AORX.OHMM  : ShalRes     Shallow Laterolog
AT10.OHMM  : ShalRes     Shallow Laterolog
AT20.OHMM  : ShalRes     Shallow Laterolog
GR  .GAPI  : GammaRay    Gamma Ray
HDRA.G/C3  : Drho        Density Correction
NPHI.dec   : Neutron
PEFZ.B/E   : PEF         PE
RHOZ.G/C3  : Density     Compensated Density
TNPH.dec   : Neutron
~Params ----------------------------------------------------
EKB.      : 
EGL.      : 
KB .      : 
GL .      : 
TD .      : 
TDD.      : 
TDL.      : 
~Other -----------------------------------------------------
~ASCII -----------------------------------------------------
# ...
 9682069.71056  260.42035  260.42035  260.42035  260.42035  260.42035   26.30254    0.06605    0.07289    3.02642    2.74422    0.07289
 9682693.27402  296.69805  296.69805  296.69805  296.69805  296.69805   26.40327    0.07001    0.07198    2.98960    2.75819    0.07198
 9683316.83747  374.60011  374.60011  374.60011  374.60011  374.60011   26.53515    0.07100    0.07026    3.02998    2.77012    0.07026
 9683940.40092  470.68154  470.68154  470.68154  470.68154  470.68154   30.23743    0.07100    0.06725    3.09436    2.77803    0.06725
 9684563.96437  544.45417  544.45417  544.45417  544.45417  544.45417   38.79162    0.07099    0.06343    3.11783    2.77986    0.06343
 9685187.52782  544.93549  544.93549  544.93549  544.93549  544.93549   53.42700    0.07005    0.05832    3.10680    2.76969    0.05832
 9685811.09127  507.37266  507.37266  507.37266  507.37266  507.37266   69.26313    0.07418    0.05225    3.09456    2.74953    0.05225
 9686434.65472  464.84645  464.84645  464.84645  464.84645  464.84645   75.78124    0.08533    0.04817    3.13160    2.71856    0.04817
 9687058.21818  434.77649  434.77649  434.77649  434.77649  434.77649   66.26032    0.10741    0.04608    3.17088    2.68876    0.04608
 9687681.78163  426.84458  426.84458  426.84458  426.84458  426.84458   48.91938    0.13529    0.04470    3.16195    2.67300    0.04470
 9688305.34508  434.67181  434.67181  434.67181  434.67181  434.67181   35.14042    0.15399    0.04502    3.09300    2.67323    0.04502
 9688928.90853  457.84396  457.84396  457.84396  457.84396  457.84396   29.36553    0.15267    0.04682    3.02680    2.68837    0.04682
 9689552.47198  498.52459  498.52459  498.52459  498.52459  498.52459   28.43276    0.13051    0.04797    3.01410    2.71339    0.04797
 9690176.03543  534.49192  534.49192  534.49192  534.49192  534.49192   29.03783    0.09860    0.04570    3.02114    2.73936    0.04570
 9690799.59888  535.99217  535.99217  535.99217  535.99217  535.99217   31.66655    0.07178    0.03930    3.03101    2.76324    0.03930
 9691423.16234  493.20842  493.20842  493.20842  493.20842  493.20842   34.51232    0.05797    0.03267    3.03157    2.77908    0.03267
 9692046.72579  439.71979  439.71979  439.71979  439.71979  439.71979   35.48240    0.05601    0.03010    3.00245    2.78495    0.03010
 9692670.28924  395.95175  395.95175  395.95175  395.95175  395.95175   33.59892    0.05697    0.02980    2.96638    2.78078    0.02980
 9693293.85269  362.34471  362.34471  362.34471  362.34471  362.34471   31.84272    0.05497    0.03012    2.92605    2.76671    0.03012
 9693917.41614  330.10556  330.10556  330.10556  330.10556  330.10556   32.23785    0.05300    0.03145    2.93090    2.74778    0.03145
 9694540.97959  283.65709  283.65709  283.65709  283.65709  283.65709   34.00292    0.05305    0.03540    2.98964    2.73393    0.03540
 9695164.54304  235.21919  235.21919  235.21919  235.21919  235.21919   35.41373    0.05710    0.04190    3.03235    2.72905    0.04190
 9695788.10650  185.82478  185.82478  185.82478  185.82478  185.82478   34.32749    0.06408    0.04887    3.05453    2.73310    0.04887
 9696411.66995  147.01107  147.01107  147.01107  147.01107  147.01107   32.21398    0.07003    0.05413    3.02327    2.74001    0.05413
 9697035.23340  123.12902  123.12902  123.12902  123.12902  123.12902   32.24165    0.07196    0.05669    2.97457    2.74081    0.05669
 9697658.79685  111.05830  111.05830  111.05830  111.05830  111.05830   34.41778    0.06893    0.05555    2.94577    2.72869    0.05555
 9698282.36030  107.29161  107.29161  107.29161  107.29161  107.29161   38.40307    0.06395    0.05186    2.93097    2.70869    0.05186
 9698905.92375  101.07454  101.07454  101.07454  101.07454  101.07454   41.00092    0.05999    0.04891    2.92932    2.68877    0.04891
 9699529.48720   90.05441   90.05441   90.05441   90.05441   90.05441   40.57928    0.05905    0.04946    2.95077    2.67400    0.04946
 9700153.05066   79.81034   79.81034   79.81034   79.81034   79.81034   38.63917    0.06310    0.05366    3.00181    2.67419    0.05366
 9700776.61411   74.68463   74.68463   74.68463   74.68463   74.68463   38.00868    0.07008    0.05802    3.05517    2.68629    0.05802
 9701400.17756   83.38079   83.38079   83.38079   83.38079   83.38079   43.41461    0.07607    0.05959    3.06600    2.70523    0.05959
 9702023.74101  108.65798  108.65798  108.65798  108.65798  108.65798   50.69422    0.08104    0.05845    3.06588    2.72007    0.05845
 9702647.30446  144.07175  144.07175  144.07175  144.07175  144.07175   52.81326    0.08401    0.05483    3.05750    2.72500    0.05483
 9703270.86791  178.52600  178.52600  178.52600  178.52600  178.52600   49.93626    0.08497    0.04933    3.02431    2.72500    0.04933
 9703894.43136  191.66755  191.66755  191.66755  191.66755  191.66755   47.28474    0.08292    0.04386    2.97837    2.72507    0.04386
 9704517.99482  198.08800  198.08800  198.08800  198.08800  198.08800   46.83648    0.07688    0.04081    2.93741    2.73019    0.04081
 9705141.55827  204.37494  204.37494  204.37494  204.37494  204.37494   43.73384    0.06888    0.04164    2.96621    2.74219    0.04164
 9705765.12172  203.29684  203.29684  203.29684  203.29684  203.29684   37.65928    0.06090    0.04477    3.04545    2.75410    0.04477
 9706388.68517  186.05211  186.05211  186.05211  186.05211  186.05211   30.98856    0.05393    0.05000    3.13968    2.76100    0.05000
 9707012.24862  155.14521  155.14521  155.14521  155.14521  155.14521   26.12748    0.04897    0.05650    3.18365    2.76093    0.05650
 9707635.81207  125.55362  125.55362  125.55362  125.55362  125.55362   24.09514    0.04696    0.06317    3.16051    2.75588    0.06317
 9708259.37552  106.40005  106.40005  106.40005  106.40005  106.40005   25.11289    0.04396    0.06843    3.12868    2.74795    0.06843
 9708882.93898  103.35986  103.35986  103.35986  103.35986  103.35986   27.66922    0.04096    0.07056    3.10813    2.74400    0.07056
 9709506.50243  123.80505  123.80505  123.80505  123.80505  123.80505   30.04724    0.03797    0.06778    3.11695    2.74405    0.06778
 9710130.06588  197.82085  197.82085  197.82085  197.82085  197.82085   32.06545    0.03599    0.05977    3.11309    2.74808    0.05977
 9710753.62933  379.29989  379.29989  379.29989  379.29989  379.29989   36.21725    0.03501    0.05072    3.11950    2.75407    0.05072
 9711377.19278  708.70249  708.70249  708.70249  708.70249  708.70249   43.42860    0.03603    0.04488    3.15208    2.75908    0.04488
 9712000.75623 1095.52396 1095.52396 1095.52396 1095.52396 1095.52396   47.59795    0.03803    0.04319    3.15759    2.76501    0.04319
 9712624.31968 1233.20766 1233.20766 1233.20766 1233.20766 1233.20766   45.80682    0.04003    0.04267    3.12941    2.76601    0.04267
 9713247.88314 1082.69445 1082.69445 1082.69445 1082.69445 1082.69445   38.28106    0.04201    0.04080    3.09074    2.76700    0.04080
 9713871.44659  802.69628  802.69628  802.69628  802.69628  802.69628   29.65262    0.04303    0.04066    3.07440    2.76697    0.04066
 9714495.01004  543.23476  543.23476  543.23476  543.23476  543.23476   24.62642    0.04504    0.04550    3.10126    2.76495    0.04550
 9715118.57349  358.65906  358.65906  358.65906  358.65906  358.65906   24.17044    0.04807    0.05196    3.11756    2.76093    0.05196
 9715742.13694  243.22469  243.22469  243.22469  243.22469  243.22469   26.83774    0.05307    0.05673    3.08721    2.75593    0.05673
 9716365.70039  173.78145  173.78145  173.78145  173.78145  173.78145   30.08474    0.05804    0.05903    3.03557    2.75103    0.05903
 9716989.26385  148.38156  148.38156  148.38156  148.38156  148.38156   31.61389    0.06100    0.06103    3.00756    2.75308    0.06103
 9717612.82730  148.44415  148.44415  148.44415  148.44415  148.44415   30.80964    0.06097    0.06317    3.04507    2.75920    0.06317
 9718236.39075  174.56465  174.56465  174.56465  174.56465  174.56465   29.41140    0.05895    0.06069    3.11449    2.77212    0.06069
