~Version ---------------------------------------------------
VERS.   2.0 : CWLS log ASCII Standard -VERSION 2.0
WRAP.    NO : One line per depth step
DLM . SPACE : Column Data Section Delimiter
~Well ------------------------------------------------------
STRT  .m                                 0.0 : START DEPTH
STOP  .m                   11221024.30872697 : STOP DEPTH
STEP  .m                           623.56345 : STEP
NULL  .                                 -999 : NULL VALUE
COMP  .      Range Resources Appalachia, LLC : COMPANY
WELL  .                            SNRG-0001 : WELL
FLD   .                                      : FIELD
LOC   . 750'SL & 1060'EL OF NW QTR., SEC. 30 : LOCATION
PROV  .                                      : PROVINCE
CNTY  .                              Carroll : COUNTY
STAT  .                                      : STATE
CTRY  .                                      : COUNTRY
SRVC  .                                      : SERVICE COMPANY
DATE  .           2021-07-11 01:47:10.230360 : DATE
UWI   .                            SNRG-0001 : UNIQUE WELL ID
API   .                            SNRG-0001 : API NUMBER
LIC   .                                      : 
LATI  .                     40.6472950002882 : 
LONG  .                    -81.2941990004645 : 
NS    .                                      : 
EW    .                                      : 
XCOORD.                                      : 
YCOORD.                                      : 
GDAT  .                          (Undefined) : 
SECT  .                                      : 
RANG  .                                      : 
TOWN  .                                      : 
~Curve Information -----------------------------------------
DEPT.m     : 
AO10.OHMM  : ShalRes     Shallow Laterolog
AO20.OHMM  : ShalRes     Shallow Laterolog
AORX.OHMM  : ShalRes     Shallow Laterolog
AT10.OHMM  : ShalRes     Shallow Laterolog
AT20.OHMM  : ShalRes     Shallow Laterolog
GR  .GAPI  : GammaRay    Gamma Ray
HDRA.G/C3  : Drho        Density Correction
NPHI.dec   : Neutron
PEFZ.B/E   : PEF         PE
RHOZ.G/C3  : Density     Compensated Density
TNPH.dec   : Neutron
~Params ----------------------------------------------------
EKB.      : 
EGL.      : 
KB .      : 
GL .      : 
TD .      : 
TDD.      : 
TDL.      : 
~Other -----------------------------------------------------
~ASCII -----------------------------------------------------
# ...
 8690603.82277 1140.92052 1140.92052 1140.92052 1140.92052 1140.92052   14.84819    0.15498    0.00619    4.47769    2.64595    0.00619
 8691227.38622 2294.39332 2294.39332 2294.39332 2294.39332 2294.39332   14.85780    0.15295    0.00532    4.52882    2.64196    0.00532
 8691850.94967 3536.84066 3536.84066 3536.84066 3536.84066 3536.84066   14.54900    0.14893    0.00683    4.58940    2.63902    0.00683
 8692474.51312 3379.98276 3379.98276 3379.98276 3379.98276 3379.98276   14.25761    0.14293    0.00972    4.61866    2.64104    0.00972
 8693098.07657 2056.04307 2056.04307 2056.04307 2056.04307 2056.04307   14.15538    0.13693    0.01150    4.59342    2.64405    0.01150
 8693721.64003 1223.01797 1223.01797 1223.01797 1223.01797 1223.01797   14.04329    0.13089    0.01119    4.55109    2.64802    0.01119
 8694345.20348  757.74013  757.74013  757.74013  757.74013  757.74013   14.51281    0.12288    0.01030    4.55849    2.65001    0.01030
 8694968.76693  572.09845  572.09845  572.09845  572.09845  572.09845   15.60268    0.11393    0.01032    4.59443    2.65104    0.01032
 8695592.33038  475.10976  475.10976  475.10976  475.10976  475.10976   16.75856    0.10799    0.01192    4.62725    2.65406    0.01192
 8696215.89383  430.81525  430.81525  430.81525  430.81525  430.81525   18.25750    0.10707    0.01380    4.64499    2.65904    0.01380
 8696839.45728  413.43371  413.43371  413.43371  413.43371  413.43371   18.79129    0.11313    0.01409    4.64311    2.66201    0.01409
 8697463.02073  441.12686  441.12686  441.12686  441.12686  441.12686   17.91751    0.12319    0.01288    4.57749    2.66299    0.01288
 8698086.58419  636.24510  636.24510  636.24510  636.24510  636.24510   15.96640    0.13612    0.01119    4.46667    2.66201    0.01119
 8698710.14764 1169.56434 1169.56434 1169.56434 1169.56434 1169.56434   13.51765    0.14505    0.00999    4.37048    2.66300    0.00999
 8699333.71109 2356.13294 2356.13294 2356.13294 2356.13294 2356.13294   12.61580    0.14899    0.00898    4.40673    2.66300    0.00898
 8699957.27454 2824.69836 2824.69836 2824.69836 2824.69836 2824.69836   12.16447    0.14796    0.00758    4.53218    2.66300    0.00758
 8700580.83799 1919.80351 1919.80351 1919.80351 1919.80351 1919.80351   12.06446    0.14498    0.00610    4.54375    2.66300    0.00610
 8701204.40144  927.28555  927.28555  927.28555  927.28555  927.28555   12.98272    0.14299    0.00582    4.45284    2.66300    0.00582
 8701827.96489  531.15264  531.15264  531.15264  531.15264  531.15264   14.22851    0.14199    0.00764    4.36913    2.66299    0.00764
 8702451.52835  392.58195  392.58195  392.58195  392.58195  392.58195   16.91264    0.14102    0.01116    4.38053    2.66200    0.01116
 8703075.09180  333.78475  333.78475  333.78475  333.78475  333.78475   19.87950    0.14304    0.01595    4.49209    2.66195    0.01595
 8703698.65525  294.71614  294.71614  294.71614  294.71614  294.71614   21.44963    0.14604    0.02001    4.57022    2.65788    0.02001
 8704322.21870  286.66196  286.66196  286.66196  286.66196  286.66196   22.28304    0.14902    0.02118    4.58604    2.64889    0.02118
 8704945.78215  298.11395  298.11395  298.11395  298.11395  298.11395   21.47336    0.15095    0.01956    4.58880    2.64098    0.01956
 8705569.34560  364.92587  364.92587  364.92587  364.92587  364.92587   20.26578    0.14688    0.01658    4.57422    2.63906    0.01658
 8706192.90906  530.47753  530.47753  530.47753  530.47753  530.47753   20.17793    0.13786    0.01531    4.51625    2.64411    0.01531
 8706816.47251  794.50970  794.50970  794.50970  794.50970  794.50970   20.17846    0.12691    0.01621    4.46050    2.65206    0.01621
 8707440.03596  931.06577  931.06577  931.06577  931.06577  931.06577   20.65010    0.12002    0.01740    4.42425    2.65704    0.01740
 8708063.59941  774.46430  774.46430  774.46430  774.46430  774.46430   20.85323    0.12213    0.01747    4.44227    2.66000    0.01747
 8708687.16286  583.22208  583.22208  583.22208  583.22208  583.22208   19.02205    0.13220    0.01535    4.46201    2.66000    0.01535
 8709310.72631  503.92424  503.92424  503.92424  503.92424  503.92424   16.11172    0.14622    0.01135    4.46367    2.66005    0.01135
 8709934.28976  601.72234  601.72234  601.72234  601.72234  601.72234   14.88150    0.16219    0.00727    4.51236    2.66402    0.00727
 8710557.85322  898.54503  898.54503  898.54503  898.54503  898.54503   16.69159    0.17509    0.00492    4.53893    2.66600    0.00492
 8711181.41667 1433.58883 1433.58883 1433.58883 1433.58883 1433.58883   19.50177    0.18202    0.00646    4.53227    2.66599    0.00646
 8711804.98012 1658.23979 1658.23979 1658.23979 1658.23979 1658.23979   20.55589    0.18395    0.01116    4.47862    2.66499    0.01116
 8712428.54357 1516.65819 1516.65819 1516.65819 1516.65819 1516.65819   19.21691    0.17991    0.01623    4.45149    2.66404    0.01623
 8713052.10702  952.47480  952.47480  952.47480  952.47480  952.47480   17.03382    0.17289    0.01879    4.48701    2.66707    0.01879
 8713675.67047  611.95537  611.95537  611.95537  611.95537  611.95537   16.89667    0.16491    0.01766    4.48788    2.67306    0.01766
 8714299.23392  402.07466  402.07466  402.07466  402.07466  402.07466   18.62651    0.15795    0.01457    4.47902    2.67802    0.01457
 8714922.79738  303.99210  303.99210  303.99210  303.99210  303.99210   19.81964    0.15400    0.01250    4.48140    2.68001    0.01250
 8715546.36083  287.71770  287.71770  287.71770  287.71770  287.71770   19.55821    0.15400    0.01240    4.51155    2.68098    0.01240
 8716169.92428  301.21712  301.21712  301.21712  301.21712  301.21712   18.03406    0.15401    0.01280    4.55066    2.67898    0.01280
 8716793.48773  335.27661  335.27661  335.27661  335.27661  335.27661   16.51491    0.15502    0.01259    4.52586    2.67696    0.01259
 8717417.05118  366.24445  366.24445  366.24445  366.24445  366.24445   16.29792    0.15705    0.01150    4.51553    2.67395    0.01150
 8718040.61463  402.69871  402.69871  402.69871  402.69871  402.69871   16.89043    0.16111    0.01112    4.55316    2.66993    0.01112
 8718664.17808  498.26969  498.26969  498.26969  498.26969  498.26969   18.46475    0.16911    0.01272    4.56426    2.66394    0.01272
 8719287.74154  606.33978  606.33978  606.33978  606.33978  606.33978   20.25183    0.17709    0.01471    4.50874    2.65894    0.01471
 8719911.30499  699.78006  699.78006  699.78006  699.78006  699.78006   19.85901    0.18401    0.01550    4.41717    2.65396    0.01550
 8720534.86844  632.39808  632.39808  632.39808  632.39808  632.39808   18.32749    0.18493    0.01509    4.35628    2.65099    0.01509
 8721158.43189  478.07061  478.07061  478.07061  478.07061  478.07061   17.36549    0.17880    0.01462    4.37699    2.65000    0.01462
 8721781.99534  347.31256  347.31256  347.31256  347.31256  347.31256   18.73726    0.16480    0.01626    4.45001    2.65000    0.01626
 8722405.55879  281.01129  281.01129  281.01129  281.01129  281.01129   21.52030    0.15092    0.02096    4.52507    2.65001    0.02096
 8723029.12224  266.13039  266.13039  266.13039  266.13039  266.13039   22.68992    0.14406    0.02571    4.60232    2.65099    0.02571
 8723652.68570  315.58801  315.58801  315.58801  315.58801  315.58801   21.77950    0.14921    0.02656    4.62467    2.64995    0.02656
 8724276.24915 1522.99873 1522.99873 1522.99873 1522.99873 1522.99873   18.81446    0.16426    0.02283    4.60070    2.64593    0.02283
 8724899.81260 8668.23579 8668.23579 8668.23579 8668.23579 8668.23579   16.01158    0.18320    0.01737    4.57907    2.63994    0.01737
 8725523.37605 40743.51817 40743.51817 40743.51817 40743.51817 40743.51817   14.82016    0.19704    0.01470    4.58481    2.63493    0.01470
 8726146.93950 36805.79462 36805.79462 36805.79462 36805.79462 36805.79462   14.54716    0.19989    0.01512    4.57194    2.62899    0.01512
 8726770.50295 11077.74985 11077.74985 11077.74985 11077.74985 11077.74985   14.93511    0.19180    0.01702    4.56684    2.62800    0.01702
