~VERSION INFORMATION
 VERS.                 2.0:   CWLS LOG ASCII STANDARD - VERSION 2.0
 WRAP.                  NO:   SINGLE LINE PER DEPTH STEP
 CREA.                 5/13/2021 1:24:19 AM
#CREATED USING DSPetro VERSION 10ep.4.05.01 BY H227404 ON 5/13/2021 1:24:19 AM
~WELL INFORMATION
#MNEM.UNIT       DATA                          DESCRIPTION MNEMONIC
#---------      ---------------------------   --------------------------
 STRT    .FT        0.0000                    : START DEPTH
 STOP    .FT        9000.0000                 : STOP DEPTH
 STEP    .FT        0.5000                    : STEP VALUE
 NULL    .      -999.0000                     : NULL VALUE
 DATE    .      5/13/2021                     : LAS file Creation Date
 WELL   .      SNRG-0001                          : Well Name
 COMP   .      Range Resources Appalachia, LLC      : Company
 FLD    .                                           : Field
 STATE  .      OH                                   : State
 COUNT  .      USA                                  : Country
 API    .      SNRG-0001                       : API Number
 UWI    .      SNRG-0001                       : Unique Well Identifier (UWI)
 LOC    .      750'SL & 1060'EL OF NW QTR., SEC. 30 : Location
 EPDAT  .      964                                  : Elevation of Permanent Datum
 GL     .      954.000                              : GL Elevation
 RWS    .      0                                    : Def_Rw
 WST    .      0                                    : Def_Rwt
 CNTY   .      Carroll                              : County
 PROV   .                                           : Province
 MDEC   .      0                                    : Magnetic Declination
 SRVC   .      WE                                   : Contractor
 GDAT   .      (Undefined)                          : Geodatum
 LONG   .      -81.2941990004645                    : Longitude
 LATI   .      40.6472950002882                     : Latitude
 COORDIN.                                           : Grid System
 XCOORD .                                           : X or East-West Coordinate
 YCOORD .                                           : Y or North-South Coordinate
~CURVE INFORMATION
#MNEM              UNIT       API CODE   Curve Type Comments
#----------  --------------- ----------  ---------- -----------
 DEPTH      .FT                        : Depth       
 AO10       .OHMM                      : ShalRes     Shallow Laterolog
 AO20       .OHMM                      : ShalRes     Shallow Laterolog
 AORX       .OHMM                      : ShalRes     Shallow Laterolog
 AT10       .OHMM                      : ShalRes     Shallow Laterolog
 AT20       .OHMM                      : ShalRes     Shallow Laterolog
 DEPTH      .FT                        : Depth       
 GR         .GAPI                      : GammaRay    Gamma Ray
 HDRA       .G/C3                      : Drho        Density Correction
 NPHI       .dec                       : Neutron     
 PEFZ       .B/E                       : PEF         PE
 RHOZ       .G/C3                      : Density     Compensated Density
 TNPH       .dec                       : Neutron     
~A  DEPTH    AO10      AO20      AORX      AT10      AT20     DEPTH       GR       HDRA      NPHI      PEFZ      RHOZ      TNPH   
# ...
7793.0000  220.1000  220.1000  220.1000  220.1000  220.1000 7793.0000   28.5290    0.0550    0.0536    3.1460    2.7800    0.0536 
7793.5000  276.3260  276.3260  276.3260  276.3260  276.3260 7793.5000   29.0290    0.0510    0.0454    3.1280    2.7840    0.0454 
7794.0000  303.1770  303.1770  303.1770  303.1770  303.1770 7794.0000   30.2540    0.0480    0.0408    3.1190    2.7810    0.0408 
7794.5000  291.8320  291.8320  291.8320  291.8320  291.8320 7794.5000   30.2840    0.0450    0.0412    3.1260    2.7740    0.0412 
7795.0000  268.1970  268.1970  268.1970  268.1970  268.1970 7795.0000   28.5890    0.0440    0.0435    3.1260    2.7670    0.0435 
7795.5000  261.0910  261.0910  261.0910  261.0910  261.0910 7795.5000   26.6590    0.0450    0.0460    3.0740    2.7640    0.0460 
7796.0000  277.5840  277.5840  277.5840  277.5840  277.5840 7796.0000   25.2630    0.0480    0.0483    3.0470    2.7660    0.0483 
7796.5000  312.2640  312.2640  312.2640  312.2640  312.2640 7796.5000   23.4840    0.0520    0.0493    3.1200    2.7700    0.0493 
7797.0000  357.8710  357.8710  357.8710  357.8710  357.8710 7797.0000   22.3160    0.0550    0.0480    3.2010    2.7710    0.0480 
7797.5000  405.4480  405.4480  405.4480  405.4480  405.4480 7797.5000   23.1240    0.0540    0.0454    3.1980    2.7720    0.0454 
7798.0000  453.8910  453.8910  453.8910  453.8910  453.8910 7798.0000   25.0870    0.0520    0.0433    3.1040    2.7730    0.0433 
7798.5000  485.4780  485.4780  485.4780  485.4780  485.4780 7798.5000   26.7460    0.0480    0.0434    3.0340    2.7730    0.0434 
7799.0000  492.9050  492.9050  492.9050  492.9050  492.9050 7799.0000   25.9930    0.0430    0.0457    3.0510    2.7720    0.0457 
7799.5000  481.7790  481.7790  481.7790  481.7790  481.7790 7799.5000   24.3900    0.0390    0.0489    3.1050    2.7690    0.0489 
7800.0000  483.1210  483.1210  483.1210  483.1210  483.1210 7800.0000   23.3080    0.0370    0.0511    3.1060    2.7650    0.0511 
7800.5000  545.0510  545.0510  545.0510  545.0510  545.0510 7800.5000   22.4000    0.0390    0.0505    3.0840    2.7570    0.0505 
7801.0000  664.3700  664.3700  664.3700  664.3700  664.3700 7801.0000   21.6960    0.0450    0.0465    3.0770    2.7480    0.0465 
7801.5000  771.3650  771.3650  771.3650  771.3650  771.3650 7801.5000   22.4270    0.0550    0.0422    3.1060    2.7430    0.0422 
7802.0000  697.1300  697.1300  697.1300  697.1300  697.1300 7802.0000   24.3480    0.0660    0.0404    3.1330    2.7420    0.0404 
7802.5000  520.0370  520.0370  520.0370  520.0370  520.0370 7802.5000   24.6200    0.0730    0.0423    3.1380    2.7440    0.0423 
7803.0000  379.6750  379.6750  379.6750  379.6750  379.6750 7803.0000   22.7450    0.0760    0.0485    3.1340    2.7510    0.0485 
7803.5000  310.1650  310.1650  310.1650  310.1650  310.1650 7803.5000   19.4130    0.0750    0.0550    3.1240    2.7560    0.0550 
7804.0000  305.3240  305.3240  305.3240  305.3240  305.3240 7804.0000   18.5070    0.0700    0.0576    3.1250    2.7570    0.0576 
7804.5000  320.6520  320.6520  320.6520  320.6520  320.6520 7804.5000   20.5930    0.0630    0.0559    3.0650    2.7520    0.0559 
7805.0000  339.0050  339.0050  339.0050  339.0050  339.0050 7805.0000   24.5570    0.0550    0.0507    2.9600    2.7460    0.0507 
7805.5000  345.0670  345.0670  345.0670  345.0670  345.0670 7805.5000   27.0280    0.0480    0.0459    2.9310    2.7440    0.0459 
7806.0000  344.0840  344.0840  344.0840  344.0840  344.0840 7806.0000   26.0910    0.0460    0.0429    3.0040    2.7500    0.0429 
7806.5000  335.1920  335.1920  335.1920  335.1920  335.1920 7806.5000   24.9400    0.0470    0.0399    3.0720    2.7560    0.0399 
7807.0000  311.8860  311.8860  311.8860  311.8860  311.8860 7807.0000   26.3690    0.0540    0.0363    3.0380    2.7590    0.0363 
7807.5000  267.2990  267.2990  267.2990  267.2990  267.2990 7807.5000   30.9580    0.0610    0.0325    2.9160    2.7460    0.0325 
7808.0000  219.8560  219.8560  219.8560  219.8560  219.8560 7808.0000   37.0420    0.0630    0.0295    2.7950    2.7190    0.0295 
7808.5000  188.6520  188.6520  188.6520  188.6520  188.6520 7808.5000   42.6740    0.0620    0.0293    2.7310    2.6920    0.0293 
7809.0000  183.8600  183.8600  183.8600  183.8600  183.8600 7809.0000   47.8340    0.0650    0.0314    2.7750    2.6690    0.0314 
7809.5000  232.6840  232.6840  232.6840  232.6840  232.6840 7809.5000   48.4250    0.0790    0.0360    2.9420    2.6450    0.0360 
7810.0000  363.6520  363.6520  363.6520  363.6520  363.6520 7810.0000   42.7360    0.1040    0.0412    3.1050    2.6260    0.0412 
7810.5000  564.2970  564.2970  564.2970  564.2970  564.2970 7810.5000   33.9630    0.1290    0.0451    3.1370    2.6100    0.0451 
7811.0000  682.8220  682.8220  682.8220  682.8220  682.8220 7811.0000   26.1180    0.1470    0.0513    3.1040    2.6060    0.0513 
7811.5000  526.7320  526.7320  526.7320  526.7320  526.7320 7811.5000   21.3170    0.1510    0.0613    3.1200    2.6220    0.0613 
7812.0000  332.7570  332.7570  332.7570  332.7570  332.7570 7812.0000   17.9890    0.1420    0.0715    3.1630    2.6510    0.0715 
7812.5000  212.5730  212.5730  212.5730  212.5730  212.5730 7812.5000   16.3880    0.1230    0.0787    3.1440    2.6840    0.0787 
7813.0000  152.1940  152.1940  152.1940  152.1940  152.1940 7813.0000   16.8170    0.1020    0.0838    3.0930    2.7090    0.0838 
7813.5000  121.9440  121.9440  121.9440  121.9440  121.9440 7813.5000   19.3550    0.0810    0.0908    3.1150    2.7170    0.0908 
7814.0000  103.1560  103.1560  103.1560  103.1560  103.1560 7814.0000   21.2130    0.0640    0.0988    3.1840    2.7190    0.0988 
7814.5000   92.8350   92.8350   92.8350   92.8350   92.8350 7814.5000   21.8920    0.0510    0.1009    3.2230    2.7230    0.1009 
7815.0000   88.6030   88.6030   88.6030   88.6030   88.6030 7815.0000   22.2340    0.0440    0.0967    3.2510    2.7270    0.0967 
7815.5000   90.1310   90.1310   90.1310   90.1310   90.1310 7815.5000   23.6900    0.0440    0.0918    3.2690    2.7320    0.0918 
7816.0000   94.8320   94.8320   94.8320   94.8320   94.8320 7816.0000   24.5990    0.0440    0.0914    3.2530    2.7340    0.0914 
7816.5000  100.7280  100.7280  100.7280  100.7280  100.7280 7816.5000   23.3410    0.0430    0.0946    3.1980    2.7340    0.0946 
7817.0000  103.4390  103.4390  103.4390  103.4390  103.4390 7817.0000   21.3090    0.0430    0.0956    3.1730    2.7340    0.0956 
7817.5000   99.7490   99.7490   99.7490   99.7490   99.7490 7817.5000   20.4280    0.0460    0.0913    3.1940    2.7320    0.0913 
7818.0000   90.6730   90.6730   90.6730   90.6730   90.6730 7818.0000   21.4790    0.0530    0.0845    3.2220    2.7160    0.0845 
7818.5000   77.8870   77.8870   77.8870   77.8870   77.8870 7818.5000   23.3240    0.0670    0.0802    3.2150    2.6840    0.0802 
7819.0000   64.8870   64.8870   64.8870   64.8870   64.8870 7819.0000   24.0800    0.0880    0.0814    3.1660    2.6430    0.0814 
7819.5000   54.2220   54.2220   54.2220   54.2220   54.2220 7819.5000   23.2890    0.1150    0.0866    3.1420    2.6090    0.0866 
7820.0000   46.7890   46.7890   46.7890   46.7890   46.7890 7820.0000   22.2450    0.1430    0.0938    3.1360    2.5980    0.0938 
7820.5000   43.5980   43.5980   43.5980   43.5980   43.5980 7820.5000   21.9460    0.1640    0.1003    3.1350    2.6150    0.1003 
7821.0000   47.0350   47.0350   47.0350   47.0350   47.0350 7821.0000   23.7740    0.1670    0.1025    3.1550    2.6520    0.1025 
7821.5000   56.4250   56.4250   56.4250   56.4250   56.4250 7821.5000   25.9990    0.1530    0.0993    3.1400    2.6920    0.0993 
7822.0000   70.2360   70.2360   70.2360   70.2360   70.2360 7822.0000   25.6640    0.1240    0.0922    3.0960    2.7170    0.0922 
7822.5000   82.0830   82.0830   82.0830   82.0830   82.0830 7822.5000   23.3000    0.0920    0.0870    3.0560    2.7280    0.0870 
7823.0000   83.7090   83.7090   83.7090   83.7090   83.7090 7823.0000   20.0420    0.0670    0.0872    3.0370    2.7300    0.0872 
7823.5000   80.1990   80.1990   80.1990   80.1990   80.1990 7823.5000   18.1530    0.0520    0.0905    3.0600    2.7340    0.0905 
