~VERSION INFORMATION
 VERS.                 2.0:   CWLS LOG ASCII STANDARD - VERSION 2.0
 WRAP.                  NO:   SINGLE LINE PER DEPTH STEP
 CREA.                 5/13/2021 1:24:19 AM
#CREATED USING DSPetro VERSION 10ep.4.05.01 BY H227404 ON 5/13/2021 1:24:19 AM
~WELL INFORMATION
#MNEM.UNIT       DATA                          DESCRIPTION MNEMONIC
#---------      ---------------------------   --------------------------
 STRT    .FT        0.0000                    : START DEPTH
 STOP    .FT        9000.0000                 : STOP DEPTH
 STEP    .FT        0.5000                    : STEP VALUE
 NULL    .      -999.0000                     : NULL VALUE
 DATE    .      5/13/2021                     : LAS file Creation Date
 WELL   .      SNRG-0001                          : Well Name
 COMP   .      Range Resources Appalachia, LLC      : Company
 FLD    .                                           : Field
 STATE  .      OH                                   : State
 COUNT  .      USA                                  : Country
 API    .      SNRG-0001                       : API Number
 UWI    .      SNRG-0001                       : Unique Well Identifier (UWI)
 LOC    .      750'SL & 1060'EL OF NW QTR., SEC. 30 : Location
 EPDAT  .      964                                  : Elevation of Permanent Datum
 GL     .      954.000                              : GL Elevation
 RWS    .      0                                    : Def_Rw
 WST    .      0                                    : Def_Rwt
 CNTY   .      Carroll                              : County
 PROV   .                                           : Province
 MDEC   .      0                                    : Magnetic Declination
 SRVC   .      WE                                   : Contractor
 GDAT   .      (Undefined)                          : Geodatum
 LONG   .      -81.2941990004645                    : Longitude
 LATI   .      40.6472950002882                     : Latitude
 COORDIN.                                           : Grid System
 XCOORD .                                           : X or East-West Coordinate
 YCOORD .                                           : Y or North-South Coordinate
~CURVE INFORMATION
#MNEM              UNIT       API CODE   Curve Type Comments
#----------  --------------- ----------  ---------- -----------
 DEPTH      .FT                        : Depth       
 AO10       .OHMM                      : ShalRes     Shallow Laterolog
 AO20       .OHMM                      : ShalRes     Shallow Laterolog
 AORX       .OHMM                      : ShalRes     Shallow Laterolog
 AT10       .OHMM                      : ShalRes     Shallow Laterolog
 AT20       .OHMM                      : ShalRes     Shallow Laterolog
 DEPTH      .FT                        : Depth       
 GR         .GAPI                      : GammaRay    Gamma Ray
 HDRA       .G/C3                      : Drho        Density Correction
 NPHI       .dec                       : Neutron     
 PEFZ       .B/E                       : PEF         PE
 RHOZ       .G/C3                      : Density     Compensated Density
 TNPH       .dec                       : Neutron     
~A  DEPTH    AO10      AO20      AORX      AT10      AT20     DEPTH       GR       HDRA      NPHI      PEFZ      RHOZ      TNPH   
# ...
8320.0000  883.7040  883.7040  883.7040  883.7040  883.7040 8320.0000   19.5990    0.0440    0.0301    3.1900    2.8120    0.0301 
8320.5000  814.4070  814.4070  814.4070  814.4070  814.4070 8320.5000   17.4730    0.0450    0.0314    3.1950    2.8090    0.0314 
8321.0000  793.3640  793.3640  793.3640  793.3640  793.3640 8321.0000   17.3570    0.0500    0.0325    3.1990    2.8110    0.0325 
8321.5000  844.3390  844.3390  844.3390  844.3390  844.3390 8321.5000   17.8280    0.0550    0.0326    3.2150    2.8160    0.0326 
8322.0000 1003.5630 1003.5630 1003.5630 1003.5630 1003.5630 8322.0000   18.8340    0.0590    0.0319    3.2340    2.8230    0.0319 
8322.5000 1252.3870 1252.3870 1252.3870 1252.3870 1252.3870 8322.5000   19.9720    0.0600    0.0309    3.2460    2.8280    0.0309 
8323.0000 1495.1479 1495.1479 1495.1479 1495.1479 1495.1479 8323.0000   21.0940    0.0640    0.0302    3.2830    2.8300    0.0302 
8323.5000 1565.9580 1565.9580 1565.9580 1565.9580 1565.9580 8323.5000   21.8490    0.0730    0.0301    3.3400    2.8320    0.0301 
8324.0000 1459.8180 1459.8180 1459.8180 1459.8180 1459.8180 8324.0000   22.1840    0.0890    0.0305    3.3480    2.8350    0.0305 
8324.5000 1267.5170 1267.5170 1267.5170 1267.5170 1267.5170 8324.5000   21.5600    0.1070    0.0323    3.3050    2.8410    0.0323 
8325.0000 1041.9351 1041.9351 1041.9351 1041.9351 1041.9351 8325.0000   19.5400    0.1160    0.0355    3.2200    2.8450    0.0355 
8325.5000  902.6710  902.6710  902.6710  902.6710  902.6710 8325.5000   17.4330    0.1110    0.0380    3.1390    2.8390    0.0380 
8326.0000  910.6480  910.6480  910.6480  910.6480  910.6480 8326.0000   15.3300    0.0950    0.0388    3.1500    2.8300    0.0388 
8326.5000 1062.3110 1062.3110 1062.3110 1062.3110 1062.3110 8326.5000   15.4210    0.0740    0.0380    3.1650    2.8180    0.0380 
8327.0000 1303.1990 1303.1990 1303.1990 1303.1990 1303.1990 8327.0000   17.5780    0.0600    0.0368    3.1780    2.8110    0.0368 
8327.5000 1478.0551 1478.0551 1478.0551 1478.0551 1478.0551 8327.5000   20.2940    0.0570    0.0359    3.1790    2.8100    0.0359 
8328.0000 1562.1340 1562.1340 1562.1340 1562.1340 1562.1340 8328.0000   23.8300    0.0620    0.0345    3.1460    2.8140    0.0345 
8328.5000 1603.4189 1603.4189 1603.4189 1603.4189 1603.4189 8328.5000   27.1430    0.0690    0.0330    3.1060    2.8170    0.0330 
8329.0000 1612.9670 1612.9670 1612.9670 1612.9670 1612.9670 8329.0000   29.5500    0.0710    0.0322    3.0790    2.8180    0.0322 
8329.5000 1555.4390 1555.4390 1555.4390 1555.4390 1555.4390 8329.5000   28.4660    0.0660    0.0322    3.0880    2.8130    0.0322 
8330.0000 1421.5590 1421.5590 1421.5590 1421.5590 1421.5590 8330.0000   24.8190    0.0580    0.0329    3.1180    2.8110    0.0329 
8330.5000 1246.6281 1246.6281 1246.6281 1246.6281 1246.6281 8330.5000   22.1210    0.0490    0.0342    3.1520    2.8100    0.0342 
8331.0000 1088.0811 1088.0811 1088.0811 1088.0811 1088.0811 8331.0000   21.0050    0.0430    0.0361    3.1310    2.8150    0.0361 
8331.5000  976.7540  976.7540  976.7540  976.7540  976.7540 8331.5000   21.2510    0.0420    0.0389    3.0940    2.8210    0.0389 
8332.0000  872.6090  872.6090  872.6090  872.6090  872.6090 8332.0000   21.3880    0.0450    0.0430    3.0910    2.8200    0.0430 
8332.5000  709.6900  709.6900  709.6900  709.6900  709.6900 8332.5000   21.0080    0.0480    0.0502    3.0950    2.8020    0.0502 
8333.0000  562.7650  562.7650  562.7650  562.7650  562.7650 8333.0000   20.8340    0.0490    0.0612    3.1080    2.7730    0.0612 
8333.5000  467.0080  467.0080  467.0080  467.0080  467.0080 8333.5000   19.6500    0.0460    0.0761    3.0840    2.7380    0.0761 
8334.0000  436.4070  436.4070  436.4070  436.4070  436.4070 8334.0000   18.0900    0.0420    0.0904    3.0430    2.7120    0.0904 
8334.5000  452.6450  452.6450  452.6450  452.6450  452.6450 8334.5000   16.8650    0.0370    0.0985    3.0460    2.7060    0.0985 
8335.0000  474.1660  474.1660  474.1660  474.1660  474.1660 8335.0000   15.8090    0.0350    0.0985    3.0560    2.7190    0.0985 
8335.5000  487.6030  487.6030  487.6030  487.6030  487.6030 8335.5000   15.0670    0.0340    0.0896    3.0760    2.7440    0.0896 
8336.0000  476.4160  476.4160  476.4160  476.4160  476.4160 8336.0000   14.6770    0.0360    0.0780    3.0960    2.7710    0.0780 
8336.5000  453.4610  453.4610  453.4610  453.4610  453.4610 8336.5000   15.3170    0.0390    0.0684    3.0970    2.7870    0.0684 
8337.0000  437.8960  437.8960  437.8960  437.8960  437.8960 8337.0000   17.3670    0.0480    0.0618    3.1150    2.7970    0.0618 
8337.5000  440.8990  440.8990  440.8990  440.8990  440.8990 8337.5000   20.6870    0.0600    0.0572    3.1320    2.8000    0.0572 
8338.0000  459.4480  459.4480  459.4480  459.4480  459.4480 8338.0000   24.3590    0.0730    0.0522    3.1300    2.8000    0.0522 
8338.5000  479.4570  479.4570  479.4570  479.4570  479.4570 8338.5000   27.0420    0.0810    0.0480    3.1270    2.7980    0.0480 
8339.0000  485.4960  485.4960  485.4960  485.4960  485.4960 8339.0000   29.4750    0.0820    0.0470    3.1160    2.7980    0.0470 
8339.5000  483.2930  483.2930  483.2930  483.2930  483.2930 8339.5000   38.2650    0.0750    0.0493    3.1100    2.8010    0.0493 
8340.0000  487.3690  487.3690  487.3690  487.3690  487.3690 8340.0000   59.8030    0.0650    0.0513    3.1000    2.8120    0.0513 
8340.5000  535.4070  535.4070  535.4070  535.4070  535.4070 8340.5000   87.8290    0.0540    0.0496    3.0960    2.8210    0.0496 
8341.0000  630.1810  630.1810  630.1810  630.1810  630.1810 8341.0000  107.3430    0.0480    0.0440    3.1030    2.8290    0.0440 
8341.5000  708.3390  708.3390  708.3390  708.3390  708.3390 8341.5000  108.9310    0.0460    0.0380    3.1140    2.8320    0.0380 
8342.0000  712.2970  712.2970  712.2970  712.2970  712.2970 8342.0000  102.4830    0.0470    0.0351    3.1170    2.8310    0.0351 
8342.5000  657.6270  657.6270  657.6270  657.6270  657.6270 8342.5000  102.2750    0.0490    0.0358    3.1380    2.8300    0.0358 
8343.0000  615.9070  615.9070  615.9070  615.9070  615.9070 8343.0000  101.3330    0.0540    0.0386    3.1610    2.8340    0.0386 
8343.5000  611.0960  611.0960  611.0960  611.0960  611.0960 8343.5000   93.1720    0.0580    0.0407    3.1630    2.8380    0.0407 
8344.0000  640.9110  640.9110  640.9110  640.9110  640.9110 8344.0000   76.5970    0.0600    0.0405    3.1460    2.8400    0.0405 
8344.5000  679.5090  679.5090  679.5090  679.5090  679.5090 8344.5000   62.4640    0.0590    0.0386    3.1340    2.8380    0.0386 
8345.0000  701.2170  701.2170  701.2170  701.2170  701.2170 8345.0000   55.5090    0.0550    0.0360    3.1350    2.8320    0.0360 
8345.5000  677.5880  677.5880  677.5880  677.5880  677.5880 8345.5000   47.8500    0.0510    0.0342    3.1260    2.8300    0.0342 
8346.0000  580.5990  580.5990  580.5990  580.5990  580.5990 8346.0000   40.3020    0.0500    0.0335    3.1310    2.8310    0.0335 
8346.5000  476.8460  476.8460  476.8460  476.8460  476.8460 8346.5000   36.8350    0.0490    0.0334    3.1450    2.8350    0.0334 
8347.0000  400.8510  400.8510  400.8510  400.8510  400.8510 8347.0000   36.1030    0.0480    0.0341    3.1410    2.8380    0.0341 
8347.5000  370.7900  370.7900  370.7900  370.7900  370.7900 8347.5000   34.8080    0.0470    0.0352    3.1130    2.8370    0.0352 
8348.0000  388.9600  388.9600  388.9600  388.9600  388.9600 8348.0000   34.2130    0.0460    0.0364    3.0930    2.8350    0.0364 
8348.5000  442.4860  442.4860  442.4860  442.4860  442.4860 8348.5000   37.5610    0.0440    0.0370    3.1120    2.8300    0.0370 
8349.0000  503.9030  503.9030  503.9030  503.9030  503.9030 8349.0000   41.3210    0.0420    0.0366    3.1490    2.8270    0.0366 
8349.5000  550.4230  550.4230  550.4230  550.4230  550.4230 8349.5000   40.5410    0.0420    0.0352    3.1540    2.8250    0.0352 
8350.0000  579.3240  579.3240  579.3240  579.3240  579.3240 8350.0000   35.4470    0.0460    0.0330    3.1510    2.8250    0.0330 
8350.5000  613.3910  613.3910  613.3910  613.3910  613.3910 8350.5000   29.7610    0.0520    0.0310    3.1240    2.8230    0.0310 
