~VERSION INFORMATION
 VERS.                 2.0:   CWLS LOG ASCII STANDARD - VERSION 2.0
 WRAP.                  NO:   SINGLE LINE PER DEPTH STEP
 CREA.                 5/13/2021 1:24:19 AM
#CREATED USING DSPetro VERSION 10ep.4.05.01 BY H227404 ON 5/13/2021 1:24:19 AM
~WELL INFORMATION
#MNEM.UNIT       DATA                          DESCRIPTION MNEMONIC
#---------      ---------------------------   --------------------------
 STRT    .FT        0.0000                    : START DEPTH
 STOP    .FT        9000.0000                 : STOP DEPTH
 STEP    .FT        0.5000                    : STEP VALUE
 NULL    .      -999.0000                     : NULL VALUE
 DATE    .      5/13/2021                     : LAS file Creation Date
 WELL   .      SNRG-0001                          : Well Name
 COMP   .      Range Resources Appalachia, LLC      : Company
 FLD    .                                           : Field
 STATE  .      OH                                   : State
 COUNT  .      USA                                  : Country
 API    .      SNRG-0001                       : API Number
 UWI    .      SNRG-0001                       : Unique Well Identifier (UWI)
 LOC    .      750'SL & 1060'EL OF NW QTR., SEC. 30 : Location
 EPDAT  .      964                                  : Elevation of Permanent Datum
 GL     .      954.000                              : GL Elevation
 RWS    .      0                                    : Def_Rw
 WST    .      0                                    : Def_Rwt
 CNTY   .      Carroll                              : County
 PROV   .                                           : Province
 MDEC   .      0                                    : Magnetic Declination
 SRVC   .      WE                                   : Contractor
 GDAT   .      (Undefined)                          : Geodatum
 LONG   .      -81.2941990004645                    : Longitude
 LATI   .      40.6472950002882                     : Latitude
 COORDIN.                                           : Grid System
 XCOORD .                                           : X or East-West Coordinate
 YCOORD .                                           : Y or North-South Coordinate
~CURVE INFORMATION
#MNEM              UNIT       API CODE   Curve Type Comments
#----------  --------------- ----------  ---------- -----------
 DEPTH      .FT                        : Depth       
 AO10       .OHMM                      : ShalRes     Shallow Laterolog
 AO20       .OHMM                      : ShalRes     Shallow Laterolog
 AORX       .OHMM                      : ShalRes     Shallow Laterolog
 AT10       .OHMM                      : ShalRes     Shallow Laterolog
 AT20       .OHMM                      : ShalRes     Shallow Laterolog
 DEPTH      .FT                        : Depth       
 GR         .GAPI                      : GammaRay    Gamma Ray
 HDRA       .G/C3                      : Drho        Density Correction
 NPHI       .dec                       : Neutron     
 PEFZ       .B/E                       : PEF         PE
 RHOZ       .G/C3                      : Density     Compensated Density
 TNPH       .dec                       : Neutron     
~A  DEPTH    AO10      AO20      AORX      AT10      AT20     DEPTH       GR       HDRA      NPHI      PEFZ      RHOZ      TNPH   
# ...
5890.0000   78.3210   78.3210   78.3210   78.3210   78.3210 5890.0000  117.4410    0.1550    0.1710    3.9320    2.6590    0.1710 
5890.5000   78.1230   78.1230   78.1230   78.1230   78.1230 5890.5000  116.7700    0.1690    0.1771    3.8080    2.6480    0.1771 
5891.0000   76.5400   76.5400   76.5400   76.5400   76.5400 5891.0000  118.8290    0.1700    0.1817    3.6400    2.6430    0.1817 
5891.5000   75.1560   75.1560   75.1560   75.1560   75.1560 5891.5000  122.1700    0.1550    0.1841    3.5750    2.6410    0.1841 
5892.0000   74.5350   74.5350   74.5350   74.5350   74.5350 5892.0000  120.0300    0.1320    0.1823    3.6250    2.6470    0.1823 
5892.5000   75.8650   75.8650   75.8650   75.8650   75.8650 5892.5000  112.4450    0.1120    0.1727    3.8000    2.6520    0.1727 
5893.0000   77.5270   77.5270   77.5270   77.5270   77.5270 5893.0000  104.9340    0.1080    0.1559    3.9380    2.6500    0.1559 
5893.5000   78.3440   78.3440   78.3440   78.3440   78.3440 5893.5000  102.0460    0.1260    0.1425    3.9430    2.6420    0.1425 
5894.0000   77.7310   77.7310   77.7310   77.7310   77.7310 5894.0000  102.2810    0.1510    0.1392    3.8510    2.6270    0.1392 
5894.5000   76.0700   76.0700   76.0700   76.0700   76.0700 5894.5000  103.1900    0.1680    0.1439    3.7970    2.6160    0.1439 
5895.0000   74.6160   74.6160   74.6160   74.6160   74.6160 5895.0000  106.4970    0.1760    0.1484    3.8060    2.6150    0.1484 
5895.5000   72.9720   72.9720   72.9720   72.9720   72.9720 5895.5000  110.8120    0.1750    0.1508    3.8090    2.6240    0.1508 
5896.0000   70.8730   70.8730   70.8730   70.8730   70.8730 5896.0000  116.2150    0.1760    0.1556    3.7970    2.6330    0.1556 
5896.5000   68.4870   68.4870   68.4870   68.4870   68.4870 5896.5000  117.6850    0.1850    0.1665    3.7800    2.6350    0.1665 
5897.0000   66.8500   66.8500   66.8500   66.8500   66.8500 5897.0000  116.1190    0.1940    0.1762    3.7420    2.6250    0.1762 
5897.5000   66.7590   66.7590   66.7590   66.7590   66.7590 5897.5000  116.8730    0.1960    0.1762    3.6930    2.6120    0.1762 
5898.0000   67.5330   67.5330   67.5330   67.5330   67.5330 5898.0000  119.0790    0.1890    0.1702    3.7060    2.6020    0.1702 
5898.5000   68.5090   68.5090   68.5090   68.5090   68.5090 5898.5000  118.6370    0.1750    0.1579    3.7880    2.6050    0.1579 
5899.0000   70.7180   70.7180   70.7180   70.7180   70.7180 5899.0000  110.8620    0.1640    0.1439    3.9700    2.6170    0.1439 
5899.5000   75.1500   75.1500   75.1500   75.1500   75.1500 5899.5000   96.4790    0.1560    0.1323    4.0950    2.6360    0.1323 
5900.0000   80.2840   80.2840   80.2840   80.2840   80.2840 5900.0000   84.9980    0.1490    0.1265    4.1040    2.6510    0.1265 
5900.5000   83.1390   83.1390   83.1390   83.1390   83.1390 5900.5000   85.2400    0.1440    0.1297    4.0010    2.6550    0.1297 
5901.0000   79.4710   79.4710   79.4710   79.4710   79.4710 5901.0000   94.7700    0.1390    0.1397    3.8880    2.6550    0.1397 
5901.5000   72.6110   72.6110   72.6110   72.6110   72.6110 5901.5000  108.0630    0.1310    0.1542    3.7810    2.6470    0.1542 
5902.0000   66.7050   66.7050   66.7050   66.7050   66.7050 5902.0000  116.6300    0.1210    0.1695    3.7050    2.6400    0.1695 
5902.5000   64.4190   64.4190   64.4190   64.4190   64.4190 5902.5000  119.2370    0.1150    0.1793    3.7180    2.6400    0.1793 
5903.0000   66.0330   66.0330   66.0330   66.0330   66.0330 5903.0000  116.2490    0.1150    0.1802    3.7240    2.6420    0.1802 
5903.5000   68.4840   68.4840   68.4840   68.4840   68.4840 5903.5000  112.2780    0.1220    0.1751    3.7550    2.6520    0.1751 
5904.0000   71.3690   71.3690   71.3690   71.3690   71.3690 5904.0000  111.0940    0.1320    0.1659    3.7230    2.6620    0.1659 
5904.5000   73.3880   73.3880   73.3880   73.3880   73.3880 5904.5000  111.0730    0.1390    0.1561    3.6740    2.6670    0.1561 
5905.0000   74.6440   74.6440   74.6440   74.6440   74.6440 5905.0000  108.9960    0.1440    0.1489    3.7840    2.6620    0.1489 
5905.5000   74.9570   74.9570   74.9570   74.9570   74.9570 5905.5000  104.3170    0.1470    0.1413    3.9350    2.6510    0.1413 
5906.0000   73.1130   73.1130   73.1130   73.1130   73.1130 5906.0000  105.4510    0.1470    0.1340    3.9270    2.6270    0.1340 
5906.5000   70.6440   70.6440   70.6440   70.6440   70.6440 5906.5000  111.8910    0.1510    0.1319    3.7910    2.6140    0.1319 
5907.0000   67.6610   67.6610   67.6610   67.6610   67.6610 5907.0000  120.6610    0.1480    0.1406    3.6010    2.6010    0.1406 
5907.5000   64.1160   64.1160   64.1160   64.1160   64.1160 5907.5000  126.5710    0.1450    0.1551    3.6010    2.6000    0.1551 
5908.0000   60.5740   60.5740   60.5740   60.5740   60.5740 5908.0000  127.2710    0.1400    0.1668    3.7170    2.6010    0.1668 
5908.5000   57.8940   57.8940   57.8940   57.8940   57.8940 5908.5000  124.6460    0.1340    0.1709    3.7230    2.6100    0.1709 
5909.0000   57.8880   57.8880   57.8880   57.8880   57.8880 5909.0000  118.1480    0.1260    0.1728    3.6830    2.6200    0.1728 
5909.5000   60.1170   60.1170   60.1170   60.1170   60.1170 5909.5000  112.6940    0.1140    0.1743    3.7060    2.6380    0.1743 
5910.0000   63.2060   63.2060   63.2060   63.2060   63.2060 5910.0000  114.5090    0.0930    0.1695    3.8280    2.6560    0.1695 
5910.5000   65.4810   65.4810   65.4810   65.4810   65.4810 5910.5000  118.7680    0.0710    0.1578    3.9090    2.6770    0.1578 
5911.0000   66.1210   66.1210   66.1210   66.1210   66.1210 5911.0000  121.2760    0.0520    0.1444    3.8930    2.6880    0.1444 
5911.5000   65.2760   65.2760   65.2760   65.2760   65.2760 5911.5000  118.1180    0.0450    0.1384    3.8610    2.6900    0.1384 
5912.0000   63.6130   63.6130   63.6130   63.6130   63.6130 5912.0000  114.1210    0.0490    0.1408    3.8560    2.6850    0.1408 
5912.5000   62.9790   62.9790   62.9790   62.9790   62.9790 5912.5000  110.0310    0.0580    0.1452    3.8750    2.6800    0.1452 
5913.0000   65.1390   65.1390   65.1390   65.1390   65.1390 5913.0000  101.5160    0.0730    0.1451    3.9650    2.6780    0.1451 
5913.5000   69.4520   69.4520   69.4520   69.4520   69.4520 5913.5000   91.4000    0.0880    0.1367    4.0990    2.6750    0.1367 
5914.0000   73.9800   73.9800   73.9800   73.9800   73.9800 5914.0000   86.5580    0.1040    0.1228    4.1420    2.6760    0.1228 
5914.5000   75.5040   75.5040   75.5040   75.5040   75.5040 5914.5000   90.9870    0.1190    0.1143    4.0830    2.6720    0.1143 
5915.0000   75.0710   75.0710   75.0710   75.0710   75.0710 5915.0000   97.8440    0.1320    0.1181    3.9860    2.6600    0.1181 
5915.5000   75.2860   75.2860   75.2860   75.2860   75.2860 5915.5000  102.7530    0.1440    0.1290    3.8820    2.6350    0.1290 
5916.0000   77.9130   77.9130   77.9130   77.9130   77.9130 5916.0000  103.7320    0.1540    0.1361    3.7550    2.6090    0.1361 
5916.5000   81.0480   81.0480   81.0480   81.0480   81.0480 5916.5000  105.3150    0.1640    0.1363    3.6870    2.5850    0.1363 
5917.0000   83.0140   83.0140   83.0140   83.0140   83.0140 5917.0000  108.3180    0.1740    0.1356    3.6620    2.5740    0.1356 
5917.5000   82.2470   82.2470   82.2470   82.2470   82.2470 5917.5000  111.7260    0.1760    0.1393    3.6290    2.5700    0.1393 
5918.0000   80.9000   80.9000   80.9000   80.9000   80.9000 5918.0000  117.1130    0.1770    0.1451    3.5600    2.5760    0.1451 
5918.5000   78.8180   78.8180   78.8180   78.8180   78.8180 5918.5000  121.9490    0.1790    0.1485    3.5200    2.5790    0.1485 
5919.0000   76.9920   76.9920   76.9920   76.9920   76.9920 5919.0000  125.6550    0.1860    0.1505    3.5780    2.5780    0.1505 
5919.5000   75.2580   75.2580   75.2580   75.2580   75.2580 5919.5000  125.6970    0.2000    0.1533    3.6170    2.5710    0.1533 
5920.0000   74.8820   74.8820   74.8820   74.8820   74.8820 5920.0000  119.8740    0.2110    0.1554    3.5950    2.5660    0.1554 
5920.5000   75.4970   75.4970   75.4970   75.4970   75.4970 5920.5000  112.9720    0.2130    0.1537    3.6090    2.5670    0.1537 
