~VERSION INFORMATION
 VERS.                 2.0:   CWLS LOG ASCII STANDARD - VERSION 2.0
 WRAP.                  NO:   SINGLE LINE PER DEPTH STEP
 CREA.                 5/13/2021 1:24:19 AM
#CREATED USING DSPetro VERSION 10ep.4.05.01 BY H227404 ON 5/13/2021 1:24:19 AM
~WELL INFORMATION
#MNEM.UNIT       DATA                          DESCRIPTION MNEMONIC
#---------      ---------------------------   --------------------------
 STRT    .FT        0.0000                    : START DEPTH
 STOP    .FT        9000.0000                 : STOP DEPTH
 STEP    .FT        0.5000                    : STEP VALUE
 NULL    .      -999.0000                     : NULL VALUE
 DATE    .      5/13/2021                     : LAS file Creation Date
 WELL   .      SNRG-0001                          : Well Name
 COMP   .      Range Resources Appalachia, LLC      : Company
 FLD    .                                           : Field
 STATE  .      OH                                   : State
 COUNT  .      USA                                  : Country
 API    .      SNRG-0001                       : API Number
 UWI    .      SNRG-0001                       : Unique Well Identifier (UWI)
 LOC    .      750'SL & 1060'EL OF NW QTR., SEC. 30 : Location
 EPDAT  .      964                                  : Elevation of Permanent Datum
 GL     .      954.000                              : GL Elevation
 RWS    .      0                                    : Def_Rw
 WST    .      0                                    : Def_Rwt
 CNTY   .      Carroll                              : County
 PROV   .                                           : Province
 MDEC   .      0                                    : Magnetic Declination
 SRVC   .      WE                                   : Contractor
 GDAT   .      (Undefined)                          : Geodatum
 LONG   .      -81.2941990004645                    : Longitude
 LATI   .      40.6472950002882                     : Latitude
 COORDIN.                                           : Grid System
 XCOORD .                                           : X or East-West Coordinate
 YCOORD .                                           : Y or North-South Coordinate
~CURVE INFORMATION
#MNEM              UNIT       API CODE   Curve Type Comments
#----------  --------------- ----------  ---------- -----------
 DEPTH      .FT                        : Depth       
 AO10       .OHMM                      : ShalRes     Shallow Laterolog
 AO20       .OHMM                      : ShalRes     Shallow Laterolog
 AORX       .OHMM                      : ShalRes     Shallow Laterolog
 AT10       .OHMM                      : ShalRes     Shallow Laterolog
 AT20       .OHMM                      : ShalRes     Shallow Laterolog
 DEPTH      .FT                        : Depth       
 GR         .GAPI                      : GammaRay    Gamma Ray
 HDRA       .G/C3                      : Drho        Density Correction
 NPHI       .dec                       : Neutron     
 PEFZ       .B/E                       : PEF         PE
 RHOZ       .G/C3                      : Density     Compensated Density
 TNPH       .dec                       : Neutron     
~A  DEPTH    AO10      AO20      AORX      AT10      AT20     DEPTH       GR       HDRA      NPHI      PEFZ      RHOZ      TNPH   
# ...
8870.5000 108257.5234 108257.5234 108257.5234 108257.5234 108257.5234 8870.5000 -999.0000    0.0570 -999.0000    3.8950    2.7510 -999.0000 
8871.0000 108258.1641 108258.1641 108258.1641 108258.1641 108258.1641 8871.0000 -999.0000    0.0530 -999.0000    4.0940    2.7350 -999.0000 
8871.5000 97277.3828 97277.3828 97277.3828 97277.3828 97277.3828 8871.5000 -999.0000    0.0480 -999.0000    4.2160    2.7260 -999.0000 
8872.0000 55168.3281 55168.3281 55168.3281 55168.3281 55168.3281 8872.0000 -999.0000    0.0450 -999.0000    4.2040    2.7220 -999.0000 
8872.5000 50247.8008 50247.8008 50247.8008 50247.8008 50247.8008 8872.5000 -999.0000    0.0460 -999.0000    4.1910    2.7210 -999.0000 
8873.0000 50248.2734 50248.2734 50248.2734 50248.2734 50248.2734 8873.0000 -999.0000    0.0510 -999.0000    4.2150    2.7230 -999.0000 
8873.5000 86387.6641 86387.6641 86387.6641 86387.6641 86387.6641 8873.5000 -999.0000    0.0570 -999.0000    4.2360    2.7270 -999.0000 
8874.0000 108086.7813 108086.7813 108086.7813 108086.7813 108086.7813 8874.0000 -999.0000    0.0650 -999.0000    4.2380    2.7330 -999.0000 
8874.5000 108261.0234 108261.0234 108261.0234 108261.0234 108261.0234 8874.5000 -999.0000    0.0700 -999.0000    4.2020    2.7360 -999.0000 
8875.0000 108258.1328 108258.1328 108258.1328 108258.1328 108258.1328 8875.0000 -999.0000    0.0730 -999.0000    4.1210    2.7390 -999.0000 
8875.5000 108256.1563 108256.1563 108256.1563 108256.1563 108256.1563 8875.5000 -999.0000    0.0740 -999.0000    4.1180    2.7330 -999.0000 
8876.0000 108255.0391 108255.0391 108255.0391 108255.0391 108255.0391 8876.0000 -999.0000    0.0680 -999.0000    4.1420    2.6980 -999.0000 
8876.5000 108254.8594 108254.8594 108254.8594 108254.8594 108254.8594 8876.5000 -999.0000    0.0550 -999.0000    4.1080    2.6290 -999.0000 
8877.0000 81662.7188 81662.7188 81662.7188 81662.7188 81662.7188 8877.0000 -999.0000    0.0380 -999.0000    3.9920    2.5330 -999.0000 
8877.5000 52195.6563 52195.6563 52195.6563 52195.6563 52195.6563 8877.5000 -999.0000    0.0180 -999.0000    3.8570    2.4300 -999.0000 
8878.0000 28699.2285 28699.2285 28699.2285 28699.2285 28699.2285 8878.0000 -999.0000    0.0020 -999.0000    3.7890    2.3470 -999.0000 
8878.5000 34448.9258 34448.9258 34448.9258 34448.9258 34448.9258 8878.5000 -999.0000   -0.0080 -999.0000    3.7720    2.2940 -999.0000 
8879.0000 51398.4961 51398.4961 51398.4961 51398.4961 51398.4961 8879.0000 -999.0000   -0.0130 -999.0000 -999.0000    2.2710 -999.0000 
8879.5000 98005.0781 98005.0781 98005.0781 98005.0781 98005.0781 8879.5000 -999.0000 -999.0000 -999.0000 -999.0000 -999.0000 -999.0000 
8880.0000 100921.0781 100921.0781 100921.0781 100921.0781 100921.0781 8880.0000 -999.0000 -999.0000 -999.0000 -999.0000 -999.0000 -999.0000 
8880.5000 54153.2813 54153.2813 54153.2813 54153.2813 54153.2813 8880.5000 -999.0000 -999.0000 -999.0000 -999.0000 -999.0000 -999.0000 
8881.0000 23508.4941 23508.4941 23508.4941 23508.4941 23508.4941 8881.0000 -999.0000 -999.0000 -999.0000 -999.0000 -999.0000 -999.0000 
8881.5000 10348.0586 10348.0586 10348.0586 10348.0586 10348.0586 8881.5000 -999.0000 -999.0000 -999.0000 -999.0000 -999.0000 -999.0000 
8882.0000 10649.4385 10649.4385 10649.4385 10649.4385 10649.4385 8882.0000 -999.0000 -999.0000 -999.0000 -999.0000 -999.0000 -999.0000 
8882.5000 23198.1934 23198.1934 23198.1934 23198.1934 23198.1934 8882.5000 -999.0000 -999.0000 -999.0000 -999.0000 -999.0000 -999.0000 
8883.0000 54234.9141 54234.9141 54234.9141 54234.9141 54234.9141 8883.0000 -999.0000 -999.0000 -999.0000 -999.0000 -999.0000 -999.0000 
8883.5000 101618.3047 101618.3047 101618.3047 101618.3047 101618.3047 8883.5000 -999.0000 -999.0000 -999.0000 -999.0000 -999.0000 -999.0000 
8884.0000 108270.6406 108270.6406 108270.6406 108270.6406 108270.6406 8884.0000 -999.0000 -999.0000 -999.0000 -999.0000 -999.0000 -999.0000 
8884.5000 108271.8828 108271.8828 108271.8828 108271.8828 108271.8828 8884.5000 -999.0000 -999.0000 -999.0000 -999.0000 -999.0000 -999.0000 
8885.0000 108274.2031 108274.2031 108274.2031 108274.2031 108274.2031 8885.0000 -999.0000 -999.0000 -999.0000 -999.0000 -999.0000 -999.0000 
8885.5000 108277.1563 108277.1563 108277.1563 108277.1563 108277.1563 8885.5000 -999.0000 -999.0000 -999.0000 -999.0000 -999.0000 -999.0000 
8886.0000 108279.6406 108279.6406 108279.6406 108279.6406 108279.6406 8886.0000 -999.0000 -999.0000 -999.0000 -999.0000 -999.0000 -999.0000 
8886.5000 108281.6016 108281.6016 108281.6016 108281.6016 108281.6016 8886.5000 -999.0000 -999.0000 -999.0000 -999.0000 -999.0000 -999.0000 
8887.0000 108282.9844 108282.9844 108282.9844 108282.9844 108282.9844 8887.0000 -999.0000 -999.0000 -999.0000 -999.0000 -999.0000 -999.0000 
8887.5000 99974.1250 99974.1250 99974.1250 99974.1250 99974.1250 8887.5000 -999.0000 -999.0000 -999.0000 -999.0000 -999.0000 -999.0000 
8888.0000 56222.4922 56222.4922 56222.4922 56222.4922 56222.4922 8888.0000 -999.0000 -999.0000 -999.0000 -999.0000 -999.0000 -999.0000 
8888.5000 27170.7422 27170.7422 27170.7422 27170.7422 27170.7422 8888.5000 -999.0000 -999.0000 -999.0000 -999.0000 -999.0000 -999.0000 
8889.0000 13046.2930 13046.2930 13046.2930 13046.2930 13046.2930 8889.0000 -999.0000 -999.0000 -999.0000 -999.0000 -999.0000 -999.0000 
8889.5000 9599.4775 9599.4775 9599.4775 9599.4775 9599.4775 8889.5000 -999.0000 -999.0000 -999.0000 -999.0000 -999.0000 -999.0000 
8890.0000 9168.5137 9168.5137 9168.5137 9168.5137 9168.5137 8890.0000 -999.0000 -999.0000 -999.0000 -999.0000 -999.0000 -999.0000 
8890.5000 11078.9473 11078.9473 11078.9473 11078.9473 11078.9473 8890.5000 -999.0000 -999.0000 -999.0000 -999.0000 -999.0000 -999.0000 
8891.0000 18643.2109 18643.2109 18643.2109 18643.2109 18643.2109 8891.0000 -999.0000 -999.0000 -999.0000 -999.0000 -999.0000 -999.0000 
8891.5000 30447.3945 30447.3945 30447.3945 30447.3945 30447.3945 8891.5000 -999.0000 -999.0000 -999.0000 -999.0000 -999.0000 -999.0000 
8892.0000 59885.3984 59885.3984 59885.3984 59885.3984 59885.3984 8892.0000 -999.0000 -999.0000 -999.0000 -999.0000 -999.0000 -999.0000 
8892.5000 78798.9531 78798.9531 78798.9531 78798.9531 78798.9531 8892.5000 -999.0000 -999.0000 -999.0000 -999.0000 -999.0000 -999.0000 
8893.0000 105325.2734 105325.2734 105325.2734 105325.2734 105325.2734 8893.0000 -999.0000 -999.0000 -999.0000 -999.0000 -999.0000 -999.0000 
8893.5000 108290.5156 108290.5156 108290.5156 108290.5156 108290.5156 8893.5000 -999.0000 -999.0000 -999.0000 -999.0000 -999.0000 -999.0000 
8894.0000 108290.5938 108290.5938 108290.5938 108290.5938 108290.5938 8894.0000 -999.0000 -999.0000 -999.0000 -999.0000 -999.0000 -999.0000 
8894.5000 65034.1719 65034.1719 65034.1719 65034.1719 65034.1719 8894.5000 -999.0000 -999.0000 -999.0000 -999.0000 -999.0000 -999.0000 
8895.0000 28493.5488 28493.5488 28493.5488 28493.5488 28493.5488 8895.0000 -999.0000 -999.0000 -999.0000 -999.0000 -999.0000 -999.0000 
8895.5000 11971.6035 11971.6035 11971.6035 11971.6035 11971.6035 8895.5000 -999.0000 -999.0000 -999.0000 -999.0000 -999.0000 -999.0000 
8896.0000 6478.0649 6478.0649 6478.0649 6478.0649 6478.0649 8896.0000 -999.0000 -999.0000 -999.0000 -999.0000 -999.0000 -999.0000 
8896.5000 5883.8101 5883.8101 5883.8101 5883.8101 5883.8101 8896.5000 -999.0000 -999.0000 -999.0000 -999.0000 -999.0000 -999.0000 
8897.0000 5619.2729 5619.2729 5619.2729 5619.2729 5619.2729 8897.0000 -999.0000 -999.0000 -999.0000 -999.0000 -999.0000 -999.0000 
8897.5000 5684.2432 5684.2432 5684.2432 5684.2432 5684.2432 8897.5000 -999.0000 -999.0000 -999.0000 -999.0000 -999.0000 -999.0000 
8898.0000 6496.7202 6496.7202 6496.7202 6496.7202 6496.7202 8898.0000 -999.0000 -999.0000 -999.0000 -999.0000 -999.0000 -999.0000 
8898.5000 16852.5566 16852.5566 16852.5566 16852.5566 16852.5566 8898.5000 -999.0000 -999.0000 -999.0000 -999.0000 -999.0000 -999.0000 
8899.0000 36785.8164 36785.8164 36785.8164 36785.8164 36785.8164 8899.0000 -999.0000 -999.0000 -999.0000 -999.0000 -999.0000 -999.0000 
8899.5000 35027.1641 35027.1641 35027.1641 35027.1641 35027.1641 8899.5000 -999.0000 -999.0000 -999.0000 -999.0000 -999.0000 -999.0000 
