~VERSION INFORMATION
 VERS.                 2.0:   CWLS LOG ASCII STANDARD - VERSION 2.0
 WRAP.                  NO:   SINGLE LINE PER DEPTH STEP
 CREA.                 5/13/2021 1:24:19 AM
#CREATED USING DSPetro VERSION 10ep.4.05.01 BY H227404 ON 5/13/2021 1:24:19 AM
~WELL INFORMATION
#MNEM.UNIT       DATA                          DESCRIPTION MNEMONIC
#---------      ---------------------------   --------------------------
 STRT    .FT        0.0000                    : START DEPTH
 STOP    .FT        9000.0000                 : STOP DEPTH
 STEP    .FT        0.5000                    : STEP VALUE
 NULL    .      -999.0000                     : NULL VALUE
 DATE    .      5/13/2021                     : LAS file Creation Date
 WELL   .      SNRG-0001                          : Well Name
 COMP   .      Range Resources Appalachia, LLC      : Company
 FLD    .                                           : Field
 STATE  .      OH                                   : State
 COUNT  .      USA                                  : Country
 API    .      SNRG-0001                       : API Number
 UWI    .      SNRG-0001                       : Unique Well Identifier (UWI)
 LOC    .      750'SL & 1060'EL OF NW QTR., SEC. 30 : Location
 EPDAT  .      964                                  : Elevation of Permanent Datum
 GL     .      954.000                              : GL Elevation
 RWS    .      0                                    : Def_Rw
 WST    .      0                                    : Def_Rwt
 CNTY   .      Carroll                              : County
 PROV   .                                           : Province
 MDEC   .      0                                    : Magnetic Declination
 SRVC   .      WE                                   : Contractor
 GDAT   .      (Undefined)                          : Geodatum
 LONG   .      -81.2941990004645                    : Longitude
 LATI   .      40.6472950002882                     : Latitude
 COORDIN.                                           : Grid System
 XCOORD .                                           : X or East-West Coordinate
 YCOORD .                                           : Y or North-South Coordinate
~CURVE INFORMATION
#MNEM              UNIT       API CODE   Curve Type Comments
#----------  --------------- ----------  ---------- -----------
 DEPTH      .FT                        : Depth       
 AO10       .OHMM                      : ShalRes     Shallow Laterolog
 AO20       .OHMM                      : ShalRes     Shallow Laterolog
 AORX       .OHMM                      : ShalRes     Shallow Laterolog
 AT10       .OHMM                      : ShalRes     Shallow Laterolog
 AT20       .OHMM                      : ShalRes     Shallow Laterolog
 DEPTH      .FT                        : Depth       
 GR         .GAPI                      : GammaRay    Gamma Ray
 HDRA       .G/C3                      : Drho        Density Correction
 NPHI       .dec                       : Neutron     
 PEFZ       .B/E                       : PEF         PE
 RHOZ       .G/C3                      : Density     Compensated Density
 TNPH       .dec                       : Neutron     
~A  DEPTH    AO10      AO20      AORX      AT10      AT20     DEPTH       GR       HDRA      NPHI      PEFZ      RHOZ      TNPH   
# ...
6169.0000   56.5110   56.5110   56.5110   56.5110   56.5110 6169.0000  120.0270    0.2250    0.1791    3.5900    2.5840    0.1791 
6169.5000   57.0250   57.0250   57.0250   57.0250   57.0250 6169.5000  118.1270    0.2180    0.1817    3.5490    2.5910    0.1817 
6170.0000   59.1330   59.1330   59.1330   59.1330   59.1330 6170.0000  116.3380    0.2050    0.1811    3.4970    2.5960    0.1811 
6170.5000   61.9460   61.9460   61.9460   61.9460   61.9460 6170.5000  118.5420    0.1900    0.1775    3.4920    2.5990    0.1775 
6171.0000   63.6230   63.6230   63.6230   63.6230   63.6230 6171.0000  123.2290    0.1780    0.1743    3.4580    2.6000    0.1743 
6171.5000   62.6810   62.6810   62.6810   62.6810   62.6810 6171.5000  128.9730    0.1740    0.1767    3.4540    2.5940    0.1767 
6172.0000   60.1780   60.1780   60.1780   60.1780   60.1780 6172.0000  134.0960    0.1790    0.1868    3.4530    2.5840    0.1868 
6172.5000   57.1690   57.1690   57.1690   57.1690   57.1690 6172.5000  135.5700    0.1890    0.2027    3.4640    2.5720    0.2027 
6173.0000   54.6900   54.6900   54.6900   54.6900   54.6900 6173.0000  131.7760    0.2010    0.2150    3.5020    2.5650    0.2150 
6173.5000   53.2410   53.2410   53.2410   53.2410   53.2410 6173.5000  126.9780    0.2100    0.2199    3.5120    2.5620    0.2199 
6174.0000   52.4440   52.4440   52.4440   52.4440   52.4440 6174.0000  126.1030    0.2180    0.2191    3.5190    2.5650    0.2191 
6174.5000   51.3090   51.3090   51.3090   51.3090   51.3090 6174.5000  126.1600    0.2240    0.2131    3.5150    2.5770    0.2131 
6175.0000   49.4130   49.4130   49.4130   49.4130   49.4130 6175.0000  126.0040    0.2230    0.2055    3.5280    2.5900    0.2055 
6175.5000   47.5770   47.5770   47.5770   47.5770   47.5770 6175.5000  124.3280    0.2180    0.1978    3.5980    2.6020    0.1978 
6176.0000   46.0760   46.0760   46.0760   46.0760   46.0760 6176.0000  124.1380    0.2100    0.1896    3.6650    2.5970    0.1896 
6176.5000   45.3440   45.3440   45.3440   45.3440   45.3440 6176.5000  124.3790    0.2070    0.1844    3.7040    2.5830    0.1844 
6177.0000   44.9110   44.9110   44.9110   44.9110   44.9110 6177.0000  123.0010    0.2140    0.1785    3.6660    2.5570    0.1785 
6177.5000   44.6120   44.6120   44.6120   44.6120   44.6120 6177.5000  123.0030    0.2280    0.1683    3.6110    2.5310    0.1683 
6178.0000   44.6050   44.6050   44.6050   44.6050   44.6050 6178.0000  126.9090    0.2450    0.1599    3.5700    2.5070    0.1599 
6178.5000   44.7210   44.7210   44.7210   44.7210   44.7210 6178.5000  131.4720    0.2590    0.1613    3.5000    2.4860    0.1613 
6179.0000   44.9770   44.9770   44.9770   44.9770   44.9770 6179.0000  132.9710    0.2670    0.1754    3.4270    2.4720    0.1754 
6179.5000   45.3990   45.3990   45.3990   45.3990   45.3990 6179.5000  134.2490    0.2720    0.1906    3.3900    2.4660    0.1906 
6180.0000   45.6600   45.6600   45.6600   45.6600   45.6600 6180.0000  132.9620    0.2760    0.1957    3.4030    2.4650    0.1957 
6180.5000   45.8050   45.8050   45.8050   45.8050   45.8050 6180.5000  130.8430    0.2800    0.1914    3.4120    2.4740    0.1914 
6181.0000   45.4130   45.4130   45.4130   45.4130   45.4130 6181.0000  130.8570    0.2810    0.1865    3.4110    2.4870    0.1865 
6181.5000   44.3370   44.3370   44.3370   44.3370   44.3370 6181.5000  132.5540    0.2790    0.1867    3.4440    2.4940    0.1867 
6182.0000   43.1720   43.1720   43.1720   43.1720   43.1720 6182.0000  135.7670    0.2700    0.1893    3.5010    2.4930    0.1893 
6182.5000   42.1560   42.1560   42.1560   42.1560   42.1560 6182.5000  133.8170    0.2580    0.1912    3.5220    2.4860    0.1912 
6183.0000   41.6690   41.6690   41.6690   41.6690   41.6690 6183.0000  126.6920    0.2490    0.1940    3.5880    2.4810    0.1940 
6183.5000   41.3150   41.3150   41.3150   41.3150   41.3150 6183.5000  123.2780    0.2450    0.1950    3.6390    2.4790    0.1950 
6184.0000   40.5070   40.5070   40.5070   40.5070   40.5070 6184.0000  125.4580    0.2430    0.1940    3.6640    2.4790    0.1940 
6184.5000   39.5550   39.5550   39.5550   39.5550   39.5550 6184.5000  128.3650    0.2450    0.1942    3.6320    2.4780    0.1942 
6185.0000   38.8620   38.8620   38.8620   38.8620   38.8620 6185.0000  128.5780    0.2460    0.1951    3.5550    2.4760    0.1951 
6185.5000   39.1120   39.1120   39.1120   39.1120   39.1120 6185.5000  124.4990    0.2460    0.1985    3.5270    2.4730    0.1985 
6186.0000   40.2210   40.2210   40.2210   40.2210   40.2210 6186.0000  119.4930    0.2450    0.2000    3.5270    2.4760    0.2000 
6186.5000   41.4590   41.4590   41.4590   41.4590   41.4590 6186.5000  117.1730    0.2380    0.1951    3.5240    2.4840    0.1951 
6187.0000   42.3160   42.3160   42.3160   42.3160   42.3160 6187.0000  118.2680    0.2270    0.1908    3.5050    2.4970    0.1908 
6187.5000   42.0260   42.0260   42.0260   42.0260   42.0260 6187.5000  125.2620    0.2150    0.1911    3.5570    2.5080    0.1911 
6188.0000   41.0530   41.0530   41.0530   41.0530   41.0530 6188.0000  132.4440    0.2070    0.1922    3.5730    2.5150    0.1922 
6188.5000   39.6720   39.6720   39.6720   39.6720   39.6720 6188.5000  133.6900    0.2100    0.1916    3.5710    2.5170    0.1916 
6189.0000   38.0820   38.0820   38.0820   38.0820   38.0820 6189.0000  131.8740    0.2230    0.1895    3.5050    2.5140    0.1895 
6189.5000   36.7550   36.7550   36.7550   36.7550   36.7550 6189.5000  128.7030    0.2360    0.1881    3.4030    2.5060    0.1881 
6190.0000   35.9530   35.9530   35.9530   35.9530   35.9530 6190.0000  128.5760    0.2440    0.1877    3.3820    2.4990    0.1877 
6190.5000   36.1390   36.1390   36.1390   36.1390   36.1390 6190.5000  130.8480    0.2390    0.1878    3.4340    2.4930    0.1878 
6191.0000   37.0980   37.0980   37.0980   37.0980   37.0980 6191.0000  129.0450    0.2280    0.1898    3.5510    2.4960    0.1898 
6191.5000   38.2610   38.2610   38.2610   38.2610   38.2610 6191.5000  124.8710    0.2170    0.1932    3.6630    2.5090    0.1932 
6192.0000   38.9130   38.9130   38.9130   38.9130   38.9130 6192.0000  121.5920    0.2080    0.1958    3.7230    2.5210    0.1958 
6192.5000   38.4840   38.4840   38.4840   38.4840   38.4840 6192.5000  119.6980    0.2030    0.1922    3.6690    2.5290    0.1922 
6193.0000   37.5300   37.5300   37.5300   37.5300   37.5300 6193.0000  119.4670    0.1990    0.1849    3.5570    2.5310    0.1849 
6193.5000   36.6570   36.6570   36.6570   36.6570   36.6570 6193.5000  119.9680    0.1970    0.1786    3.4800    2.5330    0.1786 
6194.0000   36.4850   36.4850   36.4850   36.4850   36.4850 6194.0000  123.2830    0.1920    0.1735    3.4340    2.5380    0.1735 
6194.5000   36.9130   36.9130   36.9130   36.9130   36.9130 6194.5000  125.5360    0.1850    0.1697    3.4070    2.5440    0.1697 
6195.0000   37.3530   37.3530   37.3530   37.3530   37.3530 6195.0000  126.4500    0.1830    0.1660    3.4480    2.5560    0.1660 
6195.5000   37.5860   37.5860   37.5860   37.5860   37.5860 6195.5000  127.0980    0.1820    0.1652    3.4580    2.5620    0.1652 
6196.0000   37.4600   37.4600   37.4600   37.4600   37.4600 6196.0000  127.8590    0.1850    0.1696    3.4670    2.5640    0.1696 
6196.5000   37.1780   37.1780   37.1780   37.1780   37.1780 6196.5000  129.2790    0.1900    0.1756    3.4750    2.5610    0.1756 
6197.0000   36.8520   36.8520   36.8520   36.8520   36.8520 6197.0000  127.8820    0.1970    0.1806    3.4720    2.5620    0.1806 
6197.5000   36.5500   36.5500   36.5500   36.5500   36.5500 6197.5000  126.3750    0.2030    0.1820    3.4780    2.5640    0.1820 
6198.0000   36.4530   36.4530   36.4530   36.4530   36.4530 6198.0000  127.5010    0.2080    0.1806    3.4600    2.5670    0.1806 
6198.5000   36.4920   36.4920   36.4920   36.4920   36.4920 6198.5000  130.6440    0.2080    0.1810    3.4500    2.5640    0.1810 
6199.0000   36.6650   36.6650   36.6650   36.6650   36.6650 6199.0000  132.6170    0.2130    0.1841    3.4520    2.5680    0.1841 
6199.5000   36.6100   36.6100   36.6100   36.6100   36.6100 6199.5000  134.0950    0.2150    0.1885    3.4380    2.5680    0.1885 
