~VERSION INFORMATION
 VERS.                 2.0:   CWLS LOG ASCII STANDARD - VERSION 2.0
 WRAP.                  NO:   SINGLE LINE PER DEPTH STEP
 CREA.                 5/13/2021 1:24:20 AM
#CREATED USING DSPetro VERSION 10ep.4.05.01 BY H227404 ON 5/13/2021 1:24:20 AM
~WELL INFORMATION
#MNEM.UNIT       DATA                          DESCRIPTION MNEMONIC
#---------      ---------------------------   --------------------------
 STRT    .FT        1000.0000                 : START DEPTH
 STOP    .FT        10000.0000                : STOP DEPTH
 STEP    .FT        0.5000                    : STEP VALUE
 NULL    .      -999.0000                     : NULL VALUE
 DATE    .      5/13/2021                     : LAS file Creation Date
 WELL   .      SNRG-0003                             : Well Name
 COMP   .      COLUMBIA NATURAL RESOURCES INC.        : Company
 FLD    .                                             : Field
 STATE  .      OH                                     : State
 COUNT  .      USA                                    : Country
 API    .      SNRG-0003                         : API Number
 UWI    .      SNRG-0003                         : Unique Well Identifier (UWI)
 LOC    .      200'NL & 500'WL OF  SE QTR. SECTION 28 : Location
 EPDAT  .      1135                                   : Elevation of Permanent Datum
 GL     .      1135                                   : GL Elevation
 RWS    .      0                                      : Def_Rw
 WST    .      0                                      : Def_Rwt
 CNTY   .      COLUMBIANA                             : County
 PROV   .                                             : Province
 MDEC   .      0                                      : Magnetic Declination
 SRVC   .      SCH                                    : Contractor
 GDAT   .      (Undefined)                            : Geodatum
 LONG   .      -80.8118599997626                      : Longitude
 LATI   .      40.6594309997559                       : Latitude
 COORDIN.                                             : Grid System
 XCOORD .                                             : X or East-West Coordinate
 YCOORD .                                             : Y or North-South Coordinate
~CURVE INFORMATION
#MNEM              UNIT       API CODE   Curve Type Comments
#----------  --------------- ----------  ---------- -----------
 DEPTH      .FT                        : Depth       
 AO10       .%                         : ShalRes     SNP
 AO20       .%                         : ShalRes     SNP
 AO30       .OHMM                      : MedRes      ILM
 AO60       .OHMM                      : MedRes      ILM
 AORX       .%                         : ShalRes     SNP
 AT10       .%                         : ShalRes     SNP
 AT20       .%                         : ShalRes     SNP
 AT30       .OHMM                      : MedRes      ILM
 AT60       .OHMM                      : MedRes      ILM
 DEPTH      .FT                        : Depth       
 GR         .GAPI                      : GammaRay    GR
 NPHI       .dec                       : Neutron     
 PEFZ       .B/E                       : PEF         PEF
 RHOZ       .G/CC                      : Density     RHOB
 TNPH       .dec                       : Neutron     
~A  DEPTH    AO10      AO20      AO30      AO60      AORX      AT10      AT20      AT30      AT60     DEPTH       GR       NPHI      PEFZ      RHOZ      TNPH   
1000.0000   18.6279   18.6279   31.4592   31.4592   18.6279   18.6279   18.6279   31.4592   31.4592 1000.0000  119.8438    0.1863    2.6346    2.5839    0.1863 
1000.5000   18.0298   18.0298   31.3450   31.3450   18.0298   18.0298   18.0298   31.3450   31.3450 1000.5000  119.0469    0.1803    2.6595    2.6000    0.1803 
1001.0000   17.7978   17.7978   31.0992   31.0992   17.7978   17.7978   17.7978   31.0992   31.0992 1001.0000  117.8125    0.1780    2.7353    2.5981    0.1780 
1001.5000   17.7734   17.7734   31.1676   31.1676   17.7734   17.7734   17.7734   31.1676   31.1676 1001.5000  116.5938    0.1777    2.8544    2.6001    0.1777 
1002.0000   17.6269   17.6269   31.4799   31.4799   17.6269   17.6269   17.6269   31.4799   31.4799 1002.0000  115.3750    0.1763    2.8924    2.6145    0.1763 
1002.5000   17.7002   17.7002   31.5679   31.5679   17.7002   17.7002   17.7002   31.5679   31.5679 1002.5000  115.4399    0.1770    2.7804    2.6323    0.1770 
1003.0000   18.4814   18.4814   31.2999   31.2999   18.4814   18.4814   18.4814   31.2999   31.2999 1003.0000  119.4902    0.1848    2.5898    2.6368    0.1848 
1003.5000   19.4458   19.4458   30.9266   30.9266   19.4458   19.4458   19.4458   30.9266   30.9266 1003.5000  124.5542    0.1945    2.3976    2.6195    0.1945 
1004.0000   19.8486   19.8486   30.5821   30.5821   19.8486   19.8486   19.8486   30.5821   30.5821 1004.0000  128.2285    0.1985    2.2397    2.5945    0.1985 
1004.5000   19.7754   19.7754   30.4540   30.4540   19.7754   19.7754   19.7754   30.4540   30.4540 1004.5000  131.4111    0.1978    2.1258    2.5854    0.1978 
1005.0000   19.5435   19.5435   30.6463   30.6463   19.5435   19.5435   19.5435   30.6463   30.6463 1005.0000  134.1553    0.1954    2.0513    2.5973    0.1954 
1005.5000   18.9087   18.9087   31.0138   31.0138   18.9087   18.9087   18.9087   31.0138   31.0138 1005.5000  135.5669    0.1891    2.0010    2.6130    0.1891 
1006.0000   17.6880   17.6880   31.3891   31.3891   17.6880   17.6880   17.6880   31.3891   31.3891 1006.0000  136.4120    0.1769    1.9478    2.6182    0.1769 
1006.5000   16.5161   16.5161   31.8461   31.8461   16.5161   16.5161   16.5161   31.8461   31.8461 1006.5000  137.6138    0.1652    1.8882    2.6177    0.1652 
1007.0000   15.7105   15.7105   32.5080   32.5080   15.7105   15.7105   15.7105   32.5080   32.5080 1007.0000  138.7906    0.1571    1.8381    2.6286    0.1571 
1007.5000   14.7705   14.7705   33.2683   33.2683   14.7705   14.7705   14.7705   33.2683   33.2683 1007.5000  139.5625    0.1477    1.8096    2.6580    0.1477 
1008.0000   13.4033   13.4033   34.2848   34.2848   13.4033   13.4033   13.4033   34.2848   34.2848 1008.0000  139.6387    0.1340    1.7996    2.6901    0.1340 
1008.5000   12.1216   12.1216   34.7006   34.7006   12.1216   12.1216   12.1216   34.7006   34.7006 1008.5000  137.3672    0.1212    1.7852    2.7043    0.1212 
1009.0000   11.7065   11.7065   34.0345   34.0345   11.7065   11.7065   11.7065   34.0345   34.0345 1009.0000  136.5610    0.1171    1.7611    2.6957    0.1171 
1009.5000   12.2559   12.2559   32.7000   32.7000   12.2559   12.2559   12.2559   32.7000   32.7000 1009.5000  140.8008    0.1226    1.7499    2.6734    0.1226 
1010.0000   13.4277   13.4277   31.0037   31.0037   13.4277   13.4277   13.4277   31.0037   31.0037 1010.0000  147.3623    0.1343    1.7731    2.6500    0.1343 
1010.5000   14.5386   14.5386   28.9731   28.9731   14.5386   14.5386   14.5386   28.9731   28.9731 1010.5000  151.7295    0.1454    1.8162    2.6376    0.1454 
1011.0000   15.0147   15.0147   27.4706   27.4706   15.0147   15.0147   15.0147   27.4706   27.4706 1011.0000  154.8691    0.1501    1.8283    2.6397    0.1501 
1011.5000   15.0024   15.0024   27.0049   27.0049   15.0024   15.0024   15.0024   27.0049   27.0049 1011.5000  157.7334    0.1500    1.7863    2.6474    0.1500 
1012.0000   14.8804   14.8804   27.1558   27.1558   14.8804   14.8804   14.8804   27.1558   27.1558 1012.0000  157.2913    0.1488    1.7431    2.6492    0.1488 
1012.5000   14.9048   14.9048   27.8451   27.8451   14.9048   14.9048   14.9048   27.8451   27.8451 1012.5000  153.0273    0.1490    1.7683    2.6454    0.1490 
1013.0000   14.7705   14.7705   28.4782   28.4782   14.7705   14.7705   14.7705   28.4782   28.4782 1013.0000  150.2085    0.1477    1.8594    2.6449    0.1477 
1013.5000   14.3677   14.3677   28.7653   28.7653   14.3677   14.3677   14.3677   28.7653   28.7653 1013.5000  150.0047    0.1437    1.9560    2.6427    0.1437 
1014.0000   13.9404   13.9404   28.9963   28.9963   13.9404   13.9404   13.9404   28.9963   28.9963 1014.0000  150.4004    0.1394    2.0224    2.6227    0.1394 
1014.5000   13.5010   13.5010   28.7628   28.7628   13.5010   13.5010   13.5010   28.7628   28.7628 1014.5000  150.6828    0.1350    2.0647    2.5904    0.1350 
1015.0000   13.2080   13.2080   28.7190   28.7190   13.2080   13.2080   13.2080   28.7190   28.7190 1015.0000  150.6713    0.1321    2.0818    2.5753    0.1321 
1015.5000   13.2202   13.2202   29.4849   29.4849   13.2202   13.2202   13.2202   29.4849   29.4849 1015.5000  150.5633    0.1322    2.0560    2.5954    0.1322 
1016.0000   13.5254   13.5254   30.3135   30.3135   13.5254   13.5254   13.5254   30.3135   30.3135 1016.0000  150.5672    0.1353    1.9890    2.6354    0.1353 
1016.5000   13.8062   13.8062   30.9255   30.9255   13.8062   13.8062   13.8062   30.9255   30.9255 1016.5000  150.5223    0.1381    1.9127    2.6587    0.1381 
1017.0000   13.8794   13.8794   31.4868   31.4868   13.8794   13.8794   13.8794   31.4868   31.4868 1017.0000  149.7729    0.1388    1.8663    2.6491    0.1388 
1017.5000   13.8062   13.8062   31.8655   31.8655   13.8062   13.8062   13.8062   31.8655   31.8655 1017.5000  147.6250    0.1381    1.8545    2.6323    0.1381 
1018.0000   13.4522   13.4522   31.9704   31.9704   13.4522   13.4522   13.4522   31.9704   31.9704 1018.0000  144.9688    0.1345    1.8344    2.6333    0.1345 
1018.5000   12.8784   12.8784   31.7813   31.7813   12.8784   12.8784   12.8784   31.7813   31.7813 1018.5000  143.8438    0.1288    1.7854    2.6390    0.1288 
1019.0000   12.4756   12.4756   31.2528   31.2528   12.4756   12.4756   12.4756   31.2528   31.2528 1019.0000  142.8125    0.1248    1.7574    2.6297    0.1248 
1019.5000   12.5732   12.5732   30.7672   30.7672   12.5732   12.5732   12.5732   30.7672   30.7672 1019.5000  141.1250    0.1257    1.7975    2.6133    0.1257 
1020.0000   13.0249   13.0249   30.4981   30.4981   13.0249   13.0249   13.0249   30.4981   30.4981 1020.0000  141.2813    0.1302    1.8957    2.6026    0.1302 
1020.5000   13.4155   13.4155   29.5784   29.5784   13.4155   13.4155   13.4155   29.5784   29.5784 1020.5000  144.5938    0.1342    2.0344    2.5971    0.1342 
1021.0000   13.5376   13.5376   27.2437   27.2437   13.5376   13.5376   13.5376   27.2437   27.2437 1021.0000  147.7500    0.1354    2.2289    2.5947    0.1354 
1021.5000   13.4522   13.4522   25.3975   25.3975   13.4522   13.4522   13.4522   25.3975   25.3975 1021.5000  147.9063    0.1345    2.4822    2.5954    0.1345 
1022.0000   13.2202   13.2202   25.2353   25.2353   13.2202   13.2202   13.2202   25.2353   25.2353 1022.0000  144.7813    0.1322    2.7118    2.6021    0.1322 
1022.5000   12.9272   12.9272   26.9902   26.9902   12.9272   12.9272   12.9272   26.9902   26.9902 1022.5000  139.6250    0.1293    2.7871    2.6177    0.1293 
1023.0000   12.7441   12.7441   29.4155   29.4155   12.7441   12.7441   12.7441   29.4155   29.4155 1023.0000  136.1563    0.1274    2.6770    2.6059    0.1274 
1023.5000   12.6831   12.6831   30.2626   30.2626   12.6831   12.6831   12.6831   30.2626   30.2626 1023.5000  137.2500    0.1268    2.5168    2.4942    0.1268 
1024.0000   12.8540   12.8540   29.7974   29.7974   12.8540   12.8540   12.8540   29.7974   29.7974 1024.0000  142.0000    0.1285    2.4779    2.2852    0.1285 
1024.5000   13.4888   13.4888   29.5938   29.5938   13.4888   13.4888   13.4888   29.5938   29.5938 1024.5000  147.5625    0.1349    2.6079    2.1109    0.1349 
