~VERSION INFORMATION
 VERS.                 2.0:   CWLS LOG ASCII STANDARD - VERSION 2.0
 WRAP.                  NO:   SINGLE LINE PER DEPTH STEP
 CREA.                 5/13/2021 1:24:20 AM
#CREATED USING DSPetro VERSION 10ep.4.05.01 BY H227404 ON 5/13/2021 1:24:20 AM
~WELL INFORMATION
#MNEM.UNIT       DATA                          DESCRIPTION MNEMONIC
#---------      ---------------------------   --------------------------
 STRT    .FT        1000.0000                 : START DEPTH
 STOP    .FT        10000.0000                : STOP DEPTH
 STEP    .FT        0.5000                    : STEP VALUE
 NULL    .      -999.0000                     : NULL VALUE
 DATE    .      5/13/2021                     : LAS file Creation Date
 WELL   .      SNRG-0003                             : Well Name
 COMP   .      COLUMBIA NATURAL RESOURCES INC.        : Company
 FLD    .                                             : Field
 STATE  .      OH                                     : State
 COUNT  .      USA                                    : Country
 API    .      SNRG-0003                         : API Number
 UWI    .      SNRG-0003                         : Unique Well Identifier (UWI)
 LOC    .      200'NL & 500'WL OF  SE QTR. SECTION 28 : Location
 EPDAT  .      1135                                   : Elevation of Permanent Datum
 GL     .      1135                                   : GL Elevation
 RWS    .      0                                      : Def_Rw
 WST    .      0                                      : Def_Rwt
 CNTY   .      COLUMBIANA                             : County
 PROV   .                                             : Province
 MDEC   .      0                                      : Magnetic Declination
 SRVC   .      SCH                                    : Contractor
 GDAT   .      (Undefined)                            : Geodatum
 LONG   .      -80.8118599997626                      : Longitude
 LATI   .      40.6594309997559                       : Latitude
 COORDIN.                                             : Grid System
 XCOORD .                                             : X or East-West Coordinate
 YCOORD .                                             : Y or North-South Coordinate
~CURVE INFORMATION
#MNEM              UNIT       API CODE   Curve Type Comments
#----------  --------------- ----------  ---------- -----------
 DEPTH      .FT                        : Depth       
 AO10       .%                         : ShalRes     SNP
 AO20       .%                         : ShalRes     SNP
 AO30       .OHMM                      : MedRes      ILM
 AO60       .OHMM                      : MedRes      ILM
 AORX       .%                         : ShalRes     SNP
 AT10       .%                         : ShalRes     SNP
 AT20       .%                         : ShalRes     SNP
 AT30       .OHMM                      : MedRes      ILM
 AT60       .OHMM                      : MedRes      ILM
 DEPTH      .FT                        : Depth       
 GR         .GAPI                      : GammaRay    GR
 NPHI       .dec                       : Neutron     
 PEFZ       .B/E                       : PEF         PEF
 RHOZ       .G/CC                      : Density     RHOB
 TNPH       .dec                       : Neutron     
~A  DEPTH    AO10      AO20      AO30      AO60      AORX      AT10      AT20      AT30      AT60     DEPTH       GR       NPHI      PEFZ      RHOZ      TNPH   
# ...
4850.0000   13.8916   13.8916  369.7813  369.7813   13.8916   13.8916   13.8916  369.7813  369.7813 4850.0000    4.9536    0.1389    5.3047    2.0769    0.1389 
4850.5000   13.2324   13.2324  405.9063  405.9063   13.2324   13.2324   13.2324  405.9063  405.9063 4850.5000    4.7312    0.1323    5.4358    2.0799    0.1323 
4851.0000   12.4878   12.4878  437.3281  437.3281   12.4878   12.4878   12.4878  437.3281  437.3281 4851.0000    4.2656    0.1249    5.5378    2.0807    0.1249 
4851.5000   12.3413   12.3413  445.2813  445.2813   12.3413   12.3413   12.3413  445.2813  445.2813 4851.5000    3.7480    0.1234    5.5422    2.0809    0.1234 
4852.0000   12.6587   12.6587  427.5000  427.5000   12.6587   12.6587   12.6587  427.5000  427.5000 4852.0000    3.3206    0.1266    5.4897    2.0810    0.1266 
4852.5000   13.0981   13.0981  404.0625  404.0625   13.0981   13.0981   13.0981  404.0625  404.0625 4852.5000    3.1114    0.1310    5.4673    2.0817    0.1310 
4853.0000   13.5254   13.5254  390.9297  390.9297   13.5254   13.5254   13.5254  390.9297  390.9297 4853.0000    3.0703    0.1353    5.5319    2.0828    0.1353 
4853.5000   13.9282   13.9282  382.9531  382.9531   13.9282   13.9282   13.9282  382.9531  382.9531 4853.5000    3.1654    0.1393    5.6679    2.0835    0.1393 
4854.0000   14.0747   14.0747  370.8984  370.8984   14.0747   14.0747   14.0747  370.8984  370.8984 4854.0000    3.5601    0.1407    5.7961    2.0826    0.1407 
4854.5000   13.8306   13.8306  362.2031  362.2031   13.8306   13.8306   13.8306  362.2031  362.2031 4854.5000    4.2310    0.1383    5.8236    2.0796    0.1383 
4855.0000   13.4766   13.4766  361.2334  361.2334   13.4766   13.4766   13.4766  361.2334  361.2334 4855.0000    4.9815    0.1348    5.6390    2.0764    0.1348 
4855.5000   13.3057   13.3057  363.6191  363.6191   13.3057   13.3057   13.3057  363.6191  363.6191 4855.5000    5.5737    0.1331    5.4392    2.0853    0.1331 
4856.0000   13.0859   13.0859  369.0313  369.0313   13.0859   13.0859   13.0859  369.0313  369.0313 4856.0000    5.8458    0.1309    5.2369    2.1048    0.1309 
4856.5000   12.5244   12.5244  380.0078  380.0078   12.5244   12.5244   12.5244  380.0078  380.0078 4856.5000    5.9044    0.1252    5.1555    2.1249    0.1252 
4857.0000   11.9751   11.9751  396.7656  396.7656   11.9751   11.9751   11.9751  396.7656  396.7656 4857.0000    5.7334    0.1198    5.2315    2.1418    0.1198 
4857.5000   12.0239   12.0239  416.1875  416.1875   12.0239   12.0239   12.0239  416.1875  416.1875 4857.5000    5.0679    0.1202    5.0469    2.1371    0.1202 
4858.0000   12.8052   12.8052  432.2344  432.2344   12.8052   12.8052   12.8052  432.2344  432.2344 4858.0000    3.7978    0.1281    5.0039    2.1194    0.1281 
4858.5000   13.8550   13.8550  438.3628  438.3628   13.8550   13.8550   13.8550  438.3628  438.3628 4858.5000    2.4678    0.1385    5.1787    2.1035    0.1385 
4859.0000   14.6851   14.6851  433.3828  433.3828   14.6851   14.6851   14.6851  433.3828  433.3828 4859.0000    1.9014    0.1469    5.4063    2.0895    0.1469 
4859.5000   15.2344   15.2344  423.5000  423.5000   15.2344   15.2344   15.2344  423.5000  423.5000 4859.5000    2.1160    0.1523    5.5518    2.0744    0.1523 
4860.0000   15.6738   15.6738  413.4531  413.4531   15.6738   15.6738   15.6738  413.4531  413.4531 4860.0000    2.4419    0.1567    5.5908    2.0588    0.1567 
4860.5000   15.8935   15.8935  403.7734  403.7734   15.8935   15.8935   15.8935  403.7734  403.7734 4860.5000    2.6299    0.1589    5.5850    2.0494    0.1589 
4861.0000   15.5884   15.5884  400.5469  400.5469   15.5884   15.5884   15.5884  400.5469  400.5469 4861.0000    2.9075    0.1559    5.5205    2.0523    0.1559 
4861.5000   14.8193   14.8193  410.8594  410.8594   14.8193   14.8193   14.8193  410.8594  410.8594 4861.5000    3.2693    0.1482    5.4307    2.0643    0.1482 
4862.0000   14.2090   14.2090  423.7002  423.7002   14.2090   14.2090   14.2090  423.7002  423.7002 4862.0000    3.5037    0.1421    5.3465    2.0742    0.1421 
4862.5000   14.2700   14.2700  421.5313  421.5313   14.2700   14.2700   14.2700  421.5313  421.5313 4862.5000    3.6532    0.1427    5.3406    2.0727    0.1427 
4863.0000   14.4653   14.4653  403.5000  403.5000   14.4653   14.4653   14.4653  403.5000  403.5000 4863.0000    4.0786    0.1447    5.3366    2.0693    0.1447 
4863.5000   14.2212   14.2212  375.1563  375.1563   14.2212   14.2212   14.2212  375.1563  375.1563 4863.5000    4.9746    0.1422    5.2779    2.0786    0.1422 
4864.0000   13.5742   13.5742  351.3594  351.3594   13.5742   13.5742   13.5742  351.3594  351.3594 4864.0000    5.9424    0.1357    5.2481    2.1081    0.1357 
4864.5000   12.7563   12.7563  368.4375  368.4375   12.7563   12.7563   12.7563  368.4375  368.4375 4864.5000    6.2841    0.1276    5.2823    2.1308    0.1276 
4865.0000   12.1582   12.1582  430.1250  430.1250   12.1582   12.1582   12.1582  430.1250  430.1250 4865.0000    5.6680    0.1216    5.2516    2.1214    0.1216 
4865.5000   12.0972   12.0972  472.9688  472.9688   12.0972   12.0972   12.0972  472.9688  472.9688 4865.5000    4.4590    0.1210    5.2375    2.1063    0.1210 
4866.0000   12.8296   12.8296  466.9453  466.9453   12.8296   12.8296   12.8296  466.9453  466.9453 4866.0000    3.4209    0.1283    5.3050    2.0969    0.1283 
4866.5000   14.0259   14.0259  440.2188  440.2188   14.0259   14.0259   14.0259  440.2188  440.2188 4866.5000    3.0756    0.1403    5.4191    2.0922    0.1403 
4867.0000   14.9048   14.9048  422.6406  422.6406   14.9048   14.9048   14.9048  422.6406  422.6406 4867.0000    3.3235    0.1490    5.4996    2.0887    0.1490 
4867.5000   15.2222   15.2222  425.2266  425.2266   15.2222   15.2222   15.2222  425.2266  425.2266 4867.5000    3.7969    0.1522    5.4794    2.0837    0.1522 
4868.0000   15.2222   15.2222  435.1484  435.1484   15.2222   15.2222   15.2222  435.1484  435.1484 4868.0000    4.3731    0.1522    5.3469    2.0779    0.1522 
4868.5000   15.1855   15.1855  436.5684  436.5684   15.1855   15.1855   15.1855  436.5684  436.5684 4868.5000    5.1982    0.1519    5.1605    2.0747    0.1519 
4869.0000   15.0757   15.0757  430.4453  430.4453   15.0757   15.0757   15.0757  430.4453  430.4453 4869.0000    6.2549    0.1508    5.0226    2.0775    0.1508 
4869.5000   14.7095   14.7095  423.8867  423.8867   14.7095   14.7095   14.7095  423.8867  423.8867 4869.5000    7.3291    0.1471    5.0010    2.0875    0.1471 
4870.0000   14.0381   14.0381  423.1738  423.1738   14.0381   14.0381   14.0381  423.1738  423.1738 4870.0000    8.2310    0.1404    5.0889    2.1064    0.1404 
4870.5000   13.3301   13.3301  429.8594  429.8594   13.3301   13.3301   13.3301  429.8594  429.8594 4870.5000    8.7070    0.1333    5.1856    2.1235    0.1333 
4871.0000   12.9883   12.9883  434.8794  434.8794   12.9883   12.9883   12.9883  434.8794  434.8794 4871.0000    8.5925    0.1299    5.2783    2.1312    0.1299 
4871.5000   13.0859   13.0859  428.6875  428.6875   13.0859   13.0859   13.0859  428.6875  428.6875 4871.5000    7.9658    0.1309    5.4043    2.1260    0.1309 
4872.0000   13.2813   13.2813  418.1914  418.1914   13.2813   13.2813   13.2813  418.1914  418.1914 4872.0000    7.1065    0.1328    5.4941    2.1137    0.1328 
4872.5000   13.2935   13.2935  415.7539  415.7539   13.2935   13.2935   13.2935  415.7539  415.7539 4872.5000    6.1494    0.1329    5.5674    2.1020    0.1329 
4873.0000   13.2935   13.2935  419.1680  419.1680   13.2935   13.2935   13.2935  419.1680  419.1680 4873.0000    5.0879    0.1329    5.5547    2.0925    0.1329 
4873.5000   13.5864   13.5864  428.2188  428.2188   13.5864   13.5864   13.5864  428.2188  428.2188 4873.5000    4.1943    0.1359    5.3506    2.0843    0.1359 
4874.0000   14.1480   14.1480  453.5938  453.5938   14.1480   14.1480   14.1480  453.5938  453.5938 4874.0000    3.7417    0.1415    5.0361    2.0786    0.1415 
4874.5000   14.5264   14.5264  483.1719  483.1719   14.5264   14.5264   14.5264  483.1719  483.1719 4874.5000    3.5692    0.1453    4.7549    2.0759    0.1453 
