~Version ---------------------------------------------------
VERS.   2.0 : CWLS log ASCII Standard -VERSION 2.0
WRAP.    NO : One line per depth step
DLM . SPACE : Column Data Section Delimiter
~Well ------------------------------------------------------
STRT  .m                                 0.0 : START DEPTH
STOP  .m                   11221024.30872697 : STOP DEPTH
STEP  .m                           623.56345 : STEP
NULL  .                                 -999 : NULL VALUE
COMP  .      Range Resources Appalachia, LLC : COMPANY
WELL  .                            SNRG-0001 : WELL
FLD   .                                      : FIELD
LOC   . 750'SL & 1060'EL OF NW QTR., SEC. 30 : LOCATION
PROV  .                                      : PROVINCE
CNTY  .                              Carroll : COUNTY
STAT  .                                      : STATE
CTRY  .                                      : COUNTRY
SRVC  .                                      : SERVICE COMPANY
DATE  .           2021-07-11 01:47:10.230360 : DATE
UWI   .                            SNRG-0001 : UNIQUE WELL ID
API   .                            SNRG-0001 : API NUMBER
LIC   .                                      : 
LATI  .                     40.6472950002882 : 
LONG  .                    -81.2941990004645 : 
NS    .                                      : 
EW    .                                      : 
XCOORD.                                      : 
YCOORD.                                      : 
GDAT  .                          (Undefined) : 
SECT  .                                      : 
RANG  .                                      : 
TOWN  .                                      : 
~Curve Information -----------------------------------------
DEPT.m     : 
AO10.OHMM  : ShalRes     Shallow Laterolog
AO20.OHMM  : ShalRes     Shallow Laterolog
AORX.OHMM  : ShalRes     Shallow Laterolog
AT10.OHMM  : ShalRes     Shallow Laterolog
AT20.OHMM  : ShalRes     Shallow Laterolog
GR  .GAPI  : GammaRay    Gamma Ray
HDRA.G/C3  : Drho        Density Correction
NPHI.dec   : Neutron
PEFZ.B/E   : PEF         PE
RHOZ.G/C3  : Density     Compensated Density
TNPH.dec   : Neutron
~Params ----------------------------------------------------
EKB.      : 
EGL.      : 
KB .      : 
GL .      : 
TD .      : 
TDD.      : 
TDL.      : 
~Other -----------------------------------------------------
~ASCII -----------------------------------------------------
# ...
 10381084.33963 1456.69299 1456.69299 1456.69299 1456.69299 1456.69299   22.17382    0.08930    0.03053    3.34731    2.83510    0.03053
 10381707.90308 1263.85435 1263.85435 1263.85435 1263.85435 1263.85435   21.52717    0.10714    0.03235    3.30362    2.84106    0.03235
 10382331.46654 1039.67662 1039.67662 1039.67662 1039.67662 1039.67662   19.50576    0.11593    0.03554    3.21868    2.84490    0.03554
 10382955.02999  902.80484  902.80484  902.80484  902.80484  902.80484   17.39889    0.11074    0.03801    3.13919    2.83886    0.03801
 10383578.59344  913.11514  913.11514  913.11514  913.11514  913.11514   15.33155    0.09466    0.03879    3.15024    2.82980    0.03879
 10384202.15689 1066.22395 1066.22395 1066.22395 1066.22395 1066.22395   15.45608    0.07377    0.03798    3.16522    2.81789    0.03798
 10384825.72034 1306.03811 1306.03811 1306.03811 1306.03811 1306.03811   17.62216    0.05996    0.03679    3.17801    2.81099    0.03679
 10385449.28379 1479.42045 1479.42045 1479.42045 1479.42045 1479.42045   20.35148    0.05707    0.03588    3.17846    2.81006    0.03588
 10386072.84724 1562.80412 1562.80412 1562.80412 1562.80412 1562.80412   23.88383    0.06211    0.03448    3.14536    2.81404    0.03448
 10386696.41070 1603.57214 1603.57214 1603.57214 1603.57214 1603.57214   27.18203    0.06903    0.03299    3.10557    2.81701    0.03299
 10387319.97415 1612.02960 1612.02960 1612.02960 1612.02960 1612.02960   29.53231    0.07093    0.03220    3.07914    2.81793    0.03220
 10387943.53760 1553.26147 1553.26147 1553.26147 1553.26147 1553.26147   28.40675    0.06588    0.03221    3.08849    2.81297    0.03221
 10388567.10105 1418.71550 1418.71550 1418.71550 1418.71550 1418.71550   24.77518    0.05786    0.03292    3.11856    2.81099    0.03292
 10389190.66450 1244.05175 1244.05175 1244.05175 1244.05175 1244.05175   22.10289    0.04890    0.03423    3.15166    2.81007    0.03423
 10389814.22795 1086.27110 1086.27110 1086.27110 1086.27110 1086.27110   21.00900    0.04299    0.03614    3.13040    2.81510    0.03614
 10390437.79140  975.05885  975.05885  975.05885  975.05885  975.05885   21.25321    0.04204    0.03896    3.09396    2.82099    0.03896
 10391061.35486  869.96007  869.96007  869.96007  869.96007  869.96007   21.38183    0.04504    0.04311    3.09106    2.81970    0.04311
 10391684.91831  707.30219  707.30219  707.30219  707.30219  707.30219   21.00515    0.04801    0.05039    3.09522    2.80153    0.05039
 10392308.48176  561.20952  561.20952  561.20952  561.20952  561.20952   20.81474    0.04896    0.06144    3.10762    2.77243    0.06144
 10392932.04521  466.51167  466.51167  466.51167  466.51167  466.51167   19.62464    0.04594    0.07633    3.08334    2.73759    0.07633
 10393555.60866  436.67129  436.67129  436.67129  436.67129  436.67129   18.07008    0.04193    0.09053    3.04304    2.71191    0.09053
 10394179.17211  452.99495  452.99495  452.99495  452.99495  452.99495   16.84782    0.03697    0.09850    3.04616    2.70622    0.09850
 10394802.73556  474.38395  474.38395  474.38395  474.38395  474.38395   15.79693    0.03499    0.09836    3.05633    2.71940    0.09836
 10395426.29902  487.42060  487.42060  487.42060  487.42060  487.42060   15.06069    0.03403    0.08940    3.07633    2.74443    0.08940
 10396049.86247  476.04259  476.04259  476.04259  476.04259  476.04259   14.68745    0.03604    0.07784    3.09601    2.77126    0.07784
 10396673.42592  453.20820  453.20820  453.20820  453.20820  453.20820   15.35040    0.03914    0.06830    3.09730    2.78716    0.06830
 10397296.98937  437.94533  437.94533  437.94533  437.94533  437.94533   17.42105    0.04820    0.06173    3.11527    2.79704    0.06173
 10397920.55282  441.20099  441.20099  441.20099  441.20099  441.20099   20.74675    0.06022    0.05713    3.13197    2.80000    0.05713
 10398544.11627  459.77330  459.77330  459.77330  459.77330  459.77330   24.40267    0.07312    0.05214    3.12996    2.79997    0.05214
 10399167.67972  479.55507  479.55507  479.55507  479.55507  479.55507   27.08180    0.08101    0.04799    3.12681    2.79800    0.04799
 10399791.24318  485.46032  485.46032  485.46032  485.46032  485.46032   29.61848    0.08189    0.04703    3.11590    2.79804    0.04703
 10400414.80663  483.36066  483.36066  483.36066  483.36066  483.36066   38.61588    0.07484    0.04933    3.10984    2.80119    0.04933
 10401038.37008  488.15255  488.15255  488.15255  488.15255  488.15255   60.25908    0.06481    0.05128    3.09994    2.81214    0.05128
 10401661.93353  536.94983  536.94983  536.94983  536.94983  536.94983   88.14625    0.05390    0.04952    3.09611    2.82112    0.04952
 10402285.49698  631.45157  631.45157  631.45157  631.45157  631.45157  107.36862    0.04797    0.04390    3.10319    2.82904    0.04390
 10402909.06043  708.40174  708.40174  708.40174  708.40174  708.40174  108.82616    0.04601    0.03796    3.11404    2.83199    0.03796
 10403532.62388  711.40697  711.40697  711.40697  711.40697  711.40697  102.47959    0.04703    0.03511    3.11734    2.83099    0.03511
 10404156.18734  656.94852  656.94852  656.94852  656.94852  656.94852  102.25944    0.04907    0.03584    3.13837    2.83006    0.03584
 10404779.75079  615.82966  615.82966  615.82966  615.82966  615.82966  101.19982    0.05406    0.03863    3.16103    2.83406    0.03863
 10405403.31424  611.58191  611.58191  611.58191  611.58191  611.58191   92.90208    0.05803    0.04070    3.16273    2.83803    0.04070
 10406026.87769  641.53929  641.53929  641.53929  641.53929  641.53929   76.36698    0.05999    0.04047    3.14580    2.83997    0.04047
 10406650.44114  679.86130  679.86130  679.86130  679.86130  679.86130   62.35067    0.05894    0.03856    3.13401    2.83790    0.03856
 10407274.00459  700.82987  700.82987  700.82987  700.82987  700.82987   55.38421    0.05494    0.03597    3.13486    2.83197    0.03597
 10407897.56804  676.00759  676.00759  676.00759  676.00759  676.00759   47.72714    0.05099    0.03419    3.12607    2.83001    0.03419
 10408521.13150  578.90920  578.90920  578.90920  578.90920  578.90920   40.24559    0.04999    0.03350    3.13123    2.83106    0.03350
 10409144.69495  475.60904  475.60904  475.60904  475.60904  475.60904   36.82306    0.04899    0.03341    3.14494    2.83504    0.03341
 10409768.25840  400.36252  400.36252  400.36252  400.36252  400.36252   36.08192    0.04799    0.03412    3.14055    2.83799    0.03412
 10410391.82185  371.08716  371.08716  371.08716  371.08716  371.08716   34.79841    0.04699    0.03522    3.11267    2.83697    0.03522
 10411015.38530  389.83265  389.83265  389.83265  389.83265  389.83265   34.26757    0.04597    0.03641    3.09331    2.83493    0.03641
 10411638.94875  443.48660  443.48660  443.48660  443.48660  443.48660   37.62216    0.04397    0.03699    3.11260    2.82996    0.03699
 10412262.51220  504.66080  504.66080  504.66080  504.66080  504.66080   41.30816    0.04200    0.03658    3.14907    2.82697    0.03658
 10412886.07566  550.89425  550.89425  550.89425  550.89425  550.89425   40.45795    0.04206    0.03517    3.15396    2.82500    0.03517
 10413509.63911  579.87970  579.87970  579.87970  579.87970  579.87970   35.35441    0.04610    0.03297    3.15057    2.82497    0.03297
 10414133.20256  614.15519  614.15519  614.15519  614.15519  614.15519   29.71947    0.05211    0.03099    3.12386    2.82297    0.03099
 10414756.76601  660.81507  660.81507  660.81507  660.81507  660.81507   27.21706    0.05906    0.03010    3.11519    2.82089    0.03010
 10415380.32946  692.37093  692.37093  692.37093  692.37093  692.37093   27.80630    0.06301    0.03020    3.12584    2.81389    0.03020
 10416003.89291  691.76184  691.76184  691.76184  691.76184  691.76184   30.71537    0.06396    0.03050    3.11645    2.80689    0.03050
 10416627.45636  666.66649  666.66649  666.66649  666.66649  666.66649   34.21578    0.06096    0.03070    3.14437    2.79996    0.03070
 10417251.01982  641.38999  641.38999  641.38999  641.38999  641.38999   36.43816    0.05797    0.03071    3.16689    2.79693    0.03071
