~VERSION INFORMATION
 VERS.                 2.0:   CWLS LOG ASCII STANDARD - VERSION 2.0
 WRAP.                  NO:   SINGLE LINE PER DEPTH STEP
 CREA.                 5/13/2021 1:24:20 AM
#CREATED USING DSPetro VERSION 10ep.4.05.01 BY H227404 ON 5/13/2021 1:24:20 AM
~WELL INFORMATION
#MNEM.UNIT       DATA                          DESCRIPTION MNEMONIC
#---------      ---------------------------   --------------------------
 STRT    .FT        1000.0000                 : START DEPTH
 STOP    .FT        10000.0000                : STOP DEPTH
 STEP    .FT        0.5000                    : STEP VALUE
 NULL    .      -999.0000                     : NULL VALUE
 DATE    .      5/13/2021                     : LAS file Creation Date
 WELL   .      SNRG-0003                             : Well Name
 COMP   .      COLUMBIA NATURAL RESOURCES INC.        : Company
 FLD    .                                             : Field
 STATE  .      OH                                     : State
 COUNT  .      USA                                    : Country
 API    .      SNRG-0003                         : API Number
 UWI    .      SNRG-0003                         : Unique Well Identifier (UWI)
 LOC    .      200'NL & 500'WL OF  SE QTR. SECTION 28 : Location
 EPDAT  .      1135                                   : Elevation of Permanent Datum
 GL     .      1135                                   : GL Elevation
 RWS    .      0                                      : Def_Rw
 WST    .      0                                      : Def_Rwt
 CNTY   .      COLUMBIANA                             : County
 PROV   .                                             : Province
 MDEC   .      0                                      : Magnetic Declination
 SRVC   .      SCH                                    : Contractor
 GDAT   .      (Undefined)                            : Geodatum
 LONG   .      -80.8118599997626                      : Longitude
 LATI   .      40.6594309997559                       : Latitude
 COORDIN.                                             : Grid System
 XCOORD .                                             : X or East-West Coordinate
 YCOORD .                                             : Y or North-South Coordinate
~CURVE INFORMATION
#MNEM              UNIT       API CODE   Curve Type Comments
#----------  --------------- ----------  ---------- -----------
 DEPTH      .FT                        : Depth       
 AO10       .%                         : ShalRes     SNP
 AO20       .%                         : ShalRes     SNP
 AO30       .OHMM                      : MedRes      ILM
 AO60       .OHMM                      : MedRes      ILM
 AORX       .%                         : ShalRes     SNP
 AT10       .%                         : ShalRes     SNP
 AT20       .%                         : ShalRes     SNP
 AT30       .OHMM                      : MedRes      ILM
 AT60       .OHMM                      : MedRes      ILM
 DEPTH      .FT                        : Depth       
 GR         .GAPI                      : GammaRay    GR
 NPHI       .dec                       : Neutron     
 PEFZ       .B/E                       : PEF         PEF
 RHOZ       .G/CC                      : Density     RHOB
 TNPH       .dec                       : Neutron     
~A  DEPTH    AO10      AO20      AO30      AO60      AORX      AT10      AT20      AT30      AT60     DEPTH       GR       NPHI      PEFZ      RHOZ      TNPH   
# ...
5375.0000   14.0503   14.0503  204.0313  204.0313   14.0503   14.0503   14.0503  204.0313  204.0313 5375.0000    3.0029    0.1405    5.0759    2.1148    0.1405 
5375.5000   15.0269   15.0269  227.1563  227.1563   15.0269   15.0269   15.0269  227.1563  227.1563 5375.5000    2.3184    0.1503    5.1293    2.0981    0.1503 
5376.0000   15.6372   15.6372  242.0547  242.0547   15.6372   15.6372   15.6372  242.0547  242.0547 5376.0000    1.8435    0.1564    5.1939    2.0819    0.1564 
5376.5000   16.0156   16.0156  255.4531  255.4531   16.0156   16.0156   16.0156  255.4531  255.4531 5376.5000    1.5142    0.1602    5.2609    2.0668    0.1602 
5377.0000   16.5405   16.5405  286.3125  286.3125   16.5405   16.5405   16.5405  286.3125  286.3125 5377.0000    1.3663    0.1654    5.3143    2.0543    0.1654 
5377.5000   17.0288   17.0288  345.6250  345.6250   17.0288   17.0288   17.0288  345.6250  345.6250 5377.5000    1.5972    0.1703    5.3321    2.0453    0.1703 
5378.0000   17.1509   17.1509  428.5625  428.5625   17.1509   17.1509   17.1509  428.5625  428.5625 5378.0000    2.6875    0.1715    5.2960    2.0406    0.1715 
5378.5000   16.9556   16.9556  437.6563  437.6563   16.9556   16.9556   16.9556  437.6563  437.6563 5378.5000    5.2891    0.1696    5.2266    2.0387    0.1696 
5379.0000   16.7847   16.7847  348.0000  348.0000   16.7847   16.7847   16.7847  348.0000  348.0000 5379.0000   10.2813    0.1678    5.2207    2.0373    0.1678 
5379.5000   16.4185   16.4185  221.0000  221.0000   16.4185   16.4185   16.4185  221.0000  221.0000 5379.5000   18.4141    0.1642    5.1875    2.0413    0.1642 
5380.0000   15.1978   15.1978  113.9375  113.9375   15.1978   15.1978   15.1978  113.9375  113.9375 5380.0000   28.8672    0.1520    4.9199    2.0548    0.1520 
5380.5000   13.2690   13.2690   54.6250   54.6250   13.2690   13.2690   13.2690   54.6250   54.6250 5380.5000   38.3750    0.1327    4.3530    2.0910    0.1327 
5381.0000   11.2915   11.2915   27.4219   27.4219   11.2915   11.2915   11.2915   27.4219   27.4219 5381.0000   42.7949    0.1129    3.7446    2.1655    0.1129 
5381.5000    9.7046    9.7046   18.6055   18.6055    9.7046    9.7046    9.7046   18.6055   18.6055 5381.5000   39.8750    0.0970    3.3794    2.2606    0.0970 
5382.0000    9.0576    9.0576   18.4014   18.4014    9.0576    9.0576    9.0576   18.4014   18.4014 5382.0000   31.1797    0.0906    3.3540    2.3322    0.0906 
5382.5000    9.8511    9.8511   21.8047   21.8047    9.8511    9.8511    9.8511   21.8047   21.8047 5382.5000   20.6484    0.0985    3.6367    2.3383    0.0985 
5383.0000   11.9629   11.9629   26.5000   26.5000   11.9629   11.9629   11.9629   26.5000   26.5000 5383.0000   11.8672    0.1196    4.1318    2.2760    0.1196 
5383.5000   14.1968   14.1968   33.2500   33.2500   14.1968   14.1968   14.1968   33.2500   33.2500 5383.5000    6.5273    0.1420    4.6924    2.1930    0.1420 
5384.0000   15.2466   15.2466   46.9844   46.9844   15.2466   15.2466   15.2466   46.9844   46.9844 5384.0000    4.1445    0.1525    5.1231    2.1289    0.1525 
5384.5000   15.3320   15.3320   79.8750   79.8750   15.3320   15.3320   15.3320   79.8750   79.8750 5384.5000    3.4370    0.1533    5.3965    2.0865    0.1533 
5385.0000   15.3809   15.3809  149.2500  149.2500   15.3809   15.3809   15.3809  149.2500  149.2500 5385.0000    3.3747    0.1538    5.5029    2.0627    0.1538 
5385.5000   15.7959   15.7959  258.2500  258.2500   15.7959   15.7959   15.7959  258.2500  258.2500 5385.5000    3.4430    0.1580    5.4160    2.0552    0.1580 
5386.0000   16.3574   16.3574  353.1250  353.1250   16.3574   16.3574   16.3574  353.1250  353.1250 5386.0000    3.3833    0.1636    5.2891    2.0538    0.1636 
5386.5000   16.6138   16.6138  374.9844  374.9844   16.6138   16.6138   16.6138  374.9844  374.9844 5386.5000    2.9644    0.1661    5.2747    2.0549    0.1661 
5387.0000   16.3330   16.3330  357.7500  357.7500   16.3330   16.3330   16.3330  357.7500  357.7500 5387.0000    2.3091    0.1633    5.3901    2.0617    0.1633 
5387.5000   15.8325   15.8325  364.9219  364.9219   15.8325   15.8325   15.8325  364.9219  364.9219 5387.5000    1.8506    0.1583    5.4409    2.0649    0.1583 
5388.0000   15.6616   15.6616  392.6250  392.6250   15.6616   15.6616   15.6616  392.6250  392.6250 5388.0000    1.9458    0.1566    5.3712    2.0640    0.1566 
5388.5000   15.9790   15.9790  409.8906  409.8906   15.9790   15.9790   15.9790  409.8906  409.8906 5388.5000    2.6133    0.1598    5.3251    2.0602    0.1598 
5389.0000   16.5649   16.5649  404.0547  404.0547   16.5649   16.5649   16.5649  404.0547  404.0547 5389.0000    3.4893    0.1656    5.3787    2.0522    0.1656 
5389.5000   16.7481   16.7481  377.0938  377.0938   16.7481   16.7481   16.7481  377.0938  377.0938 5389.5000    4.1343    0.1675    5.4014    2.0477    0.1675 
5390.0000   16.1621   16.1621  343.6875  343.6875   16.1621   16.1621   16.1621  343.6875  343.6875 5390.0000    4.5864    0.1616    5.3944    2.0521    0.1616 
5390.5000   15.2222   15.2222  316.3750  316.3750   15.2222   15.2222   15.2222  316.3750  316.3750 5390.5000    5.2969    0.1522    5.3745    2.0597    0.1522 
5391.0000   14.4287   14.4287  296.0469  296.0469   14.4287   14.4287   14.4287  296.0469  296.0469 5391.0000    6.3809    0.1443    5.3320    2.0672    0.1443 
5391.5000   13.8306   13.8306  283.0469  283.0469   13.8306   13.8306   13.8306  283.0469  283.0469 5391.5000    7.3555    0.1383    5.2682    2.0740    0.1383 
5392.0000   13.3789   13.3789  277.3438  277.3438   13.3789   13.3789   13.3789  277.3438  277.3438 5392.0000    7.6371    0.1338    5.2155    2.0810    0.1338 
5392.5000   13.3057   13.3057  278.3545  278.3545   13.3057   13.3057   13.3057  278.3545  278.3545 5392.5000    7.1504    0.1331    5.2103    2.0884    0.1331 
5393.0000   13.8794   13.8794  285.1797  285.1797   13.8794   13.8794   13.8794  285.1797  285.1797 5393.0000    6.3643    0.1388    5.2582    2.0951    0.1388 
5393.5000   14.7705   14.7705  287.2910  287.2910   14.7705   14.7705   14.7705  287.2910  287.2910 5393.5000    6.1677    0.1477    5.3167    2.0977    0.1477 
5394.0000   15.3198   15.3198  284.1797  284.1797   15.3198   15.3198   15.3198  284.1797  284.1797 5394.0000    7.5703    0.1532    5.3170    2.0929    0.1532 
5394.5000   15.4785   15.4785  258.6875  258.6875   15.4785   15.4785   15.4785  258.6875  258.6875 5394.5000   11.0391    0.1548    5.2547    2.0791    0.1548 
5395.0000   15.1123   15.1123  208.3750  208.3750   15.1123   15.1123   15.1123  208.3750  208.3750 5395.0000   15.8906    0.1511    5.1880    2.0792    0.1511 
5395.5000   13.8428   13.8428  156.0000  156.0000   13.8428   13.8428   13.8428  156.0000  156.0000 5395.5000   20.0430    0.1384    4.9897    2.1049    0.1384 
5396.0000   11.9629   11.9629  113.2500  113.2500   11.9629   11.9629   11.9629  113.2500  113.2500 5396.0000   21.3717    0.1196    4.7787    2.1558    0.1196 
5396.5000   10.3760   10.3760   87.7813   87.7813   10.3760   10.3760   10.3760   87.7813   87.7813 5396.5000   19.4219    0.1038    4.8655    2.2179    0.1038 
5397.0000    9.8022    9.8022   84.4766   84.4766    9.8022    9.8022    9.8022   84.4766   84.4766 5397.0000   15.4961    0.0980    5.2202    2.2528    0.0980 
5397.5000   10.2051   10.2051   99.2188   99.2188   10.2051   10.2051   10.2051   99.2188   99.2188 5397.5000   11.3750    0.1021    5.4424    2.2337    0.1021 
5398.0000   11.1938   11.1938  118.1875  118.1875   11.1938   11.1938   11.1938  118.1875  118.1875 5398.0000    8.2305    0.1119    5.3431    2.1774    0.1119 
5398.5000   12.3657   12.3657  136.4688  136.4688   12.3657   12.3657   12.3657  136.4688  136.4688 5398.5000    6.9399    0.1237    5.3011    2.1257    0.1237 
5399.0000   13.0859   13.0859  164.6875  164.6875   13.0859   13.0859   13.0859  164.6875  164.6875 5399.0000    8.1641    0.1309    5.1724    2.1000    0.1309 
5399.5000   12.8296   12.8296  198.0469  198.0469   12.8296   12.8296   12.8296  198.0469  198.0469 5399.5000   11.4805    0.1283    4.7295    2.1333    0.1283 
