~Version ---------------------------------------------------
VERS.   2.0 : CWLS log ASCII Standard -VERSION 2.0
WRAP.    NO : One line per depth step
DLM . SPACE : Column Data Section Delimiter
~Well ------------------------------------------------------
STRT  .m                                 0.0 : START DEPTH
STOP  .m                   11221024.30872697 : STOP DEPTH
STEP  .m                           623.56345 : STEP
NULL  .                                 -999 : NULL VALUE
COMP  .      Range Resources Appalachia, LLC : COMPANY
WELL  .                            SNRG-0001 : WELL
FLD   .                                      : FIELD
LOC   . 750'SL & 1060'EL OF NW QTR., SEC. 30 : LOCATION
PROV  .                                      : PROVINCE
CNTY  .                              Carroll : COUNTY
STAT  .                                      : STATE
CTRY  .                                      : COUNTRY
SRVC  .                                      : SERVICE COMPANY
DATE  .           2021-07-11 01:47:10.230360 : DATE
UWI   .                            SNRG-0001 : UNIQUE WELL ID
API   .                            SNRG-0001 : API NUMBER
LIC   .                                      : 
LATI  .                     40.6472950002882 : 
LONG  .                    -81.2941990004645 : 
NS    .                                      : 
EW    .                                      : 
XCOORD.                                      : 
YCOORD.                                      : 
GDAT  .                          (Undefined) : 
SECT  .                                      : 
RANG  .                                      : 
TOWN  .                                      : 
~Curve Information -----------------------------------------
DEPT.m     : 
AO10.OHMM  : ShalRes     Shallow Laterolog
AO20.OHMM  : ShalRes     Shallow Laterolog
AORX.OHMM  : ShalRes     Shallow Laterolog
AT10.OHMM  : ShalRes     Shallow Laterolog
AT20.OHMM  : ShalRes     Shallow Laterolog
GR  .GAPI  : GammaRay    Gamma Ray
HDRA.G/C3  : Drho        Density Correction
NPHI.dec   : Neutron
PEFZ.B/E   : PEF         PE
RHOZ.G/C3  : Density     Compensated Density
TNPH.dec   : Neutron
~Params ----------------------------------------------------
EKB.      : 
EGL.      : 
KB .      : 
GL .      : 
TD .      : 
TDD.      : 
TDL.      : 
~Other -----------------------------------------------------
~ASCII -----------------------------------------------------
# ...
 9021716.01549 1207.89928 1207.89928 1207.89928 1207.89928 1207.89928   13.52635    0.03499    0.00769    4.84642    2.68498    0.00769
 9022339.57894 3760.31218 3760.31218 3760.31218 3760.31218 3760.31218   13.96589    0.03401    0.00690    4.80593    2.68310    0.00690
 9022963.14239 14572.26212 14572.26212 14572.26212 14572.26212 14572.26212   13.60370    0.03504    0.00670    4.79987    2.69012    0.00670
 9023586.70584 20356.16788 20356.16788 20356.16788 20356.16788 20356.16788   13.22694    0.03806    0.00681    4.79000    2.69911    0.00681
 9024210.26929 8666.51407 8666.51407 8666.51407 8666.51407 8666.51407   12.72863    0.04302    0.00751    4.78998    2.70701    0.00751
 9024833.83274 1765.30071 1765.30071 1765.30071 1765.30071 1765.30071   12.35424    0.04501    0.00841    4.78811    2.70795    0.00841
 9025457.39619  645.36048  645.36048  645.36048  645.36048  645.36048   12.37873    0.04601    0.00910    4.79598    2.70395    0.00910
 9026080.95965  582.79408  582.79408  582.79408  582.79408  582.79408   12.99217    0.04701    0.00920    4.79370    2.70004    0.00920
 9026704.52310  614.31180  614.31180  614.31180  614.31180  614.31180   13.28666    0.04800    0.00920    4.77325    2.70305    0.00920
 9027328.08655  758.93473  758.93473  758.93473  758.93473  758.93473   13.54832    0.04796    0.00940    4.79130    2.70702    0.00940
 9027951.65000  945.51042  945.51042  945.51042  945.51042  945.51042   14.07632    0.04494    0.00980    4.81113    2.70896    0.00980
 9028575.21345 1106.33810 1106.33810 1106.33810 1106.33810 1106.33810   15.44134    0.03995    0.01000    4.75001    2.70595    0.01000
 9029198.77690 1089.81686 1089.81686 1089.81686 1089.81686 1089.81686   16.58066    0.03596    0.01000    4.67965    2.70194    0.01000
 9029822.34035 1026.64961 1026.64961 1026.64961 1026.64961 1026.64961   16.39515    0.03299    0.00980    4.65501    2.69694    0.00980
 9030445.90381 1044.55759 1044.55759 1044.55759 1044.55759 1044.55759   14.62897    0.03199    0.00949    4.65658    2.69195    0.00949
 9031069.46726 1130.77958 1130.77958 1130.77958 1130.77958 1130.77958   12.30537    0.03098    0.00879    4.69758    2.68798    0.00879
 9031693.03071 1087.82032 1087.82032 1087.82032 1087.82032 1087.82032   10.99046    0.02896    0.00800    4.73838    2.68596    0.00800
 9032316.59416  873.14513  873.14513  873.14513  873.14513  873.14513    9.97688    0.02598    0.00801    4.76570    2.68296    0.00801
 9032940.15761  625.41132  625.41132  625.41132  625.41132  625.41132   10.05240    0.02399    0.00891    4.81467    2.68001    0.00891
 9033563.72106  516.56287  516.56287  516.56287  516.56287  516.56287   11.19988    0.02302    0.00969    4.79156    2.68105    0.00969
 9034187.28451  596.00321  596.00321  596.00321  596.00321  596.00321   11.38568    0.02502    0.00898    4.75947    2.68507    0.00898
 9034810.84797  784.02251  784.02251  784.02251  784.02251  784.02251   10.15629    0.02704    0.00729    4.72254    2.69106    0.00729
 9035434.41142 1057.99863 1057.99863 1057.99863 1057.99863 1057.99863    8.56727    0.03001    0.00620    4.69060    2.69605    0.00620
 9036057.97487 1270.38761 1270.38761 1270.38761 1270.38761 1270.38761    8.32926    0.03101    0.00590    4.73344    2.70002    0.00590
 9036681.53832 1502.93915 1502.93915 1502.93915 1502.93915 1502.93915   10.11532    0.03200    0.00559    4.76510    2.70200    0.00559
 9037305.10177 1480.69898 1480.69898 1480.69898 1480.69898 1480.69898   11.88361    0.03199    0.00489    4.77190    2.70199    0.00489
 9037928.66522 1337.49458 1337.49458 1337.49458 1337.49458 1337.49458   11.85131    0.03101    0.00440    4.76460    2.70100    0.00440
 9038552.22867 1107.53814 1107.53814 1107.53814 1107.53814 1107.53814   11.52315    0.03202    0.00451    4.73576    2.70098    0.00451
 9039175.79213  865.69297  865.69297  865.69297  865.69297  865.69297   11.46941    0.03402    0.00501    4.71882    2.69900    0.00501
 9039799.35558  708.79257  708.79257  708.79257  708.79257  708.79257   11.92605    0.03602    0.00561    4.70652    2.69900    0.00561
 9040422.91903  548.64891  548.64891  548.64891  548.64891  548.64891   12.62428    0.03801    0.00682    4.67232    2.69899    0.00682
 9041046.48248  458.25349  458.25349  458.25349  458.25349  458.25349   12.37170    0.03898    0.00811    4.62462    2.69796    0.00811
 9041670.04593  408.28109  408.28109  408.28109  408.28109  408.28109   12.92557    0.03694    0.00879    4.59787    2.69489    0.00879
 9042293.60938  466.01543  466.01543  466.01543  466.01543  466.01543   14.23128    0.03193    0.00818    4.58879    2.68689    0.00818
 9042917.17283  561.55091  561.55091  561.55091  561.55091  561.55091   15.09594    0.02595    0.00678    4.64534    2.67896    0.00678
 9043540.73629  604.70681  604.70681  604.70681  604.70681  604.70681   15.64601    0.02200    0.00519    4.73958    2.67599    0.00519
 9044164.29974  580.06526  580.06526  580.06526  580.06526  580.06526   15.35818    0.02202    0.00399    4.78001    2.67502    0.00399
 9044787.86319  503.27143  503.27143  503.27143  503.27143  503.27143   14.59939    0.02402    0.00330    4.78075    2.67704    0.00330
 9045411.42664  519.38364  519.38364  519.38364  519.38364  519.38364   14.35531    0.02600    0.00331    4.76266    2.67996    0.00331
 9046034.99009  561.27928  561.27928  561.27928  561.27928  561.27928   15.01873    0.02598    0.00401    4.73900    2.67693    0.00401
 9046658.55354  606.23370  606.23370  606.23370  606.23370  606.23370   16.13226    0.02396    0.00490    4.73948    2.67095    0.00490
 9047282.11699  669.66090  669.66090  669.66090  669.66090  669.66090   17.41128    0.02098    0.00500    4.77377    2.66700    0.00500
 9047905.68045  817.80899  817.80899  817.80899  817.80899  817.80899   17.91388    0.01901    0.00459    4.82843    2.66706    0.00459
 9048529.24390 2300.14571 2300.14571 2300.14571 2300.14571 2300.14571   17.46626    0.02004    0.00399    4.85950    2.67210    0.00399
 9049152.80735 9051.73547 9051.73547 9051.73547 9051.73547 9051.73547   15.77899    0.02302    0.00319    4.89474    2.67905    0.00319
 9049776.37080 14877.39666 14877.39666 14877.39666 14877.39666 14877.39666   13.25102    0.02502    0.00229    4.94743    2.68302    0.00229
 9050399.93425 9768.54995 9768.54995 9768.54995 9768.54995 9768.54995   11.93646    0.02700    0.00180    4.97773    2.68501    0.00180
 9051023.49770 1715.52845 1715.52845 1715.52845 1715.52845 1715.52845   12.68181    0.02698    0.00200    4.95778    2.68596    0.00200
 9051647.06115  514.27889  514.27889  514.27889  514.27889  514.27889   13.93296    0.02500    0.00240    4.87195    2.68300    0.00240
 9052270.62461  362.30889  362.30889  362.30889  362.30889  362.30889   14.69294    0.02500    0.00250    4.79847    2.68301    0.00250
 9052894.18806  360.55839  360.55839  360.55839  360.55839  360.55839   14.33340    0.02500    0.00220    4.76238    2.68404    0.00220
 9053517.75151  382.62878  382.62878  382.62878  382.62878  382.62878   13.81206    0.02502    0.00190    4.78974    2.68704    0.00190
 9054141.31496  400.72810  400.72810  400.72810  400.72810  400.72810   14.44397    0.02702    0.00160    4.84227    2.69002    0.00160
 9054764.87841  411.97268  411.97268  411.97268  411.97268  411.97268   14.52082    0.02901    0.00171    4.85972    2.69199    0.00171
 9055388.44186  458.47983  458.47983  458.47983  458.47983  458.47983   15.28073    0.03002    0.00292    4.76927    2.69099    0.00292
 9056012.00531  563.16617  563.16617  563.16617  563.16617  563.16617   15.67402    0.03201    0.00492    4.64884    2.68995    0.00492
 9056635.56877  716.95020  716.95020  716.95020  716.95020  716.95020   15.25236    0.03300    0.00671    4.63853    2.68590    0.00671
 9057259.13222  922.96027  922.96027  922.96027  922.96027  922.96027   14.78923    0.03301    0.00770    4.67550    2.67895    0.00770
 9057882.69567 1083.35613 1083.35613 1083.35613 1083.35613 1083.35613   14.74282    0.03402    0.00790    4.70996    2.67498    0.00790
