~Version ---------------------------------------------------
VERS.   2.0 : CWLS log ASCII Standard -VERSION 2.0
WRAP.    NO : One line per depth step
DLM . SPACE : Column Data Section Delimiter
~Well ------------------------------------------------------
STRT  .m                                 0.0 : START DEPTH
STOP  .m                   11221024.30872697 : STOP DEPTH
STEP  .m                           623.56345 : STEP
NULL  .                                 -999 : NULL VALUE
COMP  .      Range Resources Appalachia, LLC : COMPANY
WELL  .                            SNRG-0001 : WELL
FLD   .                                      : FIELD
LOC   . 750'SL & 1060'EL OF NW QTR., SEC. 30 : LOCATION
PROV  .                                      : PROVINCE
CNTY  .                              Carroll : COUNTY
STAT  .                                      : STATE
CTRY  .                                      : COUNTRY
SRVC  .                                      : SERVICE COMPANY
DATE  .           2021-07-11 01:47:10.230360 : DATE
UWI   .                            SNRG-0001 : UNIQUE WELL ID
API   .                            SNRG-0001 : API NUMBER
LIC   .                                      : 
LATI  .                     40.6472950002882 : 
LONG  .                    -81.2941990004645 : 
NS    .                                      : 
EW    .                                      : 
XCOORD.                                      : 
YCOORD.                                      : 
GDAT  .                          (Undefined) : 
SECT  .                                      : 
RANG  .                                      : 
TOWN  .                                      : 
~Curve Information -----------------------------------------
DEPT.m     : 
AO10.OHMM  : ShalRes     Shallow Laterolog
AO20.OHMM  : ShalRes     Shallow Laterolog
AORX.OHMM  : ShalRes     Shallow Laterolog
AT10.OHMM  : ShalRes     Shallow Laterolog
AT20.OHMM  : ShalRes     Shallow Laterolog
GR  .GAPI  : GammaRay    Gamma Ray
HDRA.G/C3  : Drho        Density Correction
NPHI.dec   : Neutron
PEFZ.B/E   : PEF         PE
RHOZ.G/C3  : Density     Compensated Density
TNPH.dec   : Neutron
~Params ----------------------------------------------------
EKB.      : 
EGL.      : 
KB .      : 
GL .      : 
TD .      : 
TDD.      : 
TDL.      : 
~Other -----------------------------------------------------
~ASCII -----------------------------------------------------
# ...
 11037696.65400 7277.35959 7277.35959 7277.35959 7277.35959 7277.35959   59.22484    0.04297    0.05435    4.28963    2.83392    0.05435
 11038320.21745 5342.03759 5342.03759 5342.03759 5342.03759 5342.03759   56.73012    0.04103    0.05752    4.49776    2.82895    0.05752
 11038943.78091 3624.56545 3624.56545 3624.56545 3624.56545 3624.56545   54.47092    0.04313    0.05879    4.59627    2.82595    0.05879
 11039567.34436 2583.42122 2583.42122 2583.42122 2583.42122 2583.42122   55.42007    0.05120    0.05796    4.49637    2.82294    0.05796
 11040190.90781 2633.95680 2633.95680 2633.95680 2633.95680 2633.95680   58.14240    0.06221    0.05537    4.40366    2.81890    0.05537
 11040814.47126 2946.47099 2946.47099 2946.47099 2946.47099 2946.47099   60.75473    0.07410    0.05320    4.38496    2.81292    0.05320
 11041438.03471 3688.80437 3688.80437 3688.80437 3688.80437 3688.80437   62.37442    0.08003    0.05300    4.44040    2.80800    0.05300
 11042061.59816 5789.23450 5789.23450 5789.23450 5789.23450 5789.23450   61.23444    0.08197    0.05308    4.46275    2.80794    0.05308
 11042685.16161 17787.08022 17787.08022 17787.08022 17787.08022 17787.08022   59.65737    0.08008    0.05166    4.39076    2.80379    0.05166
 11043308.72507 44861.87470 44861.87470 44861.87470 44861.87470 44861.87470   59.20508    0.08530    0.04897    4.31987    2.79143    0.04897
 11043932.28852 93526.99851 93526.99851 93526.99851 93526.99851 93526.99851       -999    0.10244    0.04679    4.25508    2.75833    0.04679
 11044555.85197 108271.79803 108271.79803 108271.79803 108271.79803 108271.79803       -999    0.12840    0.04602    4.20240    2.71940    0.04602
 11045179.41542 108169.65189 108169.65189 108169.65189 108169.65189 108169.65189       -999    0.15221    0.04765    4.16731    2.68479    0.04765
 11045802.97887 101576.76976 101576.76976 101576.76976 101576.76976 101576.76976       -999    0.16390    0.05114    4.12872    2.67326    0.05114
 11046426.54232 48577.45300 48577.45300 48577.45300 48577.45300 48577.45300       -999    0.15769    0.05400    4.17095    2.68850    0.05400
 11047050.10577 22905.26948 22905.26948 22905.26948 22905.26948 22905.26948       -999    0.13963    0.05363    4.22430    2.71754    0.05363
 11047673.66923 17498.34398 17498.34398 17498.34398 17498.34398 17498.34398       -999    0.11777    0.04899    4.18220    2.74839    0.04899
 11048297.23268 32738.40046 32738.40046 32738.40046 32738.40046 32738.40046       -999    0.10492    0.04232    4.07801    2.77113    0.04232
 11048920.79613 61380.12957 61380.12957 61380.12957 61380.12957 61380.12957       -999    0.10012    0.03727    3.96595    2.77892    0.03727
 11049544.35958 53102.30158 53102.30158 53102.30158 53102.30158 53102.30158       -999    0.10731    0.03498    4.02114    2.77369    0.03498
 11050167.92303 34161.37545 34161.37545 34161.37545 34161.37545 34161.37545       -999    0.12546    0.03335    4.08553    2.75546    0.03335
 11050791.48648 35364.93466 35364.93466 35364.93466 35364.93466 35364.93466       -999    0.15257    0.03034    4.05805    2.72438    0.03034
 11051415.04993 57905.76046 57905.76046 57905.76046 57905.76046 57905.76046       -999    0.18556    0.02616    4.00277    2.68841    0.02616
 11052038.61339 99988.80750 99988.80750 99988.80750 99988.80750 99988.80750       -999    0.21737    0.02360    3.93300    2.65458    0.02360
 11052662.17684 108264.36215 108264.36215 108264.36215 108264.36215 108264.36215       -999    0.23918    0.02392    3.93189    2.62987    0.02392
 11053285.74029 108266.32552 108266.32552 108266.32552 108266.32552 108266.32552       -999    0.24900    0.02541    3.86884    2.62200    0.02541
 11053909.30374 108267.96714 108267.96714 108267.96714 108267.96714 108267.96714       -999    0.24895    0.02600    3.86150    2.62210    0.02600
 11054532.86719 108268.77286 108268.77286 108268.77286 108268.77286 108268.77286       -999    0.24587    0.02580    3.94887    2.62808    0.02580
 11055156.43064 108269.17261 108269.17261 108269.17261 108269.17261 108269.17261       -999    0.23773    0.02581    4.05620    2.63313    0.02581
 11055779.99409 108268.15267 108268.15267 108268.15267 108268.15267 108268.15267       -999    0.22161    0.02641    4.12469    2.64120    0.02641
 11056403.55755 108193.65221 108193.65221 108193.65221 108193.65221 108193.65221       -999    0.19851    0.02701    4.16420    2.65247    0.02701
 11057027.12100 103517.95421 103517.95421 103517.95421 103517.95421 103517.95421       -999    0.17047    0.02751    4.17603    2.67967    0.02751
 11057650.68445 65919.18196 65919.18196 65919.18196 65919.18196 65919.18196       -999    0.14050    0.02831    4.23698    2.71889    0.02831
 11058274.24790 35052.98573 35052.98573 35052.98573 35052.98573 35052.98573       -999    0.11154    0.02921    4.41011    2.76985    0.02921
 11058897.81135 19862.26384 19862.26384 19862.26384 19862.26384 19862.26384       -999    0.08464       -999    4.64702    2.81856       -999
 11059521.37480 18598.36790 18598.36790 18598.36790 18598.36790 18598.36790       -999    0.06377       -999    4.81717    2.85008       -999
 11060144.93825 30044.68964 30044.68964 30044.68964 30044.68964 30044.68964       -999    0.05094       -999    4.70790    2.85469       -999
 11060768.50171 54718.84131 54718.84131 54718.84131 54718.84131 54718.84131       -999    0.04705       -999    4.35524    2.83646       -999
 11061392.06516 82868.20908 82868.20908 82868.20908 82868.20908 82868.20908       -999    0.05010       -999    3.96818    2.80547       -999
 11062015.62861 106238.10546 106238.10546 106238.10546 106238.10546 106238.10546       -999    0.05602       -999    3.80853    2.77558       -999
 11062639.19206 108257.16892 108257.16892 108257.16892 108257.16892 108257.16892       -999    0.05694       -999    3.89844    2.75073       -999
 11063262.75551 108066.98309 108066.98309 108066.98309 108066.98309 108066.98309       -999    0.05292       -999    4.09611    2.73484       -999
 11063886.31896 96549.44045 96549.44045 96549.44045 96549.44045 96549.44045       -999    0.04795       -999    4.21579    2.72594       -999
 11064509.88241 55083.27669 55083.27669 55083.27669 55083.27669 55083.27669       -999    0.04502       -999    4.20377    2.72198       -999
 11065133.44587 50249.00985 50249.00985 50249.00985 50249.00985 50249.00985       -999    0.04608       -999    4.19141    2.72103       -999
 11065757.00932 50873.73927 50873.73927 50873.73927 50873.73927 50873.73927       -999    0.05110       -999    4.21536    2.72306       -999
 11066380.57277 86762.78521 86762.78521 86762.78521 86762.78521 86762.78521       -999    0.05713       -999    4.23603    2.72710       -999
 11067004.13622 108089.79366 108089.79366 108089.79366 108089.79366 108089.79366       -999    0.06508       -999    4.23738    2.73305       -999
 11067627.69967 108260.97335 108260.97335 108260.97335 108260.97335 108260.97335       -999    0.07005       -999    4.20060    2.73605       -999
 11068251.26312 108258.09860 108258.09860 108258.09860 108258.09860 108258.09860       -999    0.07302       -999    4.12095    2.73890       -999
 11068874.82657 108256.13639 108256.13639 108256.13639 108256.13639 108256.13639       -999    0.07390       -999    4.11841    2.73240       -999
 11069498.39003 108254.15142 108254.15142 108254.15142 108254.15142 108254.15142       -999    0.06777       -999    4.14141    2.69680       -999
 11070121.95348 107794.01125 107794.01125 107794.01125 107794.01125 107794.01125       -999    0.05470       -999       -999    2.62734       -999
 11070745.51693 81152.35176 81152.35176 81152.35176 81152.35176 81152.35176       -999       -999       -999       -999       -999       -999
 11071369.08038 51789.47150 51789.47150 51789.47150 51789.47150 51789.47150       -999       -999       -999       -999       -999       -999
 11071992.64383 28799.23697 28799.23697 28799.23697 28799.23697 28799.23697       -999       -999       -999       -999       -999       -999
