~VERSION INFORMATION
 VERS.                 2.0:   CWLS LOG ASCII STANDARD - VERSION 2.0
 WRAP.                  NO:   SINGLE LINE PER DEPTH STEP
 CREA.                 5/13/2021 1:24:20 AM
#CREATED USING DSPetro VERSION 10ep.4.05.01 BY H227404 ON 5/13/2021 1:24:20 AM
~WELL INFORMATION
#MNEM.UNIT       DATA                          DESCRIPTION MNEMONIC
#---------      ---------------------------   --------------------------
 STRT    .FT        1000.0000                 : START DEPTH
 STOP    .FT        10000.0000                : STOP DEPTH
 STEP    .FT        0.5000                    : STEP VALUE
 NULL    .      -999.0000                     : NULL VALUE
 DATE    .      5/13/2021                     : LAS file Creation Date
 WELL   .      SNRG-0003                             : Well Name
 COMP   .      COLUMBIA NATURAL RESOURCES INC.        : Company
 FLD    .                                             : Field
 STATE  .      OH                                     : State
 COUNT  .      USA                                    : Country
 API    .      SNRG-0003                         : API Number
 UWI    .      SNRG-0003                         : Unique Well Identifier (UWI)
 LOC    .      200'NL & 500'WL OF  SE QTR. SECTION 28 : Location
 EPDAT  .      1135                                   : Elevation of Permanent Datum
 GL     .      1135                                   : GL Elevation
 RWS    .      0                                      : Def_Rw
 WST    .      0                                      : Def_Rwt
 CNTY   .      COLUMBIANA                             : County
 PROV   .                                             : Province
 MDEC   .      0                                      : Magnetic Declination
 SRVC   .      SCH                                    : Contractor
 GDAT   .      (Undefined)                            : Geodatum
 LONG   .      -80.8118599997626                      : Longitude
 LATI   .      40.6594309997559                       : Latitude
 COORDIN.                                             : Grid System
 XCOORD .                                             : X or East-West Coordinate
 YCOORD .                                             : Y or North-South Coordinate
~CURVE INFORMATION
#MNEM              UNIT       API CODE   Curve Type Comments
#----------  --------------- ----------  ---------- -----------
 DEPTH      .FT                        : Depth       
 AO10       .%                         : ShalRes     SNP
 AO20       .%                         : ShalRes     SNP
 AO30       .OHMM                      : MedRes      ILM
 AO60       .OHMM                      : MedRes      ILM
 AORX       .%                         : ShalRes     SNP
 AT10       .%                         : ShalRes     SNP
 AT20       .%                         : ShalRes     SNP
 AT30       .OHMM                      : MedRes      ILM
 AT60       .OHMM                      : MedRes      ILM
 DEPTH      .FT                        : Depth       
 GR         .GAPI                      : GammaRay    GR
 NPHI       .dec                       : Neutron     
 PEFZ       .B/E                       : PEF         PEF
 RHOZ       .G/CC                      : Density     RHOB
 TNPH       .dec                       : Neutron     
~A  DEPTH    AO10      AO20      AO30      AO60      AORX      AT10      AT20      AT30      AT60     DEPTH       GR       NPHI      PEFZ      RHOZ      TNPH   
# ...
8125.0000    8.0566    8.0566  578.7500  578.7500    8.0566    8.0566    8.0566  578.7500  578.7500 8125.0000   88.8438    0.0806    4.6025    2.5833    0.0806 
8125.5000    7.9956    7.9956  630.1250  630.1250    7.9956    7.9956    7.9956  630.1250  630.1250 8125.5000   88.8594    0.0800    4.4985    2.5782    0.0800 
8126.0000    8.3740    8.3740  695.1250  695.1250    8.3740    8.3740    8.3740  695.1250  695.1250 8126.0000   90.0313    0.0837    4.3549    2.5835    0.0837 
8126.5000    8.9111    8.9111  758.8125  758.8125    8.9111    8.9111    8.9111  758.8125  758.8125 8126.5000   92.6563    0.0891    4.2670    2.5942    0.0891 
8127.0000    9.2163    9.2163  805.1875  805.1875    9.2163    9.2163    9.2163  805.1875  805.1875 8127.0000   95.5938    0.0922    4.2379    2.5972    0.0922 
8127.5000    9.0820    9.0820  782.2500  782.2500    9.0820    9.0820    9.0820  782.2500  782.2500 8127.5000   96.6563    0.0908    4.2270    2.5905    0.0908 
8128.0000    8.7647    8.7647  677.5000  677.5000    8.7647    8.7647    8.7647  677.5000  677.5000 8128.0000   94.9688    0.0876    4.1973    2.5792    0.0876 
8128.5000    8.7769    8.7769  665.8750  665.8750    8.7769    8.7769    8.7769  665.8750  665.8750 8128.5000   91.8750    0.0878    4.1514    2.5709    0.0878 
8129.0000    9.2407    9.2407  748.1875  748.1875    9.2407    9.2407    9.2407  748.1875  748.1875 8129.0000   88.0156    0.0924    4.1279    2.5704    0.0924 
8129.5000    9.7412    9.7412  736.8750  736.8750    9.7412    9.7412    9.7412  736.8750  736.8750 8129.5000   84.7344    0.0974    4.1611    2.5746    0.0974 
8130.0000    9.6802    9.6802  634.6250  634.6250    9.6802    9.6802    9.6802  634.6250  634.6250 8130.0000   83.4844    0.0968    4.2422    2.5754    0.0968 
8130.5000    9.0698    9.0698  539.1250  539.1250    9.0698    9.0698    9.0698  539.1250  539.1250 8130.5000   83.8125    0.0907    4.4092    2.5694    0.0907 
8131.0000    8.4228    8.4228  476.8750  476.8750    8.4228    8.4228    8.4228  476.8750  476.8750 8131.0000   84.6406    0.0842    4.5947    2.5589    0.0842 
8131.5000    8.1299    8.1299  447.5781  447.5781    8.1299    8.1299    8.1299  447.5781  447.5781 8131.5000   84.3125    0.0813    4.6641    2.5477    0.0813 
8132.0000    8.2275    8.2275  438.3555  438.3555    8.2275    8.2275    8.2275  438.3555  438.3555 8132.0000   82.7969    0.0823    4.5723    2.5420    0.0823 
8132.5000    8.5205    8.5205  439.8594  439.8594    8.5205    8.5205    8.5205  439.8594  439.8594 8132.5000   81.9219    0.0852    4.4326    2.5477    0.0852 
8133.0000    8.8623    8.8623  438.4063  438.4063    8.8623    8.8623    8.8623  438.4063  438.4063 8133.0000   82.5469    0.0886    4.4004    2.5599    0.0886 
8133.5000    9.0820    9.0820  415.2500  415.2500    9.0820    9.0820    9.0820  415.2500  415.2500 8133.5000   84.0781    0.0908    4.4170    2.5652    0.0908 
8134.0000    9.1187    9.1187  393.1797  393.1797    9.1187    9.1187    9.1187  393.1797  393.1797 8134.0000   86.0781    0.0912    4.4238    2.5579    0.0912 
8134.5000    9.0576    9.0576  400.3438  400.3438    9.0576    9.0576    9.0576  400.3438  400.3438 8134.5000   87.7813    0.0906    4.4102    2.5498    0.0906 
8135.0000    9.0332    9.0332  441.6250  441.6250    9.0332    9.0332    9.0332  441.6250  441.6250 8135.0000   88.0313    0.0903    4.3555    2.5510    0.0903 
8135.5000    9.0820    9.0820  493.4375  493.4375    9.0820    9.0820    9.0820  493.4375  493.4375 8135.5000   87.2813    0.0908    4.2832    2.5530    0.0908 
8136.0000    9.1065    9.1065  529.2813  529.2813    9.1065    9.1065    9.1065  529.2813  529.2813 8136.0000   87.0625    0.0911    4.2217    2.5489    0.0911 
8136.5000    9.1675    9.1675  592.3750  592.3750    9.1675    9.1675    9.1675  592.3750  592.3750 8136.5000   87.0938    0.0917    4.1894    2.5457    0.0917 
8137.0000    9.3384    9.3384  712.0000  712.0000    9.3384    9.3384    9.3384  712.0000  712.0000 8137.0000   86.8750    0.0934    4.1680    2.5466    0.0934 
8137.5000    9.7290    9.7290  787.4672  787.4672    9.7290    9.7290    9.7290  787.4672  787.4672 8137.5000   90.1406    0.0973    4.1367    2.5442    0.0973 
8138.0000   10.1685   10.1685  749.0000  749.0000   10.1685   10.1685   10.1685  749.0000  749.0000 8138.0000   98.2031    0.1017    4.1338    2.5378    0.1017 
8138.5000   10.0220   10.0220  692.5938  692.5938   10.0220   10.0220   10.0220  692.5938  692.5938 8138.5000  104.1563    0.1002    4.1602    2.5336    0.1002 
8139.0000    9.1797    9.1797  703.1250  703.1250    9.1797    9.1797    9.1797  703.1250  703.1250 8139.0000  100.9063    0.0918    4.1982    2.5279    0.0918 
8139.5000    8.4106    8.4106  751.2500  751.2500    8.4106    8.4106    8.4106  751.2500  751.2500 8139.5000   91.2813    0.0841    4.2920    2.5151    0.0841 
8140.0000    8.2397    8.2397  806.3750  806.3750    8.2397    8.2397    8.2397  806.3750  806.3750 8140.0000   83.3281    0.0824    4.4209    2.5020    0.0824 
8140.5000    8.2886    8.2886  881.5000  881.5000    8.2886    8.2886    8.2886  881.5000  881.5000 8140.5000   78.8594    0.0829    4.5205    2.4988    0.0829 
8141.0000    8.1299    8.1299  945.1250  945.1250    8.1299    8.1299    8.1299  945.1250  945.1250 8141.0000   75.6094    0.0813    4.5400    2.5054    0.0813 
8141.5000    7.9468    7.9468  903.6250  903.6250    7.9468    7.9468    7.9468  903.6250  903.6250 8141.5000   73.3125    0.0795    4.5352    2.5132    0.0795 
8142.0000    7.9224    7.9224  781.7500  781.7500    7.9224    7.9224    7.9224  781.7500  781.7500 8142.0000   71.9375    0.0792    4.5674    2.5160    0.0792 
8142.5000    7.9956    7.9956  691.4375  691.4375    7.9956    7.9956    7.9956  691.4375  691.4375 8142.5000   70.7344    0.0800    4.5781    2.5188    0.0800 
8143.0000    7.9956    7.9956  652.8125  652.8125    7.9956    7.9956    7.9956  652.8125  652.8125 8143.0000   69.7031    0.0800    4.6201    2.5282    0.0800 
8143.5000    7.3975    7.3975  616.9375  616.9375    7.3975    7.3975    7.3975  616.9375  616.9375 8143.5000   69.6563    0.0740    4.6250    2.5418    0.0740 
8144.0000    6.0425    6.0425  554.0000  554.0000    6.0425    6.0425    6.0425  554.0000  554.0000 8144.0000   71.7656    0.0604    4.3769    2.5505    0.0604 
8144.5000    4.6265    4.6265  525.7188  525.7188    4.6265    4.6265    4.6265  525.7188  525.7188 8144.5000   76.8594    0.0463    3.9399    2.5497    0.0463 
8145.0000    4.0527    4.0527  568.1250  568.1250    4.0527    4.0527    4.0527  568.1250  568.1250 8145.0000   84.3438    0.0405    3.6260    2.5357    0.0405 
8145.5000    4.6875    4.6875  642.1250  642.1250    4.6875    4.6875    4.6875  642.1250  642.1250 8145.5000   90.1406    0.0469    3.6611    2.5062    0.0469 
8146.0000    6.3110    6.3110  716.3750  716.3750    6.3110    6.3110    6.3110  716.3750  716.3750 8146.0000   90.9375    0.0631    3.9102    2.4490    0.0631 
8146.5000    8.0933    8.0933  728.7500  728.7500    8.0933    8.0933    8.0933  728.7500  728.7500 8146.5000   88.4844    0.0809    4.0552    2.3770    0.0809 
8147.0000    9.0576    9.0576  714.0469  714.0469    9.0576    9.0576    9.0576  714.0469  714.0469 8147.0000   87.1719    0.0906    4.0615    2.3557    0.0906 
8147.5000    9.2163    9.2163  742.3125  742.3125    9.2163    9.2163    9.2163  742.3125  742.3125 8147.5000   88.1563    0.0922    4.0928    2.3865    0.0922 
8148.0000    9.2163    9.2163  715.6250  715.6250    9.2163    9.2163    9.2163  715.6250  715.6250 8148.0000   89.6875    0.0922    4.1631    2.4008    0.0922 
8148.5000    9.3750    9.3750  604.1250  604.1250    9.3750    9.3750    9.3750  604.1250  604.1250 8148.5000   92.0313    0.0938    4.2060    2.3962    0.0938 
8149.0000    9.5337    9.5337  509.0000  509.0000    9.5337    9.5337    9.5337  509.0000  509.0000 8149.0000   93.7031    0.0953    4.2090    2.4253    0.0953 
8149.5000    9.5337    9.5337  473.3125  473.3125    9.5337    9.5337    9.5337  473.3125  473.3125 8149.5000   92.3281    0.0953    4.2109    2.4793    0.0953 
