~VERSION INFORMATION
 VERS.                 2.0:   CWLS LOG ASCII STANDARD - VERSION 2.0
 WRAP.                  NO:   SINGLE LINE PER DEPTH STEP
 CREA.                 5/13/2021 1:24:20 AM
#CREATED USING DSPetro VERSION 10ep.4.05.01 BY H227404 ON 5/13/2021 1:24:20 AM
~WELL INFORMATION
#MNEM.UNIT       DATA                          DESCRIPTION MNEMONIC
#---------      ---------------------------   --------------------------
 STRT    .FT        1000.0000                 : START DEPTH
 STOP    .FT        10000.0000                : STOP DEPTH
 STEP    .FT        0.5000                    : STEP VALUE
 NULL    .      -999.0000                     : NULL VALUE
 DATE    .      5/13/2021                     : LAS file Creation Date
 WELL   .      SNRG-0003                             : Well Name
 COMP   .      COLUMBIA NATURAL RESOURCES INC.        : Company
 FLD    .                                             : Field
 STATE  .      OH                                     : State
 COUNT  .      USA                                    : Country
 API    .      SNRG-0003                         : API Number
 UWI    .      SNRG-0003                         : Unique Well Identifier (UWI)
 LOC    .      200'NL & 500'WL OF  SE QTR. SECTION 28 : Location
 EPDAT  .      1135                                   : Elevation of Permanent Datum
 GL     .      1135                                   : GL Elevation
 RWS    .      0                                      : Def_Rw
 WST    .      0                                      : Def_Rwt
 CNTY   .      COLUMBIANA                             : County
 PROV   .                                             : Province
 MDEC   .      0                                      : Magnetic Declination
 SRVC   .      SCH                                    : Contractor
 GDAT   .      (Undefined)                            : Geodatum
 LONG   .      -80.8118599997626                      : Longitude
 LATI   .      40.6594309997559                       : Latitude
 COORDIN.                                             : Grid System
 XCOORD .                                             : X or East-West Coordinate
 YCOORD .                                             : Y or North-South Coordinate
~CURVE INFORMATION
#MNEM              UNIT       API CODE   Curve Type Comments
#----------  --------------- ----------  ---------- -----------
 DEPTH      .FT                        : Depth       
 AO10       .%                         : ShalRes     SNP
 AO20       .%                         : ShalRes     SNP
 AO30       .OHMM                      : MedRes      ILM
 AO60       .OHMM                      : MedRes      ILM
 AORX       .%                         : ShalRes     SNP
 AT10       .%                         : ShalRes     SNP
 AT20       .%                         : ShalRes     SNP
 AT30       .OHMM                      : MedRes      ILM
 AT60       .OHMM                      : MedRes      ILM
 DEPTH      .FT                        : Depth       
 GR         .GAPI                      : GammaRay    GR
 NPHI       .dec                       : Neutron     
 PEFZ       .B/E                       : PEF         PEF
 RHOZ       .G/CC                      : Density     RHOB
 TNPH       .dec                       : Neutron     
~A  DEPTH    AO10      AO20      AO30      AO60      AORX      AT10      AT20      AT30      AT60     DEPTH       GR       NPHI      PEFZ      RHOZ      TNPH   
# ...
8675.0000    1.0376    1.0376  297.0625  297.0625    1.0376    1.0376    1.0376  297.0625  297.0625 8675.0000   15.8672    0.0104    5.4264    2.7463    0.0104 
8675.5000    1.0132    1.0132  291.3438  291.3438    1.0132    1.0132    1.0132  291.3438  291.3438 8675.5000   17.4785    0.0101    5.4913    2.7416    0.0101 
8676.0000    0.9399    0.9399  287.0742  287.0742    0.9399    0.9399    0.9399  287.0742  287.0742 8676.0000   18.6016    0.0094    5.4520    2.7413    0.0094 
8676.5000    0.8911    0.8911  290.7344  290.7344    0.8911    0.8911    0.8911  290.7344  290.7344 8676.5000   19.0938    0.0089    5.3257    2.7471    0.0089 
8677.0000    0.8667    0.8667  297.4624  297.4624    0.8667    0.8667    0.8667  297.4624  297.4624 8677.0000   18.4063    0.0087    5.2292    2.7556    0.0087 
8677.5000    0.8423    0.8423  289.8712  289.8712    0.8423    0.8423    0.8423  289.8712  289.8712 8677.5000   17.0762    0.0084    5.2639    2.7624    0.0084 
8678.0000    0.8301    0.8301  286.2740  286.2740    0.8301    0.8301    0.8301  286.2740  286.2740 8678.0000   16.1484    0.0083    5.3812    2.7671    0.0083 
8678.5000    0.8301    0.8301  285.4962  285.4962    0.8301    0.8301    0.8301  285.4962  285.4962 8678.5000   15.7734    0.0083    5.4292    2.7705    0.0083 
8679.0000    0.8301    0.8301  273.1331  273.1331    0.8301    0.8301    0.8301  273.1331  273.1331 8679.0000   15.6289    0.0083    5.3376    2.7682    0.0083 
8679.5000    0.8179    0.8179  270.3137  270.3137    0.8179    0.8179    0.8179  270.3137  270.3137 8679.5000   15.7949    0.0082    5.1665    2.7602    0.0082 
8680.0000    0.7935    0.7935  268.8668  268.8668    0.7935    0.7935    0.7935  268.8668  268.8668 8680.0000   16.3516    0.0079    5.0198    2.7523    0.0079 
8680.5000    0.8057    0.8057  257.8762  257.8762    0.8057    0.8057    0.8057  257.8762  257.8762 8680.5000   16.5508    0.0081    4.9775    2.7528    0.0081 
8681.0000    0.8545    0.8545  254.5512  254.5512    0.8545    0.8545    0.8545  254.5512  254.5512 8681.0000   15.9512    0.0085    5.0669    2.7608    0.0085 
8681.5000    0.8789    0.8789  255.9980  255.9980    0.8789    0.8789    0.8789  255.9980  255.9980 8681.5000   15.4355    0.0088    5.2148    2.7674    0.0088 
8682.0000    0.8545    0.8545  264.3671  264.3671    0.8545    0.8545    0.8545  264.3671  264.3671 8682.0000   15.2031    0.0085    5.3241    2.7698    0.0085 
8682.5000    0.7690    0.7690  300.2509  300.2509    0.7690    0.7690    0.7690  300.2509  300.2509 8682.5000   14.3164    0.0077    5.3355    2.7679    0.0077 
8683.0000    0.6226    0.6226  379.8276  379.8276    0.6226    0.6226    0.6226  379.8276  379.8276 8683.0000   12.5020    0.0062    5.2769    2.7642    0.0062 
8683.5000    0.4150    0.4150  492.0875  492.0875    0.4150    0.4150    0.4150  492.0875  492.0875 8683.5000   10.7324    0.0042    5.2106    2.7573    0.0042 
8684.0000    0.1953    0.1953  609.4235  609.4235    0.1953    0.1953    0.1953  609.4235  609.4235 8684.0000    9.7539    0.0020    5.1901    2.7495    0.0020 
8684.5000    0.0855    0.0855  685.2404  685.2404    0.0855    0.0855    0.0855  685.2404  685.2404 8684.5000    9.0684    0.0009    5.2622    2.7410    0.0009 
8685.0000    0.1099    0.1099  682.8611  682.8611    0.1099    0.1099    0.1099  682.8611  682.8611 8685.0000    8.5859    0.0011    5.4697    2.7253    0.0011 
8685.5000    0.1587    0.1587  667.5625  667.5625    0.1587    0.1587    0.1587  667.5625  667.5625 8685.5000    8.6719    0.0016    5.7725    2.7204    0.0016 
8686.0000    0.1953    0.1953  666.2969  666.2969    0.1953    0.1953    0.1953  666.2969  666.2969 8686.0000    9.1211    0.0020    5.9414    2.7384    0.0020 
8686.5000    0.2197    0.2197  680.5625  680.5625    0.2197    0.2197    0.2197  680.5625  680.5625 8686.5000    9.2383    0.0022    5.8535    2.7583    0.0022 
8687.0000    0.1953    0.1953  715.7500  715.7500    0.1953    0.1953    0.1953  715.7500  715.7500 8687.0000    8.8438    0.0020    5.6309    2.7604    0.0020 
8687.5000    0.1465    0.1465  759.8750  759.8750    0.1465    0.1465    0.1465  759.8750  759.8750 8687.5000    8.2529    0.0015    5.4326    2.7503    0.0015 
8688.0000    0.1099    0.1099  781.4063  781.4063    0.1099    0.1099    0.1099  781.4063  781.4063 8688.0000    7.9277    0.0011    5.4072    2.7402    0.0011 
8688.5000    0.1343    0.1343  778.0156  778.0156    0.1343    0.1343    0.1343  778.0156  778.0156 8688.5000    8.2647    0.0013    5.5303    2.7346    0.0013 
8689.0000    0.1709    0.1709  768.7500  768.7500    0.1709    0.1709    0.1709  768.7500  768.7500 8689.0000    8.8008    0.0017    5.5810    2.7418    0.0017 
8689.5000    0.0977    0.0977  798.6250  798.6250    0.0977    0.0977    0.0977  798.6250  798.6250 8689.5000    8.8711    0.0010    5.4988    2.7541    0.0010 
8690.0000   -0.0610   -0.0610  837.7500  837.7500   -0.0610   -0.0610   -0.0610  837.7500  837.7500 8690.0000    8.2725   -0.0006    5.3731    2.7437   -0.0006 
8690.5000   -0.1587   -0.1587  870.0762  870.0762   -0.1587   -0.1587   -0.1587  870.0762  870.0762 8690.5000    7.4785   -0.0016    5.2822    2.7059   -0.0016 
8691.0000   -0.1221   -0.1221  836.2500  836.2500   -0.1221   -0.1221   -0.1221  836.2500  836.2500 8691.0000    7.0234   -0.0012    5.2947    2.6729   -0.0012 
8691.5000   -0.0366   -0.0366  828.5313  828.5313   -0.0366   -0.0366   -0.0366  828.5313  828.5313 8691.5000    6.8408   -0.0004    5.4169    2.6761   -0.0004 
8692.0000   -0.0366   -0.0366  833.4375  833.4375   -0.0366   -0.0366   -0.0366  833.4375  833.4375 8692.0000    7.3057   -0.0004    5.4966    2.7141   -0.0004 
8692.5000   -0.1221   -0.1221  874.1250  874.1250   -0.1221   -0.1221   -0.1221  874.1250  874.1250 8692.5000    8.2100   -0.0012    5.3879    2.7518   -0.0012 
8693.0000   -0.1953   -0.1953  999.0000  999.0000   -0.1953   -0.1953   -0.1953  999.0000  999.0000 8693.0000    8.4004   -0.0020    5.1604    2.7459   -0.0020 
8693.5000   -0.2075   -0.2075  970.8750  970.8750   -0.2075   -0.2075   -0.2075  970.8750  970.8750 8693.5000    7.8906   -0.0021    5.0142    2.6821   -0.0021 
8694.0000   -0.1831   -0.1831  853.0093  853.0093   -0.1831   -0.1831   -0.1831  853.0093  853.0093 8694.0000    7.5127   -0.0018    5.0398    2.5959   -0.0018 
8694.5000   -0.1221   -0.1221  833.8438  833.8438   -0.1221   -0.1221   -0.1221  833.8438  833.8438 8694.5000    7.7676   -0.0012    5.2009    2.5516   -0.0012 
8695.0000    0.0000    0.0000  798.6250  798.6250    0.0000    0.0000    0.0000  798.6250  798.6250 8695.0000    8.3935    0.0000    5.3906    2.5838    0.0000 
8695.5000    0.1221    0.1221  689.0000  689.0000    0.1221    0.1221    0.1221  689.0000  689.0000 8695.5000    9.4629    0.0012    5.5336    2.6617    0.0012 
8696.0000    0.1953    0.1953  607.3438  607.3438    0.1953    0.1953    0.1953  607.3438  607.3438 8696.0000   10.9844    0.0020    5.5700    2.7301    0.0020 
8696.5000    0.1831    0.1831  630.9375  630.9375    0.1831    0.1831    0.1831  630.9375  630.9375 8696.5000   11.6816    0.0018    5.5375    2.7547    0.0018 
8697.0000    0.0977    0.0977  617.4375  617.4375    0.0977    0.0977    0.0977  617.4375  617.4375 8697.0000   10.6660    0.0010    5.5273    2.7470    0.0010 
8697.5000    0.0244    0.0244  568.2101  568.2101    0.0244    0.0244    0.0244  568.2101  568.2101 8697.5000    8.8272    0.0002    5.5316    2.7433    0.0002 
8698.0000    0.0855    0.0855  549.8750  549.8750    0.0855    0.0855    0.0855  549.8750  549.8750 8698.0000    8.5117    0.0009    5.4585    2.7472    0.0009 
8698.5000    0.3540    0.3540  512.7500  512.7500    0.3540    0.3540    0.3540  512.7500  512.7500 8698.5000   11.1728    0.0035    5.2900    2.7473    0.0035 
8699.0000    0.7446    0.7446  438.7500  438.7500    0.7446    0.7446    0.7446  438.7500  438.7500 8699.0000   15.9941    0.0074    5.1545    2.7447    0.0074 
8699.5000    1.1230    1.1230  342.8750  342.8750    1.1230    1.1230    1.1230  342.8750  342.8750 8699.5000   21.4141    0.0112    5.1428    2.7437    0.0112 
