~VERSION INFORMATION
 VERS.                 2.0:   CWLS LOG ASCII STANDARD - VERSION 2.0
 WRAP.                  NO:   SINGLE LINE PER DEPTH STEP
 CREA.                 07/23/2021 11:30:29
#CREATED USING DSPetro VERSION 10ep.4.05.01 BY H227404 ON 07/23/2021 11:30:29
~WELL INFORMATION
#MNEM.UNIT       DATA                          DESCRIPTION MNEMONIC
#---------      ---------------------------   --------------------------
 STRT    .FT        156.0000                  : START DEPTH
 STOP    .FT        9462.0000                 : STOP DEPTH
 STEP    .FT        0.5000                    : STEP VALUE
 NULL    .      -999.0000                     : NULL VALUE
 DATE    .      07/23/2021                    : LAS file Creation Date
 WELL   .      SNRG-0004         : Well Name
 COMP   .                        : Company
 FLD    .                        : Field
 API    .      SNRG-0004         : API Number
 UWI    .      SNRG-0004         : Unique Well Identifier (UWI)
 LOC    .                        : Location
 KB     .      1230.0            : KB Elevation
 RWS    .      0                 : Def_Rw
 WST    .      0                 : Def_Rwt
 PROV   .                        : Province
 MDEC   .      0                 : Magnetic Declination
 SRVC   .      UNKNOWN           : Contractor
 GDAT   .      WGS 84            : Geodatum
 LONG   .      -80.4115240001679 : Longitude
 LATI   .      40.7475300004747  : Latitude
 COORDIN.                        : Grid System
 XCOORD .                        : X or East-West Coordinate
 YCOORD .                        : Y or North-South Coordinate
~CURVE INFORMATION
#MNEM              UNIT       API CODE   Curve Type Comments
#----------  --------------- ----------  ---------- -----------
 DEPTH      .FT                        : Depth       
 AT10       .OHMM                      : ShalRes     12 Array Induction Two Foot Resistivity
 AT20       .OHMM                      : MedRes      13 Array Induction Two Foot Resistivity
 AT30       .OHMM                      : MedRes      14 Array Induction Two Foot Resistivity
 AT60       .OHMM                      : MedRes      15 Array Induction Two Foot Resistivity
 AT90       .OHMM                      : DeepRes     16 Array Induction Two Foot Resistivity
 GR         .API                       : GammaRay    
 PEFZ       .B/E                       : PEF         
 NPHI       .DECP                      : Neutron     neutron porosity
 RHOZ       .gm/cc                     : Density     
 DCAL       .in                        :             
 HCAL       .inch                      : Caliper     
~A  DEPTH    AT10      AT20      AT30      AT60      AT90       GR       PEFZ      NPHI      RHOZ      DCAL      HCAL   
 156.0000 1950.0000    0.5170   11.1190 1950.0000   40.2860   33.4960   10.0000    0.5520    2.3320   -4.6820    4.0670 
 156.5000 1950.0000    0.5170   11.1190 1950.0000   40.2860   33.2200   10.0000    0.5820    2.3320   -4.6930    4.0570 
 157.0000 1950.0000    0.5170   11.1190 1950.0000   40.2860   31.1010   10.0000    0.6150    2.3320   -4.6820    4.0670 
 157.5000 1950.0000    0.5170   11.1190 1950.0000   40.2860   31.8950   10.0000    0.6060    2.3320   -4.7040    4.0460 
 158.0000 1950.0000    0.5170   11.1190 1950.0000   40.2860   34.1440   10.0000    0.5780    2.3320   -4.6930    4.0570 
 158.5000 1950.0000    0.5170   11.1190 1950.0000   40.2860   34.5410   10.0000    0.5700    2.3320   -4.6820    4.0670 
 159.0000 1950.0000    0.5170   11.1190 1950.0000   40.2860   32.1700   10.0000    0.5740    2.3320   -4.6930    4.0570 
 159.5000 1950.0000    0.5170   11.1190 1950.0000   40.2860   30.9800   10.0000    0.5940    2.3320   -4.7040    4.0460 
 160.0000 1950.0000    0.5170   11.1190 1950.0000   40.2860   33.2160   10.0000    0.6390    2.3320   -4.7040    4.0460 
 160.5000 1950.0000    0.5170   11.1190 1950.0000   40.2860   32.4290   10.0000    0.6690    2.3320   -4.7040    4.0460 
 161.0000 1950.0000    0.5170   11.1190 1950.0000   40.2860   31.7680   10.0000    0.6830    2.3320   -4.6820    4.0670 
 161.5000 1950.0000    0.5170   11.1190 1950.0000   40.2860   28.1200   10.0000    0.6210    2.3320   -4.7040    4.0460 
 162.0000 1950.0000    0.5170   11.1190 1950.0000   40.2860   30.4560   10.0000    0.6010    2.3320   -4.6820    4.0670 
 162.5000 1950.0000    0.5170   11.1190 1950.0000   40.2860   31.7790   10.0000    0.5750    2.3320   -4.6930    4.0570 
 163.0000 1950.0000    0.5170   11.1190 1950.0000   40.2860   34.2500   10.0000    0.6250    2.3260   -4.7040    4.0460 
 163.5000 1950.0000    0.5150   10.5900 1950.0000   39.8090   35.9980   10.0000    0.6260    2.3190   -4.7040    4.0460 
 164.0000 1950.0000    0.5130    9.1500 1950.0000   32.1410   34.2780   10.0000    0.6420    2.3220   -4.6930    4.0570 
 164.5000 1950.0000    0.5100    8.8840 1950.0000   31.8260   31.2310   10.0000    0.5890    2.3280   -4.6930    4.0570 
 165.0000 1950.0000    0.5080    8.1260 1950.0000   30.1060   28.0670   10.0000    0.5020    2.3300   -4.6820    4.0670 
 165.5000 1950.0000    0.5090    8.3320 1950.0000   29.3250   26.8660   10.0000    0.4900    2.3320   -4.6930    4.0570 
 166.0000 1950.0000    0.5080    9.0560 1798.9930   31.0640   30.0440   10.0000    0.5370    2.3330   -4.7040    4.0460 
 166.5000 1950.0000    0.5100    9.6530 1198.1670   35.1770   29.8150   10.0000    0.5730    2.3300   -4.6930    4.0570 
 167.0000 1950.0000    0.5080   10.1530  694.8310   37.8010   31.7800   10.0000    0.5790    2.3270   -4.7040    4.0460 
 167.5000 1950.0000    0.5130   12.8310  369.3470   37.8290   29.1310   10.0000    0.5530    2.3240   -4.6820    4.0670 
 168.0000 1950.0000    0.5080    8.7160  199.7990   23.1700   29.3500   10.0000    0.6120    2.3260   -4.6820    4.0670 
 168.5000 1950.0000    0.5010    6.4660  115.0290   14.0390   28.7180   10.0000    0.5970    2.3290   -4.6930    4.0570 
 169.0000 1950.0000    0.5030    7.2910   75.0080   13.4460   27.9240   10.0000    0.6520    2.3320   -4.6930    4.0570 
 169.5000 1950.0000    0.5150    7.4120   38.4310   12.2640   26.0800   10.0000    0.6480    2.3320   -4.6970    4.0530 
 170.0000 1950.0000    0.5090    9.5670   43.6510   13.6840   24.8900   10.0000    0.6740    2.3340   -4.7040    4.0460 
 170.5000 1950.0000    0.5120    9.1540   30.9480   12.9680   28.7160   10.0000    0.6820    2.3410   -4.7040    4.0460 
 171.0000 1950.0000    0.5330   13.2590   22.8590   15.0290   31.2490   10.0000    0.6270    2.3620   -4.6970    4.0530 
 171.5000 1950.0000    0.5130    7.1930   17.5740    9.5540   30.5880   10.0000    0.5940    2.3890   -4.6820    4.0670 
 172.0000 1950.0000    0.5150    5.7320   10.4110    6.6830   26.8940   10.0000    0.5490    2.4030   -4.7040    4.0460 
 172.5000 1950.0000    0.5220    8.1430   43.5310   20.9020   28.4530   10.0000    0.5720    2.3900   -4.6820    4.0670 
 173.0000 1950.0000    0.5260    7.9390   33.1980   13.2960   30.8340   10.0000    0.5850    2.3630   -4.6820    4.0670 
 173.5000 1950.0000    0.5260    8.1800   51.3460   16.1430   31.7610   10.0000    0.5420    2.3400   -4.6930    4.0570 
 174.0000 1950.0000    0.5280    8.7530   82.6740   15.9140   31.8940   10.0000    0.5290    2.3300   -4.6820    4.0670 
 174.5000 1950.0000    0.5260    9.5760  161.6440   19.0890   29.4250   10.0000    0.5380    2.3280   -4.6930    4.0570 
 175.0000 1950.0000    0.5230    9.8840  316.9650   23.7510   29.5470   10.0000    0.5910    2.3290   -4.6930    4.0570 
 175.5000 1950.0000    0.5180   10.0460  651.6280   24.5110   27.4300   10.0000    0.5960    2.3270   -4.6970    4.0530 
 176.0000 1950.0000    0.5140    9.9210 1150.4250   27.8030   28.8510   10.0000    0.6190    2.3230   -4.7040    4.0460 
 176.5000 1950.0000    0.5080   10.9390 1511.0820   38.1050   28.5970   10.0000    0.6170    2.3170   -4.6820    4.0670 
 177.0000 1950.0000    0.5030    9.4840 1787.8600   29.3110   29.1270   10.0000    0.6420    2.3200   -4.7040    4.0460 
 177.5000 1950.0000    0.5000    8.4300 1939.0170   22.6000   28.5860   10.0000    0.5940    2.3240   -4.7040    4.0460 
 178.0000 1950.0000    0.5000    7.5280 1950.0000   18.0810   28.7190   10.0000    0.6110    2.3280   -4.6970    4.0530 
 178.5000 1950.0000    0.5060    9.1440 1950.0000   28.5920   28.4540   10.0000    0.6070    2.3250   -4.7040    4.0460 
 179.0000 1950.0000    0.5120   11.3130 1950.0000   37.5470   29.9090   10.0000    0.6490    2.3240   -4.7040    4.0460 
 179.5000 1950.0000    0.5130   12.1280 1950.0000   39.5860   32.1470   10.0000    0.5830    2.3260   -4.7040    4.0460 
 180.0000 1950.0000    0.5120    9.7670 1950.0000   30.3070   34.6610   10.0000    0.5510    2.3310   -4.6930    4.0570 
 180.5000 1950.0000    0.5090    8.7360 1950.0000   21.6460   33.3490   10.0000    0.4940    2.3360   -4.7040    4.0460 
 181.0000 1950.0000    0.5060    9.6970 1950.0000   24.6930   28.9910   10.0000    0.5240    2.3380   -4.7040    4.0460 
 181.5000 1950.0000    0.5050   10.3770 1950.0000   33.8060   26.7420   10.0000    0.5420    2.3360   -4.6930    4.0570 
 182.0000 1950.0000    0.5040    9.1340 1950.0000   35.6980   26.6000   10.0000    0.5730    2.3370   -4.7040    4.0460 
 182.5000 1950.0000    0.5040    9.2950 1950.0000   28.6460   30.9700   10.0000    0.5500    2.3390   -4.6930    4.0570 
 183.0000 1950.0000    0.5050    9.9400 1950.0000   27.9560   32.2930   10.0000    0.5330    2.3400   -4.6970    4.0530 
 183.5000 1950.0000    0.5050    9.6510 1950.0000   36.2920   32.5190   10.0000    0.5850    2.3360   -4.7040    4.0460 
 184.0000 1950.0000    0.5060    9.7110 1950.0000   43.9810   30.5210   10.0000    0.6720    2.3360   -4.7040    4.0460 
 184.5000 1950.0000    0.5040    9.9120 1950.0000   31.7610   29.1980   10.0000    0.7100    2.3380   -4.7040    4.0460 
 185.0000 1950.0000    0.5010    8.7930 1950.0000   23.0910   29.6450   10.0000    0.6250    2.3380   -4.7040    4.0460 
 185.5000 1950.0000    0.5010    8.4640 1950.0000   25.7070   31.2320   10.0000    0.5620    2.3390   -4.7040    4.0460 
 186.0000 1950.0000    0.4970    9.4610 1950.0000   29.5170   30.2670   10.0000    0.5450    2.3390   -4.6930    4.0570 
 186.5000 1950.0000    0.4970   10.2740 1950.0000   30.7910   32.2410   10.0000    0.5760    2.3410   -4.7040    4.0460 
 187.0000 1950.0000    0.4970    9.7190 1950.0000   30.1460   32.2410   10.0000    0.5580    2.3430   -4.7040    4.0460 
 187.5000 1950.0000    0.4970    9.7210 1950.0000   31.0290   34.4100   10.0000    0.5800    2.3440   -4.6820    4.0670 
 188.0000 1950.0000    0.4980    9.5290 1950.0000   26.8020   31.5090   10.0000    0.6060    2.3480   -4.7040    4.0460 
 188.5000 1950.0000    0.4990   10.0620 1950.0000   27.0370   32.1710   10.0000    0.6070    2.3480   -4.6970    4.0530 
 189.0000 1950.0000    0.5000   10.2570 1950.0000   37.0970   33.6130   10.0000    0.5910    2.3520   -4.6900    4.0600 
