~VERSION INFORMATION
 VERS.                 2.0:   CWLS LOG ASCII STANDARD - VERSION 2.0
 WRAP.                  NO:   SINGLE LINE PER DEPTH STEP
 CREA.                 07/23/2021 11:30:29
#CREATED USING DSPetro VERSION 10ep.4.05.01 BY H227404 ON 07/23/2021 11:30:29
~WELL INFORMATION
#MNEM.UNIT       DATA                          DESCRIPTION MNEMONIC
#---------      ---------------------------   --------------------------
 STRT    .FT        156.0000                  : START DEPTH
 STOP    .FT        9462.0000                 : STOP DEPTH
 STEP    .FT        0.5000                    : STEP VALUE
 NULL    .      -999.0000                     : NULL VALUE
 DATE    .      07/23/2021                    : LAS file Creation Date
 WELL   .      SNRG-0004         : Well Name
 COMP   .                        : Company
 FLD    .                        : Field
 API    .      SNRG-0004         : API Number
 UWI    .      SNRG-0004         : Unique Well Identifier (UWI)
 LOC    .                        : Location
 KB     .      1230.0            : KB Elevation
 RWS    .      0                 : Def_Rw
 WST    .      0                 : Def_Rwt
 PROV   .                        : Province
 MDEC   .      0                 : Magnetic Declination
 SRVC   .      UNKNOWN           : Contractor
 GDAT   .      WGS 84            : Geodatum
 LONG   .      -80.4115240001679 : Longitude
 LATI   .      40.7475300004747  : Latitude
 COORDIN.                        : Grid System
 XCOORD .                        : X or East-West Coordinate
 YCOORD .                        : Y or North-South Coordinate
~CURVE INFORMATION
#MNEM              UNIT       API CODE   Curve Type Comments
#----------  --------------- ----------  ---------- -----------
 DEPTH      .FT                        : Depth       
 AT10       .OHMM                      : ShalRes     12 Array Induction Two Foot Resistivity
 AT20       .OHMM                      : MedRes      13 Array Induction Two Foot Resistivity
 AT30       .OHMM                      : MedRes      14 Array Induction Two Foot Resistivity
 AT60       .OHMM                      : MedRes      15 Array Induction Two Foot Resistivity
 AT90       .OHMM                      : DeepRes     16 Array Induction Two Foot Resistivity
 GR         .API                       : GammaRay    
 PEFZ       .B/E                       : PEF         
 NPHI       .DECP                      : Neutron     neutron porosity
 RHOZ       .gm/cc                     : Density     
 DCAL       .in                        :             
 HCAL       .inch                      : Caliper     
~A  DEPTH    AT10      AT20      AT30      AT60      AT90       GR       PEFZ      NPHI      RHOZ      DCAL      HCAL   
# ...
6956.5000   32.5650   35.0230   47.1890   58.0110   64.5400   85.4170    2.6950    0.0110    2.6300   -0.2870    8.4630 
6957.0000   29.2740   32.0170   42.8930   51.6440   59.0440   82.5000    2.8100    0.0150    2.6380   -0.2980    8.4520 
6957.5000   28.1330   31.4200   40.4170   46.8270   54.8250   93.5130    2.9960    0.0180    2.6480   -0.3090    8.4410 
6958.0000   28.7970   30.4890   38.1900   42.9140   52.5220  107.2100    3.1850    0.0230    2.6530   -0.3310    8.4190 
6958.5000   29.5550   30.9080   37.4830   42.2420   49.1180  118.8260    3.2340    0.0250    2.6470   -0.3130    8.4370 
6959.0000   30.6760   31.5500   37.9650   41.4690   46.8010  111.8460    3.1680    0.0230    2.6460   -0.3050    8.4450 
6959.5000   32.6630   33.6910   40.5190   42.8050   46.5250  104.7150    3.1180    0.0220    2.6300   -0.3130    8.4370 
6960.0000   29.8490   30.2070   35.4910   36.4950   38.1610  105.7670    3.1990    0.0300    2.6220   -0.3090    8.4410 
6960.5000   25.4220   25.1510   28.3830   29.8570   32.0110  120.6830    3.3620    0.0490    2.6190   -0.2870    8.4630 
6961.0000   23.3430   23.1830   25.7790   27.6810   28.6130  132.6090    3.4440    0.0650    2.6290   -0.3200    8.4300 
6961.5000   24.0470   23.4610   25.6470   26.0370   28.0020  127.2170    3.3780    0.0690    2.6340   -0.2870    8.4630 
6962.0000   23.4760   23.0790   24.6770   25.1390   27.1880  116.2390    3.2660    0.0660    2.6280   -0.2760    8.4740 
6962.5000   20.6890   21.1190   22.4920   22.6610   25.2090  105.1150    3.2080    0.0650    2.6240   -0.2540    8.4960 
6963.0000   19.2070   19.0360   20.2230   20.5320   22.8280  103.0500    3.2560    0.0570    2.6200   -0.2540    8.4960 
6963.5000   21.0770   20.3570   21.4980   21.0560   25.2790  105.7490    3.3210    0.0550    2.6250   -0.2840    8.4670 
6964.0000   22.6230   21.1440   21.6670   21.7420   25.7540  111.7330    3.4100    0.0570    2.6220   -0.2760    8.4740 
6964.5000   19.7180   19.1740   19.7840   20.4640   23.9950  121.0260    3.4910    0.0600    2.6240   -0.2620    8.4880 
6965.0000   18.1520   18.5640   19.7600   20.9010   23.6200  126.3930    3.5420    0.0630    2.6280   -0.2760    8.4740 
6965.5000   21.7790   22.8840   24.7120   26.4010   30.0700  124.4230    3.5090    0.0520    2.6450   -0.2980    8.4520 
6966.0000   33.6280   33.9930   35.8880   40.0150   44.1980  115.0150    3.4090    0.0380    2.6450   -0.3090    8.4410 
6966.5000   58.6890   57.5440   53.6040   56.5890   57.0260  105.5190    3.3270    0.0190    2.6330   -0.2870    8.4630 
6967.0000   62.1730   57.1410   51.9080   50.3190   54.2790  104.8510    3.3580    0.0140    2.6150   -0.3310    8.4190 
6967.5000   35.5590   32.7970   34.4950   39.3230   43.6930  119.6280    3.4930    0.0250    2.6180   -0.2840    8.4670 
6968.0000   21.7270   21.4850   23.2200   26.8620   29.1780  122.1680    3.6490    0.0500    2.6410   -0.2980    8.4520 
6968.5000   18.2140   18.7920   19.9770   22.6350   24.5650  117.0050    3.6850    0.0680    2.6620   -0.2980    8.4520 
6969.0000   18.3910   18.6530   19.0410   21.9990   24.8940  101.4090    3.6180    0.0620    2.6650   -0.2400    8.5100 
6969.5000   19.8340   20.0290   20.3410   23.2960   26.4010   93.4150    3.4650    0.0490    2.6550   -0.2840    8.4670 
6970.0000   21.7710   22.2750   22.6630   24.2330   26.9970   82.1710    3.3050    0.0340    2.6460   -0.3270    8.4230 
6970.5000   22.9270   23.0150   22.9750   24.0000   26.1080   77.4700    3.1960    0.0260    2.6450   -0.2840    8.4670 
6971.0000   23.3110   22.0900   21.7010   22.8380   24.1640   81.2180    3.2070    0.0390    2.6550   -0.2620    8.4880 
6971.5000   21.8990   20.7190   20.4640   21.7040   22.4630   91.5280    3.2900    0.0560    2.6680   -0.2620    8.4880 
6972.0000   21.4680   20.9080   20.9010   21.2670   21.2910   91.0820    3.3210    0.0590    2.6700   -0.2540    8.4960 
6972.5000   24.6370   23.4380   23.7390   23.6540   22.6430   84.9680    3.2920    0.0430    2.6510   -0.2690    8.4810 
6973.0000   26.2660   24.2270   22.9830   22.6410   21.8870   80.6110    3.2640    0.0350    2.6320   -0.2540    8.4960 
6973.5000   19.3120   17.5580   16.9970   16.8370   16.0530   81.9870    3.2500    0.0370    2.6290   -0.2760    8.4740 
6974.0000   15.6520   14.0730   13.5350   13.2840   12.6140   81.3320    3.2630    0.0390    2.6260   -0.2760    8.4740 
6974.5000   11.3450   10.8150   10.6330   10.3580    9.5990   81.2180    3.3210    0.0420    2.6260   -0.2760    8.4740 
6975.0000    7.9280    7.6420    7.4120    7.3510    7.0750   86.0360    3.4750    0.0500    2.6270   -0.2430    8.5070 
6975.5000    7.0890    7.0090    6.8290    6.7640    6.4490   91.6380    3.5980    0.0610    2.6470   -0.2910    8.4590 
6976.0000    7.3070    7.1890    6.8710    6.8080    6.5590   91.1800    3.6780    0.0670    2.6470   -0.2470    8.5030 
6976.5000    7.1050    6.9110    6.6130    6.5970    6.3340   89.2290    3.6200    0.0670    2.6470   -0.2620    8.4880 
6977.0000    7.6300    7.2690    7.0120    7.0740    6.6610   89.6930    3.5340    0.0730    2.6370   -0.2760    8.4740 
6977.5000    9.5480    8.8430    8.6650    8.7780    8.0730   95.9030    3.3810    0.0720    2.6450   -0.2980    8.4520 
6978.0000   11.6440   10.4550   10.4910   10.5730    9.4740   95.1000    3.2760    0.0730    2.6550   -0.2430    8.5070 
6978.5000   13.8480   11.8670   11.9090   12.5330   11.5760   92.6920    3.2400    0.0700    2.6680   -0.2100    8.5400 
6979.0000   14.3080   11.9820   12.2230   12.9920   12.2360   87.3080    3.3180    0.0700    2.6650   -0.2210    8.5290 
6979.5000   13.0940   11.1660   11.5570   12.4640   11.9610   87.6520    3.4380    0.0690    2.6530   -0.2690    8.4810 
6980.0000   12.2850   10.5090   10.9670   11.9160   11.7760   87.6520    3.5530    0.0650    2.6420   -0.2620    8.4880 
6980.5000   11.4820   10.4880   11.1580   12.1280   12.1300   84.5450    3.7230    0.0660    2.6420   -0.2690    8.4810 
6981.0000    8.3430    7.7430    7.8450    8.6320    8.8040   84.4150    4.0040    0.0930    2.6540   -0.2540    8.4960 
6981.5000    5.4310    5.2960    4.9590    5.1940    5.3040   89.4770    4.3470    0.1130    2.6700   -0.2760    8.4740 
6982.0000    4.6500    4.5610    4.4870    4.6140    4.6810   94.4110    4.3890    0.1220    2.6780   -0.2540    8.4960 
6982.5000    6.1300    6.0680    5.8200    5.8980    6.0060   88.6770    4.1500    0.0990    2.6820   -0.2910    8.4590 
6983.0000    8.0690    7.6320    7.3750    7.2380    7.5590   79.2690    3.7250    0.0780    2.6640   -0.2320    8.5180 
6983.5000   11.1830   10.0030    9.4430    9.5150    9.5880   74.3220    3.5020    0.0640    2.6410   -0.2320    8.5180 
6984.0000   10.4660    9.0550    8.5120    8.4310    8.4360   75.4820    3.5260    0.0630    2.6170   -0.2470    8.5030 
6984.5000    6.8780    6.4210    6.3110    6.3950    6.2370   78.4520    3.8060    0.0850    2.5980   -0.2540    8.4960 
6985.0000    4.8130    4.6230    4.5470    4.6320    4.5470   76.5170    4.1290    0.0980    2.6070   -0.2840    8.4670 
6985.5000    4.9130    4.7470    4.6580    4.7500    4.6300   74.2230    4.2350    0.1010    2.6200   -0.2210    8.5290 
6986.0000    6.7490    6.4970    6.3980    6.6780    6.5180   72.2850    4.0550    0.0750    2.6370   -0.1960    8.5540 
6986.5000    8.7860    8.2710    7.9890    8.3760    7.9580   77.4310    3.7870    0.0610    2.6420   -0.2000    8.5510 
6987.0000    8.7450    8.3130    7.9490    8.0880    7.5410   83.0530    3.6000    0.0600    2.6460   -0.2320    8.5180 
6987.5000    9.0930    8.5220    8.2310    8.6100    8.0790   91.9860    3.5310    0.0680    2.6630   -0.2210    8.5290 
6988.0000   11.5910   10.5760   10.3260   10.8770   10.0180   93.6070    3.4320    0.0720    2.6790   -0.2250    8.5250 
6988.5000   14.8420   13.4120   12.9220   13.2010   12.4190   93.4650    3.3850    0.0660    2.6790   -0.2400    8.5100 
6989.0000   13.5880   12.1070   12.0130   12.4980   12.0270   90.4830    3.3950    0.0730    2.6760   -0.2620    8.4880 
6989.5000   11.5200   10.2990   10.2620   10.6200   10.5370   91.2860    3.4980    0.0760    2.6810   -0.2540    8.4960 
