~VERSION INFORMATION
 VERS.                 2.0:   CWLS LOG ASCII STANDARD - VERSION 2.0
 WRAP.                  NO:   SINGLE LINE PER DEPTH STEP
 CREA.                 07/23/2021 12:08:25
#CREATED USING DSPetro VERSION 10ep.4.05.01 BY H227404 ON 07/23/2021 12:08:25
~WELL INFORMATION
#MNEM.UNIT       DATA                          DESCRIPTION MNEMONIC
#---------      ---------------------------   --------------------------
 STRT    .FT        500.0000                  : START DEPTH
 STOP    .FT        9050.0000                 : STOP DEPTH
 STEP    .FT        0.5000                    : STEP VALUE
 NULL    .      -999.0000                     : NULL VALUE
 DATE    .      07/23/2021                    : LAS file Creation Date
 WELL   .      3402920607                           : Well Name
 COMP   .      TRI-STATE PRODUCING COMPANY          : Company
 FLD    .      WILDCAT                              : Field
 STATE  .      OHIO                                 : State
 COUNT  .      USA                                  : Country
 API    .      34029206070000                       : API Number
 UWI    .      34029206070000                       : Unique Well Identifier (UWI)
 LOC    .      197' FSL & 245' FEL - SW/Q SECTION 7 : Location
 EPDAT  .      1299.7                               : Elevation of Permanent Datum
 GL     .      1299.7                               : GL Elevation
 RWS    .      0                                    : Def_Rw
 WST    .      0                                    : Def_Rwt
 CNTY   .      COLUMBIANA                           : County
 PROV   .                                           : Province
 MDEC   .      0                                    : Magnetic Declination
 SRVC   .      SCH                                  : Contractor
 GDAT   .      (Undefined)                          : Geodatum
 LONG   .      -80.8510498333639                    : Longitude
 LATI   .      40.7851609999604                     : Latitude
 COORDIN.                                           : Grid System
 XCOORD .                                           : X or East-West Coordinate
 YCOORD .                                           : Y or North-South Coordinate
~CURVE INFORMATION
#MNEM              UNIT       API CODE   Curve Type Comments
#----------  --------------- ----------  ---------- -----------
 DEPTH      .FT                        : Depth       
 CALI       .IN                        : Caliper     Caliper
 GR         .GAPI                      : GammaRay    Gamma Ray
 RT         .OHMM                      :             Latero-Log 8
 NPHI       .dec                       : Neutron     
 RHOB       .G/C3                      : Density     Bulk Density
 TOC        .%                         :             TOTAL ORGANIC CARBON
 DT         .US/F                      : Time        Transit Time
~A  DEPTH    CALI       GR        RT       NPHI      RHOB      TOC        DT    
# ...
7776.5000    7.9941  102.1671  270.3849    0.0586    2.6025 -999.0000 -999.0000 
7777.0000    7.9956  101.1976  270.3849    0.0586    2.5901 -999.0000 -999.0000 
7777.5000    7.9998  104.8162  270.3849    0.0601    2.5856 -999.0000 -999.0000 
7778.0000    8.0009  107.1788  270.5740    0.0615    2.5874 -999.0000 -999.0000 
7778.5000    7.9962  104.0638  270.6551    0.0601    2.5911 -999.0000 -999.0000 
7779.0000    7.9606  102.0088  260.2101    0.0557    2.6138 -999.0000 -999.0000 
7779.5000    7.9652   99.8728  237.4120    0.0543    2.6459 -999.0000 -999.0000 
7780.0000    7.9643   99.5830  217.4245    0.0528    2.6570 -999.0000 -999.0000 
7780.5000    7.9573  102.7090  208.9388    0.0564    2.6486 -999.0000 -999.0000 
7781.0000    7.9047  106.8890  227.5899    0.0601    2.6250 -999.0000 -999.0000 
7781.5000    7.9524  108.2974  273.4657    0.0615    2.6088 -999.0000 -999.0000 
7782.0000    7.9600  104.9079  301.7181    0.0615    2.6036 -999.0000 -999.0000 
7782.5000    7.9910  101.7476  294.9199    0.0615    2.6005 -999.0000 -999.0000 
7783.0000    7.9586  101.2165  288.6222    0.0601    2.6020 -999.0000 -999.0000 
7783.5000    7.9675   99.6403  282.4589    0.0557    2.6266 -999.0000 -999.0000 
7784.0000    7.9633   99.6717  276.4273    0.0557    2.6344 -999.0000 -999.0000 
7784.5000    7.9642  102.1139  270.5244    0.0586    2.6332 -999.0000 -999.0000 
7785.0000    7.9647  105.0623  264.7476    0.0572    2.6326 -999.0000 -999.0000 
7785.5000    7.9641  104.2016  225.2254    0.0572    2.6350 -999.0000 -999.0000 
7786.0000    7.9643  104.5128  225.2254    0.0572    2.6555 -999.0000 -999.0000 
7786.5000    7.9643  102.9177  256.4193    0.0586    2.6555 -999.0000 -999.0000 
7787.0000    7.9643  100.3173  285.6222    0.0586    2.6463 -999.0000 -999.0000 
7787.5000    7.9643  103.5482  296.2545    0.0586    2.6299 -999.0000 -999.0000 
7788.0000    7.9643  110.2583  285.6222    0.0615    2.6236 -999.0000 -999.0000 
7788.5000    7.9643  114.8804  280.4500    0.0644    2.5937 -999.0000 -999.0000 
7789.0000    7.9643  111.9807  280.4500    0.0615    2.6001 -999.0000 -999.0000 
7789.5000    7.9641  109.7090  280.4500    0.0601    2.6336 -999.0000 -999.0000 
7790.0000    7.9646  110.0518  275.3714    0.0586    2.6501    1.4800 -999.0000 
7790.5000    7.9575  109.8952  285.6222    0.0557    2.6467 -999.0000 -999.0000 
7791.0000    7.9485  112.2029  296.2545    0.0586    2.6497 -999.0000 -999.0000 
7791.5000    7.9415  113.3656  283.9360    0.0602    2.6520 -999.0000 -999.0000 
7792.0000    7.9253  113.4131  249.7139    0.0617    2.6416 -999.0000 -999.0000 
7792.5000    7.9572  112.3269  229.3791    0.0632    2.6032 -999.0000 -999.0000 
7793.0000    7.9642  110.6426  233.6094    0.0733    2.5915 -999.0000 -999.0000 
7793.5000    7.9628  109.9805  349.2155    0.0821    2.5324 -999.0000 -999.0000 
7794.0000    7.9761  110.9589  377.8099    0.0792    2.4876 -999.0000 -999.0000 
7794.5000    7.9773  109.3138  336.6824    0.0633    2.5152 -999.0000 -999.0000 
7795.0000    7.9506  107.6196  355.8726    0.0603    2.5431 -999.0000 -999.0000 
7795.5000    7.9822  107.6641  393.0573    0.0601    2.5691 -999.0000 -999.0000 
7796.0000    7.9877  105.9489  426.9677    0.0629    2.5691 -999.0000 -999.0000 
7796.5000    7.8425  101.9548  411.6443    0.0629    2.5779 -999.0000 -999.0000 
7797.0000    7.8479  100.4727  419.2360    0.0629    2.5667 -999.0000 -999.0000 
7797.5000    7.8425   99.2911  439.1274    0.0572    2.5565 -999.0000 -999.0000 
7798.0000    7.8564   98.3620  456.4589    0.0586    2.5560 -999.0000 -999.0000 
7798.5000    7.8575   93.2893  541.1247    0.0601    2.5467 -999.0000 -999.0000 
7799.0000    7.8436   89.2991  650.5940    0.0586    2.5373 -999.0000 -999.0000 
7799.5000    7.8431   84.2379  452.0857    0.0616    2.5307 -999.0000 -999.0000 
7800.0000    7.8505   84.3194  297.3856    0.0630    2.5318 -999.0000 -999.0000 
7800.5000    7.8815   83.3668  330.7086    0.0590    2.5357 -999.0000 -999.0000 
7801.0000    7.9799   81.5366  439.2738    0.0557    2.5303 -999.0000 -999.0000 
7801.5000    8.1025   81.3543  582.5266    0.0525    2.5223 -999.0000 -999.0000 
7802.0000    7.8372   81.1405  604.2111    0.0492    2.5474 -999.0000 -999.0000 
7802.5000    7.8588   79.8729  506.4331    0.0486    2.5710 -999.0000 -999.0000 
7803.0000    7.7903   77.7244  389.6840    0.0494    2.5631 -999.0000 -999.0000 
7803.5000    7.8078   80.0429  409.0945    0.0514    2.5649 -999.0000 -999.0000 
7804.0000    7.7581   84.9291  455.5020    0.0528    2.5684 -999.0000 -999.0000 
7804.5000    7.7673   85.2657  503.2962    0.0557    2.5623 -999.0000 -999.0000 
7805.0000    7.7674   88.0540  494.1823    0.0572    2.5856 -999.0000 -999.0000 
7805.5000    7.7622   87.8378  485.2333    0.0601    2.5938 -999.0000 -999.0000 
7806.0000    7.7705   89.6136  504.3089    0.0593    2.5750 -999.0000 -999.0000 
7806.5000    7.7409   87.4600  540.3768    0.0557    2.5494 -999.0000 -999.0000 
7807.0000    7.7702   83.5255  582.5266    0.0557    2.5523 -999.0000 -999.0000 
7807.5000    7.7632   83.6493  593.2698    0.0572    2.5550 -999.0000 -999.0000 
7808.0000    7.7669   80.9891  638.2609    0.0572    2.5501 -999.0000 -999.0000 
7808.5000    7.7658   79.4817  662.0203    0.0572    2.5577 -999.0000 -999.0000 
7809.0000    7.7657   79.5977  674.2296    0.0579    2.5928 -999.0000 -999.0000 
7809.5000    7.7657   81.8873  662.0203    0.0572    2.5862 -999.0000 -999.0000 
7810.0000    7.7662   85.2435  565.7405    0.0615    2.5641    1.5200 -999.0000 
7810.5000    7.7661   89.4096  485.2333    0.0629    2.5498 -999.0000 -999.0000 
7811.0000    7.7638   92.4836  554.1439    0.0607    2.5393 -999.0000 -999.0000 
7811.5000    7.7705   90.8695  712.2252    0.0572    2.5505 -999.0000 -999.0000 
7812.0000    7.7636   89.8655  809.4180    0.0551    2.5526 -999.0000 -999.0000 
7812.5000    7.8704   85.9702  615.3543    0.0515    2.5548 -999.0000 -999.0000 
7813.0000    7.8069   83.2956  692.4606    0.0508    2.5612 -999.0000 -999.0000 
7813.5000    7.8116   81.8497  841.2380    0.0544    2.5627 -999.0000 -999.0000 
7814.0000    7.7977   83.0958  674.2296    0.0587    2.5617 -999.0000 -999.0000 
7814.5000    7.8422   82.9230  971.7128    0.0558    2.5700 -999.0000 -999.0000 
7815.0000    7.8130   80.5853  859.4183    0.0514    2.5683 -999.0000 -999.0000 
7815.5000    7.8083   79.7567  725.3604    0.0514    2.5945 -999.0000 -999.0000 
7816.0000    7.7986   81.8017  725.3604    0.0536    2.6046 -999.0000 -999.0000 
7816.5000    7.8423   84.0504  766.2374    0.0586    2.5733 -999.0000 -999.0000 
7817.0000    7.8124   87.2809  809.4180    0.0615    2.5472 -999.0000 -999.0000 
7817.5000    7.8088   86.9653  809.4180    0.0586    2.5483 -999.0000 -999.0000 
7818.0000    7.7979   80.9418  809.4180    0.0528    2.5511 -999.0000 -999.0000 
7818.5000    7.8426   79.8599  794.7606    0.0514    2.5453 -999.0000 -999.0000 
7819.0000    7.8141   78.3747  780.3687    0.0514    2.5428 -999.0000 -999.0000 
7819.5000    7.8030   76.5158  752.3619    0.0499    2.5367 -999.0000 -999.0000 
7820.0000    7.8356   75.6019  699.3278    0.0536    2.5362 -999.0000 -999.0000 
7820.5000    7.8445   74.4056  712.2252    0.0601    2.5311 -999.0000 -999.0000 
7821.0000    7.8066   75.0347  712.2252    0.0543    2.5355 -999.0000 -999.0000 
7821.5000    7.8090   78.9272  662.0203    0.0528    2.5479 -999.0000 -999.0000 
7822.0000    7.8008   80.7072  638.2609    0.0514    2.5534 -999.0000 -999.0000 
7822.5000    7.8291   80.3468  582.5266    0.0528    2.5545 -999.0000 -999.0000 
7823.0000    7.8107   79.4976  604.2111    0.0528    2.5575 -999.0000 -999.0000 
7823.5000    7.8251   77.3092  650.0320    0.0601    2.5546 -999.0000 -999.0000 
7824.0000    7.7945   78.1285  665.3860    0.0550    2.5519 -999.0000 -999.0000 
7824.5000    7.8544   80.2005  692.7454    0.0557    2.5484 -999.0000 -999.0000 
7825.0000    7.7983   82.3128  721.2298    0.0557    2.5480 -999.0000 -999.0000 
7825.5000    7.8103   85.0155  752.3619    0.0557    2.5396 -999.0000 -999.0000 
