~VERSION INFORMATION
 VERS.                 2.0:   CWLS LOG ASCII STANDARD - VERSION 2.0
 WRAP.                  NO:   SINGLE LINE PER DEPTH STEP
 CREA.                 07/23/2021 11:30:29
#CREATED USING DSPetro VERSION 10ep.4.05.01 BY H227404 ON 07/23/2021 11:30:29
~WELL INFORMATION
#MNEM.UNIT       DATA                          DESCRIPTION MNEMONIC
#---------      ---------------------------   --------------------------
 STRT    .FT        156.0000                  : START DEPTH
 STOP    .FT        9462.0000                 : STOP DEPTH
 STEP    .FT        0.5000                    : STEP VALUE
 NULL    .      -999.0000                     : NULL VALUE
 DATE    .      07/23/2021                    : LAS file Creation Date
 WELL   .      SNRG-0004         : Well Name
 COMP   .                        : Company
 FLD    .                        : Field
 API    .      SNRG-0004         : API Number
 UWI    .      SNRG-0004         : Unique Well Identifier (UWI)
 LOC    .                        : Location
 KB     .      1230.0            : KB Elevation
 RWS    .      0                 : Def_Rw
 WST    .      0                 : Def_Rwt
 PROV   .                        : Province
 MDEC   .      0                 : Magnetic Declination
 SRVC   .      UNKNOWN           : Contractor
 GDAT   .      WGS 84            : Geodatum
 LONG   .      -80.4115240001679 : Longitude
 LATI   .      40.7475300004747  : Latitude
 COORDIN.                        : Grid System
 XCOORD .                        : X or East-West Coordinate
 YCOORD .                        : Y or North-South Coordinate
~CURVE INFORMATION
#MNEM              UNIT       API CODE   Curve Type Comments
#----------  --------------- ----------  ---------- -----------
 DEPTH      .FT                        : Depth       
 AT10       .OHMM                      : ShalRes     12 Array Induction Two Foot Resistivity
 AT20       .OHMM                      : MedRes      13 Array Induction Two Foot Resistivity
 AT30       .OHMM                      : MedRes      14 Array Induction Two Foot Resistivity
 AT60       .OHMM                      : MedRes      15 Array Induction Two Foot Resistivity
 AT90       .OHMM                      : DeepRes     16 Array Induction Two Foot Resistivity
 GR         .API                       : GammaRay    
 PEFZ       .B/E                       : PEF         
 NPHI       .DECP                      : Neutron     neutron porosity
 RHOZ       .gm/cc                     : Density     
 DCAL       .in                        :             
 HCAL       .inch                      : Caliper     
~A  DEPTH    AT10      AT20      AT30      AT60      AT90       GR       PEFZ      NPHI      RHOZ      DCAL      HCAL   
# ...
8196.0000   23.5910   26.5380   28.2840   28.0770   25.8700  107.3940    4.1410    0.1350    2.7260   -0.3050    8.4450 
8196.5000   22.2420   24.5330   26.3830   26.7490   24.8240  113.8470    4.1040    0.1520    2.7260   -0.3090    8.4410 
8197.0000   20.8540   22.8200   24.4810   25.2100   23.7330  113.9620    4.0270    0.1640    2.7350   -0.3200    8.4300 
8197.5000   19.8610   21.7460   23.2530   23.8640   22.7720  118.7810    3.9990    0.1670    2.7390   -0.3200    8.4300 
8198.0000   19.1840   20.8360   22.5570   23.2710   22.4590  117.9200    4.0100    0.1600    2.7430   -0.2760    8.4740 
8198.5000   16.7840   17.8890   19.1600   19.8940   19.5840  127.8970    4.0740    0.1710    2.7490   -0.2980    8.4520 
8199.0000   15.0000   15.9070   16.7460   17.4370   17.5300  128.3270    4.1070    0.2010    2.7590   -0.3270    8.4230 
8199.5000   15.4470   16.4910   17.3510   18.4640   18.8950  123.7450    4.1420    0.2230    2.7530   -0.3090    8.4410 
8200.0000   16.8630   18.0520   19.1660   20.1410   20.8750  114.7910    4.1390    0.2190    2.7470   -0.3420    8.4080 
8200.5000   19.6460   21.2080   22.7100   23.8230   24.7420  106.8870    4.1410    0.1740    2.7370   -0.3350    8.4150 
8201.0000   23.2090   25.6780   28.2890   29.6090   30.3010  103.6180    4.1570    0.1640    2.7330   -0.3310    8.4190 
8201.5000   21.8880   23.9650   25.4220   26.6840   27.5840  106.5150    4.1990    0.1670    2.7250   -0.3200    8.4300 
8202.0000   18.1710   19.8840   20.8930   21.9550   22.6250  115.0010    4.2160    0.2060    2.7300   -0.3310    8.4190 
8202.5000   17.5470   19.0380   20.5790   21.7550   22.4820  120.1630    4.2430    0.2020    2.7360   -0.3640    8.3860 
8203.0000   18.1120   19.9080   21.4230   22.7650   23.3690  119.5900    4.2620    0.1950    2.7460   -0.3420    8.4080 
8203.5000   18.4280   20.0180   21.3520   22.5890   23.0600  118.3620    4.3250    0.1850    2.7440   -0.3640    8.3860 
8204.0000   18.5350   20.2030   21.2410   22.2230   22.3580  117.1570    4.3970    0.1860    2.7430   -0.3420    8.4080 
8204.5000   18.4400   20.6860   21.8770   22.7350   22.6890  117.4810    4.4740    0.1880    2.7510   -0.3310    8.4190 
8205.0000   19.6020   22.4040   23.2870   24.0610   23.7010  114.4700    4.5190    0.1810    2.7570   -0.3350    8.4150 
8205.5000   21.3180   24.5160   25.7680   26.2080   25.6400  112.2900    4.4950    0.1690    2.7600   -0.3350    8.4150 
8206.0000   22.0470   25.4980   26.7470   26.3480   25.6910  107.3850    4.4490    0.1710    2.7520   -0.3090    8.4410 
8206.5000   21.1940   24.7200   26.0480   25.9690   24.7200  108.5270    4.4140    0.1730    2.7460   -0.3270    8.4230 
8207.0000   20.7800   23.9610   25.3800   25.4340   24.2540  114.9230    4.3800    0.1920    2.7460   -0.3200    8.4300 
8207.5000   19.5970   22.2130   23.6980   23.8480   22.6290  121.4550    4.3540    0.1910    2.7420   -0.3090    8.4410 
8208.0000   18.6150   20.7430   22.3660   22.6230   21.5190  125.4690    4.3170    0.2020    2.7380   -0.2910    8.4590 
8208.5000   18.5910   20.9640   22.4050   22.7090   21.7680  125.2540    4.2830    0.2020    2.7410   -0.2980    8.4520 
8209.0000   19.0470   21.5520   23.1800   23.7780   22.6170  121.4680    4.2210    0.2010    2.7460   -0.3090    8.4410 
8209.5000   19.8910   22.7860   24.7730   25.1680   23.9380  117.9240    4.1980    0.2020    2.7460   -0.3200    8.4300 
8210.0000   20.2530   23.5250   25.6370   25.2970   24.1220  109.0890    4.2020    0.1890    2.7440   -0.2980    8.4520 
8210.5000   20.7610   24.4040   26.7050   26.7040   25.3940  108.8160    4.2330    0.1850    2.7550   -0.2980    8.4520 
8211.0000   20.8640   24.6730   27.0370   27.3840   26.0370  110.6590    4.2270    0.1860    2.7600   -0.3420    8.4080 
8211.5000   20.6830   25.2890   27.6570   27.9360   26.6290  116.6220    4.2480    0.1960    2.7520   -0.3050    8.4450 
8212.0000   19.8150   23.9690   26.3630   27.0180   25.9440  116.0840    4.2700    0.2070    2.7380   -0.3200    8.4300 
8212.5000   19.2760   22.8900   25.3600   25.9800   25.2210  112.2980    4.3010    0.2080    2.7370   -0.3270    8.4230 
8213.0000   19.6040   23.4860   25.9120   26.4480   25.6600  109.9080    4.3080    0.1980    2.7420   -0.3490    8.4010 
8213.5000   19.8570   23.9870   25.9700   26.5380   26.0840  113.1340    4.3010    0.1920    2.7440   -0.3420    8.4080 
8214.0000   19.4080   23.0980   25.1650   26.2380   26.0610  119.3090    4.3090    0.1970    2.7350   -0.3200    8.4300 
8214.5000   18.9870   22.3380   24.4290   24.9600   25.1480  120.8080    4.3010    0.2060    2.7290   -0.3640    8.3860 
8215.0000   19.9750   23.6930   25.7530   25.8320   26.0700  119.0800    4.3100    0.2160    2.7240   -0.3420    8.4080 
8215.5000   20.3380   24.3700   26.3580   26.3270   26.0170  112.6580    4.3290    0.2120    2.7220   -0.3350    8.4150 
8216.0000   20.5160   24.4610   26.0510   25.6800   25.3280  115.5190    4.3290    0.2160    2.7260   -0.3200    8.4300 
8216.5000   20.9330   25.1540   26.7020   25.8100   24.9560  118.3220    4.3340    0.2200    2.7260   -0.3200    8.4300 
8217.0000   21.3540   25.6190   27.0640   25.8420   24.4040  127.7260    4.2890    0.2210    2.7330   -0.3270    8.4230 
8217.5000   22.0320   26.7400   28.0060   26.3860   24.2240  127.4460    4.2590    0.2150    2.7320   -0.3200    8.4300 
8218.0000   22.7980   27.9220   29.3110   27.3290   24.4510  125.2160    4.1960    0.2030    2.7360   -0.3130    8.4370 
8218.5000   23.6580   29.2480   30.8280   28.1260   24.6870  120.1540    4.1600    0.1940    2.7340   -0.3200    8.4300 
8219.0000   24.0700   29.8520   31.4940   28.2230   25.0040  117.5730    4.1860    0.1980    2.7210   -0.2980    8.4520 
8219.5000   24.5620   30.3980   32.0800   29.4730   25.0090  113.4250    4.2650    0.1790    2.7070   -0.2980    8.4520 
8220.0000   25.6060   31.4100   33.8850   31.5540   26.9270  111.1670    4.3350    0.1720    2.7050   -0.3200    8.4300 
8220.5000   24.6510   29.5410   32.0910   30.8950   27.1960  113.9130    4.3610    0.1730    2.7170   -0.2980    8.4520 
8221.0000   22.5690   26.0280   28.6240   28.2740   25.7850  118.3550    4.3490    0.1990    2.7320   -0.3200    8.4300 
8221.5000   21.4920   23.9650   26.4740   26.9530   25.5740  123.4960    4.3580    0.2220    2.7350   -0.3130    8.4370 
8222.0000   21.2830   23.6230   25.8640   27.0490   27.0290  123.7610    4.3700    0.2250    2.7320   -0.3310    8.4190 
8222.5000   22.1470   24.5250   26.8660   27.5920   27.3460  123.5820    4.3990    0.2210    2.7270   -0.3420    8.4080 
8223.0000   23.2930   25.6920   27.4900   27.1570   27.7250  120.0540    4.3900    0.1980    2.7320   -0.3530    8.3970 
8223.5000   23.8280   26.3190   27.5440   26.7710   27.9420  119.4250    4.4210    0.1900    2.7330   -0.3310    8.4190 
8224.0000   24.7050   27.3800   27.8580   26.3360   27.7000  118.2780    4.4680    0.1810    2.7340   -0.3420    8.4080 
8224.5000   25.9260   28.6560   28.5220   26.5800   27.6780  116.3420    4.5100    0.1950    2.7370   -0.3310    8.4190 
8225.0000   27.2670   29.8310   28.4690   26.1760   27.0020  113.2460    4.5440    0.1930    2.7390   -0.3420    8.4080 
8225.5000   29.8290   33.0840   31.0300   27.4780   26.8120  107.4740    4.5740    0.1750    2.7410   -0.3310    8.4190 
8226.0000   34.4690   36.6610   33.3650   28.1030   26.3930  100.5680    4.6120    0.1630    2.7480   -0.3130    8.4370 
8226.5000   39.7250   40.7760   37.2370   30.4070   26.9470  101.1750    4.5640    0.1560    2.7640   -0.3090    8.4410 
8227.0000   43.5620   42.5800   38.6620   31.8090   27.3840  109.2210    4.4500    0.1800    2.7700   -0.3270    8.4230 
8227.5000   44.8080   42.1360   38.4130   31.5150   26.4900  120.4280    4.3570    0.1930    2.7610   -0.3130    8.4370 
8228.0000   43.3750   38.7910   35.5520   29.3350   24.9560  121.7900    4.2920    0.2070    2.7530   -0.3200    8.4300 
8228.5000   40.4970   35.6590   33.2860   27.5120   23.0810  118.4650    4.2690    0.1980    2.7540   -0.3200    8.4300 
8229.0000   39.1570   32.9180   31.1510   26.0150   22.0740  115.2390    4.2610    0.1890    2.7520   -0.3200    8.4300 
