~VERSION INFORMATION
 VERS.                 2.0:   CWLS LOG ASCII STANDARD - VERSION 2.0
 WRAP.                  NO:   SINGLE LINE PER DEPTH STEP
 CREA.                 07/23/2021 11:30:29
#CREATED USING DSPetro VERSION 10ep.4.05.01 BY H227404 ON 07/23/2021 11:30:29
~WELL INFORMATION
#MNEM.UNIT       DATA                          DESCRIPTION MNEMONIC
#---------      ---------------------------   --------------------------
 STRT    .FT        156.0000                  : START DEPTH
 STOP    .FT        9462.0000                 : STOP DEPTH
 STEP    .FT        0.5000                    : STEP VALUE
 NULL    .      -999.0000                     : NULL VALUE
 DATE    .      07/23/2021                    : LAS file Creation Date
 WELL   .      SNRG-0004         : Well Name
 COMP   .                        : Company
 FLD    .                        : Field
 API    .      SNRG-0004         : API Number
 UWI    .      SNRG-0004         : Unique Well Identifier (UWI)
 LOC    .                        : Location
 KB     .      1230.0            : KB Elevation
 RWS    .      0                 : Def_Rw
 WST    .      0                 : Def_Rwt
 PROV   .                        : Province
 MDEC   .      0                 : Magnetic Declination
 SRVC   .      UNKNOWN           : Contractor
 GDAT   .      WGS 84            : Geodatum
 LONG   .      -80.4115240001679 : Longitude
 LATI   .      40.7475300004747  : Latitude
 COORDIN.                        : Grid System
 XCOORD .                        : X or East-West Coordinate
 YCOORD .                        : Y or North-South Coordinate
~CURVE INFORMATION
#MNEM              UNIT       API CODE   Curve Type Comments
#----------  --------------- ----------  ---------- -----------
 DEPTH      .FT                        : Depth       
 AT10       .OHMM                      : ShalRes     12 Array Induction Two Foot Resistivity
 AT20       .OHMM                      : MedRes      13 Array Induction Two Foot Resistivity
 AT30       .OHMM                      : MedRes      14 Array Induction Two Foot Resistivity
 AT60       .OHMM                      : MedRes      15 Array Induction Two Foot Resistivity
 AT90       .OHMM                      : DeepRes     16 Array Induction Two Foot Resistivity
 GR         .API                       : GammaRay    
 PEFZ       .B/E                       : PEF         
 NPHI       .DECP                      : Neutron     neutron porosity
 RHOZ       .gm/cc                     : Density     
 DCAL       .in                        :             
 HCAL       .inch                      : Caliper     
~A  DEPTH    AT10      AT20      AT30      AT60      AT90       GR       PEFZ      NPHI      RHOZ      DCAL      HCAL   
# ...
3874.5000   17.3710   18.6110   19.7760   21.8300   22.3760  122.1730    4.2790    0.2130    2.7260   -0.2320    8.5180 
3875.0000   17.6100   18.6060   19.5050   21.3620   22.2250  125.0810    4.2640    0.2140    2.7280   -0.2250    8.5250 
3875.5000   16.4110   17.4870   18.4590   20.1960   21.0990  127.3550    4.2390    0.2270    2.7280   -0.2320    8.5180 
3876.0000   15.3570   16.4750   17.3800   19.0190   19.7880  134.8710    4.2600    0.2400    2.7220   -0.2030    8.5470 
3876.5000   14.7040   15.7620   16.4810   18.0840   18.9270  136.5520    4.2230    0.2460    2.7330   -0.1780    8.5730 
3877.0000   13.9760   15.0240   15.6420   16.9980   17.6760  138.0420    4.2170    0.2540    2.7400   -0.1740    8.5760 
3877.5000   13.7120   14.7490   15.3810   16.7110   17.3830  133.6640    4.2040    0.2710    2.7460   -0.1560    8.5940 
3878.0000   13.8190   14.9270   15.5330   16.7540   17.5120  133.0170    4.2430    0.2580    2.7370   -0.1230    8.6270 
3878.5000   14.5450   15.5930   16.1680   17.4390   18.1340  128.8880    4.2140    0.2620    2.7360   -0.0860    8.6640 
3879.0000   15.0770   16.0280   16.6680   17.8890   18.6730  129.3990    4.1460    0.2410    2.7360   -0.1230    8.6270 
3879.5000   14.9070   15.5570   16.1060   17.3770   17.9620  129.9310    4.1330    0.2400    2.7240   -0.1590    8.5910 
3880.0000   14.0530   14.7890   15.3890   16.5710   17.0940  136.6860    4.1520    0.2330    2.7140   -0.1890    8.5620 
3880.5000   13.0210   13.7750   14.3950   15.5020   15.9800  139.1130    4.1800    0.2360    2.7130   -0.1810    8.5690 
3881.0000   12.7380   13.3640   13.8230   14.8400   15.3030  140.7320    4.2100    0.2430    2.7210   -0.2180    8.5320 
3881.5000   14.3150   15.0530   15.5870   16.8430   17.3320  128.1040    4.2680    0.2420    2.7210   -0.2540    8.4960 
3882.0000   16.8410   18.1770   18.9130   20.3860   20.9420  122.8720    4.3400    0.2320    2.7130   -0.2620    8.4880 
3882.5000   17.3030   18.5520   19.3630   20.5410   21.1380  116.2040    4.3460    0.2260    2.7090   -0.2320    8.5180 
3883.0000   16.6970   17.9130   18.6750   20.1420   20.5430  123.3390    4.2890    0.2300    2.7150   -0.2320    8.5180 
3883.5000   16.6320   17.7520   18.5090   20.2340   20.4940  128.9380    4.2570    0.2190    2.7150   -0.2320    8.5180 
3884.0000   16.5960   17.5680   18.4100   19.9680   20.3580  131.5770    4.2560    0.2180    2.7190   -0.2250    8.5250 
3884.5000   16.4940   17.4020   18.2760   19.8240   20.2270  131.4330    4.2960    0.2270    2.7200   -0.2540    8.4960 
3885.0000   16.3380   17.3040   18.1470   19.6250   20.0490  130.0790    4.2580    0.2330    2.7350   -0.2620    8.4880 
3885.5000   16.3470   17.3230   18.2110   19.5930   20.0730  133.0320    4.2280    0.2360    2.7370   -0.2620    8.4880 
3886.0000   15.9660   16.9560   17.5780   18.8190   19.2840  136.0450    4.2070    0.2260    2.7290   -0.2540    8.4960 
3886.5000   14.9360   15.8820   16.4760   17.5620   18.0500  141.1590    4.2120    0.2370    2.7210   -0.2320    8.5180 
3887.0000   13.9420   14.9250   15.5040   16.4950   16.9490  145.6630    4.2310    0.2380    2.7180   -0.2320    8.5180 
3887.5000   13.5900   14.4750   14.9430   15.9030   16.2610  147.3200    4.2560    0.2350    2.7210   -0.2250    8.5250 
3888.0000   13.4260   14.2050   14.5890   15.5470   15.9030  147.6630    4.2870    0.2320    2.7200   -0.2320    8.5180 
3888.5000   13.8580   14.6700   15.0280   16.1660   16.4790  144.7710    4.2450    0.2270    2.7260   -0.2180    8.5320 
3889.0000   15.2870   16.2150   16.6340   17.7890   18.0450  141.6230    4.1850    0.2250    2.7340   -0.2430    8.5070 
3889.5000   16.4780   17.5150   18.3390   19.4170   19.5740  132.8310    4.2050    0.2170    2.7340   -0.2470    8.5030 
3890.0000   17.8520   19.0320   19.7770   21.2070   21.3610  124.3260    4.3280    0.2220    2.7260   -0.2180    8.5320 
3890.5000   18.5520   19.7470   20.8640   22.5250   22.7040  121.6610    4.4390    0.2240    2.7210   -0.2320    8.5180 
3891.0000   17.8910   18.9020   20.0840   21.4510   21.8290  126.7170    4.4340    0.2250    2.7290   -0.2210    8.5290 
3891.5000   16.6880   17.3050   18.2820   19.6690   20.0130  135.9310    4.3490    0.2200    2.7400   -0.2030    8.5470 
3892.0000   15.2170   16.1290   16.9840   18.1650   18.5730  139.5130    4.2580    0.2280    2.7550   -0.2100    8.5400 
3892.5000   14.1090   14.9710   15.7140   16.7480   17.2570  142.0930    4.2110    0.2430    2.7570   -0.2030    8.5470 
3893.0000   13.3700   14.1940   14.7120   15.5820   16.1440  145.8820    4.2120    0.2500    2.7480   -0.1890    8.5620 
3893.5000   13.2840   14.1790   14.4550   15.3680   15.7130  151.7240    4.2670    0.2440    2.7290   -0.2000    8.5510 
3894.0000   12.9150   13.7020   14.1110   14.9170   15.3000  148.2270    4.3220    0.2360    2.7190   -0.2030    8.5470 
3894.5000   12.9760   13.7610   14.0380   14.8360   15.1750  142.3960    4.3130    0.2350    2.7230   -0.2000    8.5510 
3895.0000   14.3330   15.2160   15.6750   16.5920   16.8980  137.1280    4.2310    0.2300    2.7300   -0.1890    8.5620 
3895.5000   16.1130   17.2370   17.7590   18.6100   18.9430  136.7840    4.1470    0.2310    2.7330   -0.2000    8.5510 
3896.0000   16.3680   17.5950   18.2100   19.1270   19.3450  137.7940    4.1060    0.2280    2.7280   -0.2250    8.5250 
3896.5000   16.2370   17.3530   18.0860   19.0390   19.3210  130.3720    4.0740    0.2480    2.7310   -0.2100    8.5400 
3897.0000   16.7910   17.9610   18.7320   19.7240   20.0020  129.3390    4.0460    0.2410    2.7390   -0.1810    8.5690 
3897.5000   16.7950   17.8780   18.5240   19.6770   19.7460  124.7520    4.0360    0.2430    2.7500   -0.1670    8.5830 
3898.0000   15.7930   16.7820   17.4800   18.8940   18.8920  133.8480    4.1000    0.2330    2.7450   -0.2030    8.5470 
3898.5000   15.1620   16.0150   16.7990   18.0830   18.0740  134.0770    4.1760    0.2260    2.7390   -0.2320    8.5180 
3899.0000   15.7980   16.8110   17.3520   18.7140   18.5920  135.2640    4.2480    0.2260    2.7300   -0.2400    8.5100 
3899.5000   16.4270   17.4310   18.2920   19.5300   19.6260  132.3970    4.2520    0.2140    2.7320   -0.2320    8.5180 
3900.0000   16.0310   16.8610   17.4250   18.4330   18.5770  129.0840    4.2740    0.2230    2.7210   -0.2540    8.4960 
3900.5000   14.8970   15.7070   16.2790   17.2140   17.3890  133.4040    4.2670    0.2210    2.7160   -0.2400    8.5100 
3901.0000   13.6160   14.4780   15.0620   15.8370   16.0990  137.3910    4.2820    0.2320    2.7100   -0.2320    8.5180 
3901.5000   12.8900   13.7260   14.1880   14.8590   15.1260  147.3090    4.2870    0.2400    2.7120   -0.2430    8.5070 
3902.0000   13.0540   13.9120   14.3440   15.1220   15.2670  147.6170    4.2910    0.2380    2.7150   -0.2400    8.5100 
3902.5000   13.8300   14.6920   15.1360   15.9910   16.1400  143.4450    4.2480    0.2280    2.7250   -0.2430    8.5070 
3903.0000   15.4350   16.3410   16.8070   17.8370   17.9650  134.5640    4.1780    0.2030    2.7310   -0.2430    8.5070 
3903.5000   16.9180   17.9920   18.7510   19.9630   19.7900  127.2570    4.0780    0.2040    2.7410   -0.2180    8.5320 
3904.0000   18.0010   19.0040   19.7100   20.9670   21.0220  129.3230    4.0400    0.2030    2.7430   -0.1670    8.5830 
3904.5000   17.6720   18.6100   19.2690   20.4750   20.5490  127.9640    4.0560    0.2230    2.7470   -0.2760    8.4740 
3905.0000   17.1180   18.0890   18.8760   19.9360   20.1160  131.6770    4.0990    0.2260    2.7510   -0.2840    8.4670 
3905.5000   16.4440   17.4320   18.1520   19.1980   19.3580  127.8910    4.0890    0.2350    2.7560   -0.2760    8.4740 
3906.0000   15.8550   16.8260   17.5150   18.5370   18.6890  127.7460    4.0910    0.2330    2.7480   -0.2540    8.4960 
3906.5000   15.2730   16.1600   16.7900   17.8090   17.9780  129.0800    4.0770    0.2430    2.7390   -0.2620    8.4880 
3907.0000   15.3120   16.2070   16.6970   17.7930   18.0180  134.6960    4.0620    0.2440    2.7280   -0.2540    8.4960 
3907.5000   15.7570   16.7030   17.3450   18.3190   18.4980  144.3930    4.0640    0.2450    2.7170   -0.2760    8.4740 
