~VERSION INFORMATION
 VERS.                 2.0:   CWLS LOG ASCII STANDARD - VERSION 2.0
 WRAP.                  NO:   SINGLE LINE PER DEPTH STEP
 CREA.                 07/23/2021 11:30:29
#CREATED USING DSPetro VERSION 10ep.4.05.01 BY H227404 ON 07/23/2021 11:30:29
~WELL INFORMATION
#MNEM.UNIT       DATA                          DESCRIPTION MNEMONIC
#---------      ---------------------------   --------------------------
 STRT    .FT        156.0000                  : START DEPTH
 STOP    .FT        9462.0000                 : STOP DEPTH
 STEP    .FT        0.5000                    : STEP VALUE
 NULL    .      -999.0000                     : NULL VALUE
 DATE    .      07/23/2021                    : LAS file Creation Date
 WELL   .      SNRG-0004         : Well Name
 COMP   .                        : Company
 FLD    .                        : Field
 API    .      SNRG-0004         : API Number
 UWI    .      SNRG-0004         : Unique Well Identifier (UWI)
 LOC    .                        : Location
 KB     .      1230.0            : KB Elevation
 RWS    .      0                 : Def_Rw
 WST    .      0                 : Def_Rwt
 PROV   .                        : Province
 MDEC   .      0                 : Magnetic Declination
 SRVC   .      UNKNOWN           : Contractor
 GDAT   .      WGS 84            : Geodatum
 LONG   .      -80.4115240001679 : Longitude
 LATI   .      40.7475300004747  : Latitude
 COORDIN.                        : Grid System
 XCOORD .                        : X or East-West Coordinate
 YCOORD .                        : Y or North-South Coordinate
~CURVE INFORMATION
#MNEM              UNIT       API CODE   Curve Type Comments
#----------  --------------- ----------  ---------- -----------
 DEPTH      .FT                        : Depth       
 AT10       .OHMM                      : ShalRes     12 Array Induction Two Foot Resistivity
 AT20       .OHMM                      : MedRes      13 Array Induction Two Foot Resistivity
 AT30       .OHMM                      : MedRes      14 Array Induction Two Foot Resistivity
 AT60       .OHMM                      : MedRes      15 Array Induction Two Foot Resistivity
 AT90       .OHMM                      : DeepRes     16 Array Induction Two Foot Resistivity
 GR         .API                       : GammaRay    
 PEFZ       .B/E                       : PEF         
 NPHI       .DECP                      : Neutron     neutron porosity
 RHOZ       .gm/cc                     : Density     
 DCAL       .in                        :             
 HCAL       .inch                      : Caliper     
~A  DEPTH    AT10      AT20      AT30      AT60      AT90       GR       PEFZ      NPHI      RHOZ      DCAL      HCAL   
# ...
6353.5000  135.0960  115.8910  108.5080  110.4180  111.4640   36.4800    4.9520    0.0210    2.9230   -0.1560    8.5940 
6354.0000  161.9290  153.1250  159.5750  155.4360  161.0800   35.1800    4.9590    0.0210    2.9060   -0.1670    8.5830 
6354.5000  133.7980  131.2770  150.4360  162.5870  148.1010   37.8170    4.9550    0.0240    2.8880   -0.1520    8.5980 
6355.0000  121.2750  122.7370  142.1530  154.3390  156.0770   38.1620    5.0250    0.0250    2.8900   -0.1670    8.5830 
6355.5000  119.9350  122.4190  139.5570  143.0330  141.0460   38.3140    5.1380    0.0260    2.9240   -0.1890    8.5620 
6356.0000   94.4760   95.4540   92.9580   93.1270   88.7920   36.8230    5.2680    0.0300    2.9440   -0.1890    8.5620 
6356.5000   52.2730   49.8150   51.4130   53.9810   55.1690   44.7360    5.2010    0.0440    2.9190   -0.1670    8.5830 
6357.0000   31.0430   31.5640   33.3180   34.8660   35.5610   55.8650    4.8860    0.0810    2.8780   -0.1780    8.5730 
6357.5000   23.1240   23.9930   24.9520   25.9940   26.4440   66.1860    4.5460    0.1180    2.8360   -0.1450    8.6050 
6358.0000   24.4930   25.0860   25.3910   26.1150   26.5660   66.6490    4.2520    0.1470    2.8260   -0.1890    8.5620 
6358.5000   33.3180   34.5850   34.9520   36.2040   36.9050   61.2480    4.1220    0.1360    2.8140   -0.1890    8.5620 
6359.0000   45.7460   48.0990   47.5090   48.6210   48.7130   54.8460    4.0130    0.1160    2.8240   -0.1960    8.5540 
6359.5000   49.1870   50.9190   51.3430   51.7490   52.6900   49.3390    4.0550    0.0930    2.8260   -0.1890    8.5620 
6360.0000   50.2830   51.8690   51.4110   52.1400   52.4330   48.8800    4.2000    0.0840    2.8430   -0.2000    8.5510 
6360.5000   52.0170   53.1280   53.8100   56.3670   55.6520   47.2630    4.5210    0.0770    2.8620   -0.2100    8.5400 
6361.0000   54.5830   56.2250   57.7630   60.6230   60.8930   44.6240    4.7490    0.0740    2.8980   -0.1960    8.5540 
6361.5000   67.6250   69.7090   74.4960   79.3780   79.1490   41.5270    4.7460    0.0710    2.9110   -0.2180    8.5320 
6362.0000   91.0500   95.7810  103.6820  109.6310  109.7590   41.6390    4.4700    0.0620    2.8970   -0.2180    8.5320 
6362.5000  118.7790  118.5610  123.5630  128.5810  131.0010   39.8030    4.2480    0.0490    2.8660   -0.2000    8.5510 
6363.0000  121.4450  119.2620  122.3720  128.9560  131.9540   37.9690    4.1670    0.0480    2.8470   -0.1670    8.5830 
6363.5000   94.1030   96.2080  101.7760  109.1230  108.8430   34.6440    4.1610    0.0510    2.8380   -0.2210    8.5290 
6364.0000   64.7130   66.6370   72.0240   75.2990   76.0470   37.8500    4.0640    0.0640    2.8240   -0.2210    8.5290 
6364.5000   46.3520   48.3030   51.1940   53.8630   55.1590   45.9620    3.9190    0.0770    2.8130   -0.2400    8.5100 
6365.0000   38.1510   39.1160   40.1970   41.6850   43.9390   51.6990    3.8680    0.0940    2.8040   -0.2400    8.5100 
6365.5000   35.9030   37.0790   37.7630   39.5090   41.2460   57.9010    3.9230    0.1040    2.8040   -0.2470    8.5030 
6366.0000   35.7800   37.1070   38.0880   40.5240   41.3640   56.6700    4.0500    0.1030    2.8000   -0.2470    8.5030 
6366.5000   35.7290   36.5060   37.3030   39.3350   40.2730   61.0140    4.1410    0.1100    2.7980   -0.2430    8.5070 
6367.0000   35.2110   34.5650   35.2590   37.8670   38.3430   59.9420    4.1470    0.1090    2.8020   -0.2320    8.5180 
6367.5000   35.1050   35.7900   35.8790   39.5910   39.6160   62.2490    4.1240    0.1190    2.8060   -0.2000    8.5510 
6368.0000   42.3810   42.6780   43.3580   47.4350   48.5470   57.7510    4.1330    0.1110    2.8170   -0.2250    8.5250 
6368.5000   62.9670   64.4400   67.0600   70.9690   74.6710   51.4800    4.2450    0.0960    2.8210   -0.2180    8.5320 
6369.0000  111.6820  117.0820  125.3390  124.9790  134.8650   40.4030    4.3180    0.0650    2.8300   -0.2100    8.5400 
6369.5000  210.7430  230.3140  248.1800  209.8580  248.8820   30.7240    4.2920    0.0430    2.8340   -0.2180    8.5320 
6370.0000  329.0570  382.0910  302.4770  385.6200  318.9050   25.1620    4.1380    0.0320    2.8380   -0.2100    8.5400 
6370.5000  297.2320  303.6600  281.0550  274.5670  292.9280   25.3770    3.9950    0.0300    2.8340   -0.2000    8.5510 
6371.0000  201.5630  189.6230  228.8660  276.6350  284.2950   27.4200    3.8910    0.0350    2.8320   -0.1890    8.5620 
6371.5000  168.7900  158.0070  196.3850  239.7280  246.9730   29.4060    3.8340    0.0430    2.8350   -0.2030    8.5470 
6372.0000  169.5830  159.8850  187.1480  224.0310  224.0390   27.5780    3.8040    0.0450    2.8400   -0.2100    8.5400 
6372.5000  158.7400  154.2390  170.5780  194.7160  192.7590   26.3950    3.7970    0.0440    2.8460   -0.1960    8.5540 
6373.0000  121.8040  123.3430  140.2710  158.5610  155.1380   26.8860    3.7910    0.0440    2.8520   -0.2180    8.5320 
6373.5000   95.8680   98.6130  112.7980  128.9100  129.1790   30.0000    3.7900    0.0520    2.8550   -0.1960    8.5540 
6374.0000   86.9680   91.0720   99.3430  110.7710  106.7370   31.6030    3.7610    0.0580    2.8570   -0.1890    8.5620 
6374.5000   82.4120   84.1910   90.8240   94.9190   97.1430   32.1410    3.7270    0.0600    2.8580   -0.2320    8.5180 
6375.0000   72.5210   68.5510   72.1130   75.6010   77.9770   34.6190    3.7320    0.0600    2.8480   -0.2100    8.5400 
6375.5000   55.3400   55.4700   58.3270   61.9690   63.7460   37.6400    3.7630    0.0650    2.8410   -0.2100    8.5400 
6376.0000   41.9230   43.4130   46.5960   47.0120   49.5930   42.3720    3.8200    0.0740    2.8220   -0.2250    8.5250 
6376.5000   30.4210   32.3870   33.6810   34.5070   36.2550   46.7410    3.8010    0.1010    2.8090   -0.2320    8.5180 
6377.0000   22.9120   22.9510   23.2900   23.8600   25.2670   57.0650    3.7430    0.1270    2.7950   -0.2180    8.5320 
6377.5000   21.5600   21.3290   21.5820   22.4830   23.3490   61.0440    3.6930    0.1390    2.7880   -0.2320    8.5180 
6378.0000   29.4760   28.8730   28.9720   30.2110   31.4800   59.2560    3.6680    0.1280    2.7960   -0.2320    8.5180 
6378.5000   38.8090   39.5650   39.6700   41.2080   42.8860   50.1750    3.6690    0.1080    2.8100   -0.2320    8.5180 
6379.0000   45.0330   46.5760   46.6340   49.0490   50.9500   43.7210    3.6930    0.1000    2.8260   -0.2320    8.5180 
6379.5000   44.5470   46.3470   46.8400   50.2730   51.3560   42.8420    3.7620    0.1040    2.8290   -0.2320    8.5180 
6380.0000   45.1880   46.8940   48.3880   51.4690   53.6980   42.1810    3.8440    0.1180    2.8220   -0.2320    8.5180 
6380.5000   55.6280   56.9120   58.8970   61.5260   66.1470   40.0620    3.8740    0.1120    2.8130   -0.2320    8.5180 
6381.0000   71.8290   69.8220   69.9550   72.8690   76.6870   37.6470    3.8350    0.0940    2.8140   -0.2320    8.5180 
6381.5000   68.1650   67.4980   68.6330   71.9690   76.7640   36.1350    3.8100    0.0830    2.8210   -0.2320    8.5180 
6382.0000   54.9770   55.1680   57.5330   60.9130   65.7320   39.6050    3.7870    0.0950    2.8410   -0.2100    8.5400 
6382.5000   59.4160   64.6440   68.3350   72.1050   77.6610   37.0870    3.8320    0.0970    2.8510   -0.2000    8.5510 
6383.0000   96.9220  100.1280  111.7840  123.4490  131.9570   30.9800    3.9280    0.0760    2.8500   -0.2000    8.5510 
6383.5000  201.9050  231.4590  234.5960  248.7290  219.0280   25.1000    4.1210    0.0430    2.8370   -0.1520    8.5980 
6384.0000  331.2000  336.1200  257.3270  242.0210  238.9840   21.0810    4.3580    0.0290    2.8280   -0.2180    8.5320 
6384.5000  334.5250  291.3780  279.5740  278.5150  328.2660   24.0310    4.4670    0.0330    2.8480   -0.2100    8.5400 
6385.0000  228.5090  219.1570  247.5370  292.1210  286.9870   28.9640    4.3920    0.0470    2.8570   -0.2250    8.5250 
6385.5000  192.4030  180.8900  199.9080  231.2580  230.9050   36.8770    4.1380    0.0650    2.8640   -0.2250    8.5250 
6386.0000  158.1150  150.5250  163.7880  179.9410  194.2880   40.3250    3.9210    0.0800    2.8470   -0.2430    8.5070 
6386.5000  141.3440  136.1470  150.6170  159.3380  165.2390   38.4830    3.7670    0.0820    2.8450   -0.2100    8.5400 
