~VERSION INFORMATION
 VERS.                 2.0:   CWLS LOG ASCII STANDARD - VERSION 2.0
 WRAP.                  NO:   SINGLE LINE PER DEPTH STEP
 CREA.                 07/23/2021 11:30:29
#CREATED USING DSPetro VERSION 10ep.4.05.01 BY H227404 ON 07/23/2021 11:30:29
~WELL INFORMATION
#MNEM.UNIT       DATA                          DESCRIPTION MNEMONIC
#---------      ---------------------------   --------------------------
 STRT    .FT        156.0000                  : START DEPTH
 STOP    .FT        9462.0000                 : STOP DEPTH
 STEP    .FT        0.5000                    : STEP VALUE
 NULL    .      -999.0000                     : NULL VALUE
 DATE    .      07/23/2021                    : LAS file Creation Date
 WELL   .      SNRG-0004         : Well Name
 COMP   .                        : Company
 FLD    .                        : Field
 API    .      SNRG-0004         : API Number
 UWI    .      SNRG-0004         : Unique Well Identifier (UWI)
 LOC    .                        : Location
 KB     .      1230.0            : KB Elevation
 RWS    .      0                 : Def_Rw
 WST    .      0                 : Def_Rwt
 PROV   .                        : Province
 MDEC   .      0                 : Magnetic Declination
 SRVC   .      UNKNOWN           : Contractor
 GDAT   .      WGS 84            : Geodatum
 LONG   .      -80.4115240001679 : Longitude
 LATI   .      40.7475300004747  : Latitude
 COORDIN.                        : Grid System
 XCOORD .                        : X or East-West Coordinate
 YCOORD .                        : Y or North-South Coordinate
~CURVE INFORMATION
#MNEM              UNIT       API CODE   Curve Type Comments
#----------  --------------- ----------  ---------- -----------
 DEPTH      .FT                        : Depth       
 AT10       .OHMM                      : ShalRes     12 Array Induction Two Foot Resistivity
 AT20       .OHMM                      : MedRes      13 Array Induction Two Foot Resistivity
 AT30       .OHMM                      : MedRes      14 Array Induction Two Foot Resistivity
 AT60       .OHMM                      : MedRes      15 Array Induction Two Foot Resistivity
 AT90       .OHMM                      : DeepRes     16 Array Induction Two Foot Resistivity
 GR         .API                       : GammaRay    
 PEFZ       .B/E                       : PEF         
 NPHI       .DECP                      : Neutron     neutron porosity
 RHOZ       .gm/cc                     : Density     
 DCAL       .in                        :             
 HCAL       .inch                      : Caliper     
~A  DEPTH    AT10      AT20      AT30      AT60      AT90       GR       PEFZ      NPHI      RHOZ      DCAL      HCAL   
# ...
9435.5000  249.7990  411.1890  581.9510  422.3330  410.1650    5.1860   10.0000    0.0490    2.1210   -4.8250    3.9250 
9436.0000  253.6050  474.2920  622.0880  432.3980  336.9940    5.1860   10.0000    0.0490    2.1250   -4.8290    3.9210 
9436.5000  270.1340  489.3170  631.9560  392.1640  257.4030    5.1860   10.0000    0.0490    2.1230   -4.8230    3.9270 
9437.0000  297.5230  552.5280  554.4680  346.4280  204.6520    5.1860   10.0000    0.0490    2.1210   -4.8300    3.9200 
9437.5000  296.8470  656.1700  540.1390  326.3010  174.1470    5.1860   10.0000    0.0490    2.1170   -4.8280    3.9220 
9438.0000  322.5390  760.9090  507.6880  364.7680  163.3390    5.1860   10.0000    0.0490    2.1150   -4.8320    3.9180 
9438.5000  385.4100  826.0540  452.5990  328.1420  161.5080    5.1860   10.0000    0.0490    2.1130   -4.8200    3.9300 
9439.0000  444.0050  754.4500  472.8120  329.0300  148.8160    5.1860   10.0000    0.0490    2.1090   -4.8260    3.9240 
9439.5000  468.0230  623.7130  470.9150  408.7600  160.2120    5.1860   10.0000    0.0490    2.1070   -4.8360    3.9140 
9440.0000  486.2940  466.0900  382.2010  298.7200  137.5890    5.1860   10.0000    0.0490    2.1090   -4.8360    3.9140 
9440.5000  432.6530  373.0660  366.6850  267.1000  129.3580    5.1860   10.0000    0.0490    2.1100   -4.8360    3.9140 
9441.0000  465.3950  342.3450  411.3100  247.5040  121.8240    5.1860   10.0000    0.0490    2.1100   -4.8360    3.9140 
9441.5000  514.0080  403.6730  588.0010  240.8130  119.1260    5.1860   10.0000    0.0490    2.1100   -4.8360    3.9140 
9442.0000  532.4930  442.7500  731.5800  226.7100  114.5590    5.1860   10.0000    0.0490    2.1100   -4.8360    3.9140 
9442.5000  567.0530  448.4760  827.8670  222.1780  111.5430    5.1860   10.0000    0.0490    2.1100   -4.8360    3.9140 
9443.0000  627.7580  473.0660  865.8280  221.9880  109.4480    5.1860   10.0000    0.0490    2.1100   -4.8360    3.9140 
9443.5000  661.0950  449.4980  790.3190  223.2300  107.9080    5.1860   10.0000    0.0490    2.1100   -4.8360    3.9140 
9444.0000  723.8290  463.3110  689.9530  228.0500  108.1380    5.1860   10.0000    0.0490    2.1090   -4.8360    3.9140 
9444.5000  800.4930  441.4950  597.9290  237.8220  109.7010    5.1860   10.0000    0.0490    2.1090   -4.8360    3.9140 
9445.0000  903.5360  438.4730  532.3760  247.1980  111.6500    5.1860   10.0000    0.0490    2.1090   -4.8360    3.9140 
9445.5000  990.1650  416.9840  498.1880  252.3380  113.7570    5.1860   10.0000    0.0490    2.1090   -4.8360    3.9140 
9446.0000 1025.1200  408.5630  565.5350  279.1480  117.4170    5.1860   10.0000    0.0490    2.1090   -4.8360    3.9140 
9446.5000  984.3700  415.3460  655.7520  293.8420  121.7850    5.1860   10.0000    0.0490    2.1090   -4.8360    3.9140 
9447.0000  879.7640  433.8180  750.6670  281.8750  119.3830    5.1860   10.0000    0.0490    2.1090   -4.8360    3.9140 
9447.5000  695.0170  371.1040  735.9730  256.4940  113.9760    5.1860   10.0000    0.0490    2.1080   -4.8360    3.9140 
9448.0000  553.5820  316.9380  773.3990  263.9970  116.3090    5.1860   10.0000    0.0490    2.1080   -4.8360    3.9140 
9448.5000  494.3110  275.2060  804.1720  252.6200  111.9190    5.1860   10.0000    0.0490    2.1080   -4.8360    3.9140 
9449.0000  429.6740  246.4050  824.1820  232.0910  110.4110    5.1860   10.0000    0.0490    2.1070   -4.8360    3.9140 
9449.5000  350.8140  211.8710  850.5530  247.7660  112.4830    5.1860   10.0000    0.0490    2.1070   -4.8360    3.9140 
9450.0000  316.8530  198.8920  822.6680  241.1160  109.2930    5.1860   10.0000    0.0490    2.1060   -4.8360    3.9140 
9450.5000  286.8760  197.5630  783.6500  225.3910  105.2890    5.1860   10.0000    0.0490    2.1060   -4.8360    3.9140 
9451.0000  288.4920  218.3310  784.4610  227.5080  107.7780    5.1860   10.0000    0.0490    2.1050   -4.8360    3.9140 
9451.5000  296.9410  269.0880  809.7520  243.1960  112.2580    5.1860   10.0000    0.0490    2.1040   -4.8360    3.9140 
9452.0000  296.3650  376.7680  942.9090  262.2030  123.5460    5.1860   10.0000    0.0490    2.1030   -4.8360    3.9140 
9452.5000  291.1530  403.2890  860.1680  265.3560  119.7440    5.1860   10.0000    0.0490    2.1010   -4.8360    3.9140 
9453.0000  282.0590  454.8100  759.6660  251.6290  112.7210    5.1860   10.0000    0.0490    2.0990   -4.8360    3.9140 
9453.5000  327.9090  483.9900  792.6520  242.7980  112.4950    5.1860   10.0000    0.0490    2.0960   -4.8360    3.9140 
9454.0000  327.0220  448.3060  836.4250  247.7210  113.9380    5.1860   10.0000    0.0490    2.0920   -4.8360    3.9140 
9454.5000  356.0820  467.7600  940.8060  248.8140  116.0620    5.1860   10.0000    0.0490    2.0870   -4.8360    3.9140 
9455.0000  356.8710  459.3290  966.6630  238.1240  111.5240    5.1860   10.0000    0.0490    2.0810   -4.8360    3.9140 
9455.5000  365.9200  448.4840 1039.8760  225.7840  112.4390    5.1860   10.0000    0.0490    2.0730   -4.8360    3.9140 
9456.0000  359.9200  422.3790 1039.0360  230.4440  113.3600    5.1860   10.0000    0.0490    2.0650   -4.8360    3.9140 
9456.5000  356.8520  410.3590 1029.6290  233.4150  113.7740    5.1860   10.0000    0.0490    2.0640   -4.8360    3.9140 
9457.0000  357.0550  412.5670 1001.4670  236.9830  114.2470    5.1860   10.0000    0.0490    2.0690   -4.8360    3.9140 
9457.5000  357.5260  407.4720  991.2130  241.5200  115.0390    5.1860   10.0000    0.0490    2.0690   -4.8360    3.9140 
9458.0000  358.5860  412.0790 1004.1170  245.5100  116.0870    5.1860 -4436.2529    0.0490 -4409.2432   -4.8360    3.9140 
9458.5000  359.1920  415.2280 1013.2100  249.9590  117.0820    5.1860 -999.0000    0.0490 -999.0000   -4.8360    3.9140 
9459.0000  358.8990  418.6360 1025.0360  252.3700  118.0070    5.1860 -999.0000    0.0490 -999.0000   -4.8360    3.9140 
9459.5000  359.7730  423.5380 1043.5490  254.5490  118.7520    5.1860 -999.0000    0.0490 -999.0000   -4.8360    3.9140 
9460.0000  360.9110  430.0370 1058.0840  255.3870  119.4260    5.1860 -999.0000    0.0490 -999.0000   -4.8360    3.9140 
9460.5000  362.1930  439.6000 1081.4640  256.7140  119.9060    5.1860 -999.0000    0.0490 -999.0000   -4.8360    3.9140 
9461.0000  363.1740  441.4570 1078.6570  255.4430  119.8000    5.1860 -999.0000    0.0490 -999.0000   -4.8360    3.9140 
9461.5000  362.9590  437.8220 1064.0210  253.0630  119.3560    5.1860 -999.0000    0.0490 -999.0000   -4.8360    3.9140 
9462.0000  361.4710  434.3300 1046.7290  250.7140  118.7600    5.1860 -999.0000    0.0490 -999.0000   -4.8360    3.9140 
