~VERSION INFORMATION
 VERS.                 2.0:   CWLS LOG ASCII STANDARD - VERSION 2.0
 WRAP.                  NO:   SINGLE LINE PER DEPTH STEP
 CREA.                 07/23/2021 11:30:29
#CREATED USING DSPetro VERSION 10ep.4.05.01 BY H227404 ON 07/23/2021 11:30:29
~WELL INFORMATION
#MNEM.UNIT       DATA                          DESCRIPTION MNEMONIC
#---------      ---------------------------   --------------------------
 STRT    .FT        156.0000                  : START DEPTH
 STOP    .FT        9462.0000                 : STOP DEPTH
 STEP    .FT        0.5000                    : STEP VALUE
 NULL    .      -999.0000                     : NULL VALUE
 DATE    .      07/23/2021                    : LAS file Creation Date
 WELL   .      SNRG-0004         : Well Name
 COMP   .                        : Company
 FLD    .                        : Field
 API    .      SNRG-0004         : API Number
 UWI    .      SNRG-0004         : Unique Well Identifier (UWI)
 LOC    .                        : Location
 KB     .      1230.0            : KB Elevation
 RWS    .      0                 : Def_Rw
 WST    .      0                 : Def_Rwt
 PROV   .                        : Province
 MDEC   .      0                 : Magnetic Declination
 SRVC   .      UNKNOWN           : Contractor
 GDAT   .      WGS 84            : Geodatum
 LONG   .      -80.4115240001679 : Longitude
 LATI   .      40.7475300004747  : Latitude
 COORDIN.                        : Grid System
 XCOORD .                        : X or East-West Coordinate
 YCOORD .                        : Y or North-South Coordinate
~CURVE INFORMATION
#MNEM              UNIT       API CODE   Curve Type Comments
#----------  --------------- ----------  ---------- -----------
 DEPTH      .FT                        : Depth       
 AT10       .OHMM                      : ShalRes     12 Array Induction Two Foot Resistivity
 AT20       .OHMM                      : MedRes      13 Array Induction Two Foot Resistivity
 AT30       .OHMM                      : MedRes      14 Array Induction Two Foot Resistivity
 AT60       .OHMM                      : MedRes      15 Array Induction Two Foot Resistivity
 AT90       .OHMM                      : DeepRes     16 Array Induction Two Foot Resistivity
 GR         .API                       : GammaRay    
 PEFZ       .B/E                       : PEF         
 NPHI       .DECP                      : Neutron     neutron porosity
 RHOZ       .gm/cc                     : Density     
 DCAL       .in                        :             
 HCAL       .inch                      : Caliper     
~A  DEPTH    AT10      AT20      AT30      AT60      AT90       GR       PEFZ      NPHI      RHOZ      DCAL      HCAL   
# ...
 759.0000 1950.0000    0.4890    9.3340 1950.0000   38.0140   75.3550   10.0000    0.3330    2.3520   -4.7260    4.0240 
 759.5000 1950.0000    0.4890    7.7870 1950.0000   34.7570   81.2750   10.0000    0.3520    2.3580   -4.7480    4.0020 
 760.0000 1950.0000    0.4910    6.8860 1950.0000   23.2600   83.3280   10.0000    0.3400    2.3630   -4.7260    4.0240 
 760.5000 1950.0000    0.4950    8.4360 1950.0000   27.4080   85.6930   10.0000    0.3240    2.3660   -4.7260    4.0240 
 761.0000 1950.0000    0.5000    9.5140 1950.0000   34.3870   78.0520   10.0000    0.3390    2.3610   -4.7480    4.0020 
 761.5000 1950.0000    0.5050   10.3190 1950.0000   47.1130   77.0330   10.0000    0.3670    2.3540   -4.7480    4.0020 
 762.0000 1950.0000    0.5070    9.8040 1950.0000   41.3320   74.3800   10.0000    0.3710    2.3500   -4.7260    4.0240 
 762.5000 1950.0000    0.5070    8.8920 1950.0000   29.3090   77.2030   10.0000    0.3870    2.3490   -4.7480    4.0020 
 763.0000 1950.0000    0.5050    8.2930 1950.0000   25.3420   76.5140   10.0000    0.3670    2.3540   -4.7260    4.0240 
 763.5000 1950.0000    0.5060    7.8920 1950.0000   27.7390   76.5140   10.0000    0.3600    2.3550   -4.7260    4.0240 
 764.0000 1950.0000    0.5060    8.4290 1950.0000   34.0100   78.5790   10.0000    0.3350    2.3530   -4.7480    4.0020 
 764.5000 1950.0000    0.5060    9.0200 1950.0000   33.2870   81.1480   10.0000    0.3340    2.3550   -4.7480    4.0020 
 765.0000 1950.0000    0.5070    8.3300 1950.0000   31.9970   79.4270   10.0000    0.3440    2.3590   -4.7480    4.0020 
 765.5000 1950.0000    0.5080    7.9150 1950.0000   26.2210   77.7060   10.0000    0.3370    2.3600   -4.7260    4.0240 
 766.0000 1950.0000    0.5090    8.5570 1950.0000   28.5890   79.6130   10.0000    0.3270    2.3610   -4.7480    4.0020 
 766.5000 1950.0000    0.5070    9.4050 1950.0000   34.8380   80.7600   10.0000    0.3050    2.3580   -4.7370    4.0130 
 767.0000 1950.0000    0.5070    8.5610 1950.0000   32.9680   80.0710   10.0000    0.2780    2.3600   -4.7480    4.0020 
 767.5000 1950.0000    0.5050    7.8380 1950.0000   28.0370   79.0250   10.0000    0.2770    2.3580   -4.7260    4.0240 
 768.0000 1950.0000    0.5030    8.1360 1950.0000   25.5170   78.8030   10.0000    0.2870    2.3570   -4.7260    4.0240 
 768.5000 1950.0000    0.5040    8.5460 1950.0000   27.8570   76.3940   10.0000    0.2900    2.3560   -4.7480    4.0020 
 769.0000 1950.0000    0.5040    8.2970 1950.0000   35.0770   70.6060   10.0000    0.2960    2.3560   -4.7480    4.0020 
 769.5000 1950.0000    0.5040    8.4460 1950.0000   30.6780   69.5780   10.0000    0.2890    2.3550   -4.7480    4.0020 
 770.0000 1950.0000    0.5030    8.6160 1950.0000   21.1250   71.5780   10.0000    0.3080    2.3540   -4.7260    4.0240 
 770.5000 1950.0000    0.5020    8.1390 1950.0000   19.9000   70.1520   10.0000    0.3330    2.3540   -4.7260    4.0240 
 771.0000 1950.0000    0.5020    8.6800 1950.0000   32.9480   73.3370   10.0000    0.3630    2.3580   -4.7480    4.0020 
 771.5000 1950.0000    0.5010    9.2310 1950.0000   25.8990   72.0250   10.0000    0.3540    2.3600   -4.7260    4.0240 
 772.0000 1950.0000    0.5000    9.2200 1950.0000   31.4180   74.7790   10.0000    0.3330    2.3590   -4.7480    4.0020 
 772.5000 1950.0000    0.4970    9.0340 1950.0000   33.3590   74.3460   10.0000    0.3110    2.3530   -4.7260    4.0240 
 773.0000 1950.0000    0.4960    8.4970 1950.0000   33.6020   76.9640   10.0000    0.3260    2.3460   -4.7480    4.0020 
 773.5000 1950.0000    0.4940    8.6040 1950.0000   32.7270   81.4390   10.0000    0.3420    2.3410   -4.7480    4.0020 
 774.0000 1950.0000    0.4930    7.7250 1950.0000   25.2700   79.3750   10.0000    0.3250    2.3480   -4.7480    4.0020 
 774.5000 1950.0000    0.4960    7.5740 1950.0000   27.6270   74.3320   10.0000    0.3120    2.3590   -4.7480    4.0020 
 775.0000 1950.0000    0.4960    8.3320 1950.0000   30.9460   67.1000   10.0000    0.3000    2.3660   -4.7480    4.0020 
 775.5000 1950.0000    0.4990    8.9670 1950.0000   25.5800   68.8220   10.0000    0.3240    2.3610   -4.7480    4.0020 
 776.0000 1950.0000    0.5000    8.7700 1950.0000   28.6870   73.1330   10.0000    0.3450    2.3590   -4.7480    4.0020 
 776.5000 1950.0000    0.5010    8.2660 1950.0000   23.4730   83.4620   10.0000    0.3430    2.3620   -4.7260    4.0240 
 777.0000 1950.0000    0.5030    8.5820 1950.0000   25.0460   80.5200   10.0000    0.3570    2.3620   -4.7260    4.0240 
 777.5000 1950.0000    0.5050    9.4920 1820.1910   21.4220   85.1740   10.0000    0.3330    2.3590   -4.7260    4.0240 
 778.0000 1950.0000    0.5060   10.6570 1549.3120   39.9790   78.3950   10.0000    0.3200    2.3590   -4.7480    4.0020 
 778.5000 1950.0000    0.5050   12.2520 1165.8500   30.3090   76.5180   10.0000    0.2990    2.3620   -4.7260    4.0240 
 779.0000 1950.0000    0.4960    8.9520  723.8930   20.9100   71.8010   10.0000    0.3150    2.3680   -4.7260    4.0240 
 779.5000 1950.0000    0.4890    6.0750  342.1730   11.1190   77.4590   10.0000    0.3160    2.3630   -4.7260    4.0240 
 780.0000 1950.0000    0.4890    6.4320  168.1580   11.4980   79.4590   10.0000    0.3120    2.3630   -4.7480    4.0020 
 780.5000 1950.0000    0.5010    5.9040   84.3200    8.5020   85.5520   10.0000    0.3280    2.3650   -4.7480    4.0020 
 781.0000 1950.0000    0.5010    7.2040   48.4460   11.8480   82.5430   10.0000    0.3430    2.3700   -4.7480    4.0020 
 781.5000 1950.0000    0.5050    9.7520   42.1200   15.3100   81.9080   10.0000    0.3750    2.3690   -4.7260    4.0240 
 782.0000 1950.0000    0.5380   14.0260   20.6560   13.0690   72.6610   10.0000    0.3590    2.3780   -4.7480    4.0020 
 782.5000 1950.0000    0.5010    6.2670   12.8440    8.5720   70.5960   10.0000    0.3550    2.3980   -4.7260    4.0240 
 783.0000 1950.0000    0.4980    4.0590    5.9380    4.2080   70.3090   10.0000    0.3320    2.4290   -4.7480    4.0020 
 783.5000 1950.0000    0.5090    8.8980   54.0620   19.2040   72.6720   10.0000    0.3270    2.4290   -4.7480    4.0020 
 784.0000 1950.0000    0.5210   11.0910   27.1150   17.4700   78.8680   10.0000    0.3140    2.3990   -4.7260    4.0240 
 784.5000 1950.0000    0.5120    7.6580   24.1630   12.9350   81.4480   10.0000    0.3090    2.3650   -4.7480    4.0020 
 785.0000 1950.0000    0.5050    5.9750   20.4630    8.3950   82.1360   10.0000    0.3490    2.3460   -4.7260    4.0240 
 785.5000 1950.0000    0.5100    7.0430   73.1480    8.3820   74.4380   10.0000    0.3510    2.3490   -4.7260    4.0240 
 786.0000 1950.0000    0.5170    9.0110   86.4780   24.4210   71.1240   10.0000    0.3330    2.3540   -4.7260    4.0240 
 786.5000 1950.0000    0.5230   11.2990  135.2940   35.7650   73.2330   10.0000    0.2830    2.3570   -4.7260    4.0240 
 787.0000 1950.0000    0.5250   10.9500  246.0940   35.7680   77.8200   10.0000    0.2750    2.3530   -4.7480    4.0020 
 787.5000 1950.0000    0.5230    9.2070  462.8760   24.2650   81.6060   10.0000    0.3060    2.3460   -4.7260    4.0240 
 788.0000 1950.0000    0.5240   10.0850  869.9840   29.7010   79.4970   10.0000    0.3090    2.3400   -4.7260    4.0240 
 788.5000 1950.0000    0.5220    8.3390 1402.8820   17.8250   74.9100   10.0000    0.3060    2.3430   -4.7260    4.0240 
 789.0000 1950.0000    0.5220    7.0090 1950.0000   11.1100   70.7790   10.0000    0.2790    2.3430   -4.7480    4.0020 
 789.5000 1950.0000    0.5250    9.0030 1950.0000   18.3250   70.3080   10.0000    0.2950    2.3450   -4.7260    4.0240 
 790.0000 1950.0000    0.5280   10.0170 1950.0000   25.7910   69.0580   10.0000    0.3140    2.3400   -4.7260    4.0240 
 790.5000 1950.0000    0.5270    9.8970 1950.0000   22.3950   70.9960   10.0000    0.2990    2.3400   -4.7480    4.0020 
 791.0000 1950.0000    0.5200    9.2470 1950.0000   16.0560   67.6810   10.0000    0.2760    2.3370   -4.7260    4.0240 
 791.5000 1950.0000    0.5120    9.9270 1950.0000   19.4270   71.7980   10.0000    0.2860    2.3410   -4.7260    4.0240 
 792.0000 1950.0000    0.5020   10.1050 1950.0000   29.9180   67.7950   10.0000    0.3450    2.3430   -4.7480    4.0020 
