~VERSION INFORMATION
 VERS.                 2.0:   CWLS LOG ASCII STANDARD - VERSION 2.0
 WRAP.                  NO:   SINGLE LINE PER DEPTH STEP
 CREA.                 07/23/2021 11:30:29
#CREATED USING DSPetro VERSION 10ep.4.05.01 BY H227404 ON 07/23/2021 11:30:29
~WELL INFORMATION
#MNEM.UNIT       DATA                          DESCRIPTION MNEMONIC
#---------      ---------------------------   --------------------------
 STRT    .FT        156.0000                  : START DEPTH
 STOP    .FT        9462.0000                 : STOP DEPTH
 STEP    .FT        0.5000                    : STEP VALUE
 NULL    .      -999.0000                     : NULL VALUE
 DATE    .      07/23/2021                    : LAS file Creation Date
 WELL   .      SNRG-0004         : Well Name
 COMP   .                        : Company
 FLD    .                        : Field
 API    .      SNRG-0004         : API Number
 UWI    .      SNRG-0004         : Unique Well Identifier (UWI)
 LOC    .                        : Location
 KB     .      1230.0            : KB Elevation
 RWS    .      0                 : Def_Rw
 WST    .      0                 : Def_Rwt
 PROV   .                        : Province
 MDEC   .      0                 : Magnetic Declination
 SRVC   .      UNKNOWN           : Contractor
 GDAT   .      WGS 84            : Geodatum
 LONG   .      -80.4115240001679 : Longitude
 LATI   .      40.7475300004747  : Latitude
 COORDIN.                        : Grid System
 XCOORD .                        : X or East-West Coordinate
 YCOORD .                        : Y or North-South Coordinate
~CURVE INFORMATION
#MNEM              UNIT       API CODE   Curve Type Comments
#----------  --------------- ----------  ---------- -----------
 DEPTH      .FT                        : Depth       
 AT10       .OHMM                      : ShalRes     12 Array Induction Two Foot Resistivity
 AT20       .OHMM                      : MedRes      13 Array Induction Two Foot Resistivity
 AT30       .OHMM                      : MedRes      14 Array Induction Two Foot Resistivity
 AT60       .OHMM                      : MedRes      15 Array Induction Two Foot Resistivity
 AT90       .OHMM                      : DeepRes     16 Array Induction Two Foot Resistivity
 GR         .API                       : GammaRay    
 PEFZ       .B/E                       : PEF         
 NPHI       .DECP                      : Neutron     neutron porosity
 RHOZ       .gm/cc                     : Density     
 DCAL       .in                        :             
 HCAL       .inch                      : Caliper     
~A  DEPTH    AT10      AT20      AT30      AT60      AT90       GR       PEFZ      NPHI      RHOZ      DCAL      HCAL   
# ...
8832.5000   20.1060   20.4290   20.9590   21.3520   21.1930  126.2780    4.2620    0.1870    2.7150   -0.3130    8.4370 
8833.0000   20.5990   20.9370   21.4550   21.7990   21.7070  119.9340    4.2790    0.1820    2.7120   -0.3090    8.4410 
8833.5000   21.9540   22.3550   22.9130   23.2890   23.1370  114.7700    4.2370    0.1800    2.7160   -0.2980    8.4520 
8834.0000   21.4060   21.8290   22.3090   22.7610   22.6430  112.3620    4.1680    0.1760    2.7220   -0.2840    8.4670 
8834.5000   19.3030   19.8250   20.2600   20.8070   20.5750  115.4810    4.1190    0.1970    2.7230   -0.2910    8.4590 
8835.0000   18.4260   19.0710   19.6740   20.0080   20.1800  123.6270    4.1230    0.2180    2.7210   -0.3130    8.4370 
8835.5000   19.1990   20.0530   20.6070   20.9920   21.1750  130.2780    4.1890    0.2300    2.7170   -0.3090    8.4410 
8836.0000   20.4690   21.0910   21.3720   21.5860   21.8830  134.1010    4.2350    0.2060    2.7230   -0.3200    8.4300 
8836.5000   20.6740   21.3050   21.6720   21.8450   22.2200  130.3860    4.2550    0.1950    2.7250   -0.3200    8.4300 
8837.0000   19.8060   20.5560   20.8630   21.2860   21.6180  124.4230    4.2350    0.1860    2.7240   -0.3050    8.4450 
8837.5000   19.3040   19.8760   20.4990   20.8230   21.1500  123.8490    4.2410    0.1980    2.7150   -0.3200    8.4300 
8838.0000   19.0810   19.6820   20.3450   20.7260   20.9690  133.1860    4.2480    0.2070    2.7130   -0.3050    8.4450 
8838.5000   19.9460   20.5230   21.1300   21.6430   21.9890  137.4430    4.2920    0.2140    2.7070   -0.3050    8.4450 
8839.0000   20.9490   21.4030   22.0580   22.6270   22.7220  139.0270    4.3130    0.2190    2.7040   -0.3090    8.4410 
8839.5000   21.7350   22.3980   23.1980   23.7760   23.8790  133.7490    4.3440    0.2130    2.6940   -0.3090    8.4410 
8840.0000   20.9200   21.6090   22.3890   22.6280   22.7310  133.1620    4.3740    0.2060    2.6880   -0.2980    8.4520 
8840.5000   19.9060   20.6440   21.0710   21.5260   21.7200  131.0040    4.3380    0.2100    2.7040   -0.2840    8.4670 
8841.0000   18.7940   19.4700   19.8220   20.3500   20.5910  127.2680    4.3690    0.2240    2.7050   -0.2760    8.4740 
8841.5000   17.6500   18.4140   18.7960   19.2120   19.4660  125.0890    4.3590    0.2270    2.7140   -0.2910    8.4590 
8842.0000   18.5540   19.4240   19.7260   20.0070   20.2820  126.1210    4.3770    0.2110    2.7140   -0.2910    8.4590 
8842.5000   20.7950   21.5220   22.0280   22.2980   22.7870  126.7600    4.3440    0.2000    2.7210   -0.2870    8.4630 
8843.0000   22.4580   23.2350   23.5470   23.8880   24.2390  124.4720    4.2890    0.1950    2.7270   -0.2980    8.4520 
8843.5000   21.7480   22.1120   22.6990   23.0960   23.4040  121.0100    4.2760    0.2030    2.7180   -0.2840    8.4670 
8844.0000   21.1150   21.7440   22.1100   22.5530   22.8880  121.0100    4.2620    0.2050    2.7140   -0.2870    8.4630 
8844.5000   21.8850   22.4970   22.9430   23.6400   23.8070  127.6560    4.3220    0.2120    2.7030   -0.2760    8.4740 
8845.0000   22.4480   23.0930   23.6660   24.2440   24.3900  127.4100    4.4070    0.2240    2.6970   -0.2870    8.4630 
8845.5000   22.6660   23.4050   23.6880   24.2000   24.1820  129.7050    4.5040    0.2290    2.6920   -0.3050    8.4450 
8846.0000   22.9800   23.7120   24.1700   24.4770   24.5400  125.6910    4.5150    0.2260    2.6970   -0.3420    8.4080 
8846.5000   23.1200   24.0100   24.5190   24.6500   24.7400  124.9240    4.4820    0.2160    2.7000   -0.3090    8.4410 
8847.0000   22.4940   23.0260   23.5450   23.7710   23.7570  125.4980    4.4550    0.2030    2.6970   -0.3090    8.4410 
8847.5000   21.9730   22.3280   22.8730   23.0750   23.0580  128.1350    4.4240    0.2080    2.6950   -0.3200    8.4300 
8848.0000   21.4690   21.8260   22.3910   22.5580   22.5520  130.1800    4.3730    0.2070    2.7020   -0.3130    8.4370 
8848.5000   20.7350   21.2520   21.9090   22.0430   22.1040  128.3440    4.3010    0.2180    2.7190   -0.2980    8.4520 
8849.0000   20.7230   21.1280   21.7050   21.9630   22.0020  123.7200    4.2530    0.2070    2.7310   -0.2980    8.4520 
8849.5000   21.6590   22.0470   22.5300   22.7720   22.8280  121.1970    4.2110    0.2020    2.7410   -0.3130    8.4370 
8850.0000   22.3060   22.7360   23.1220   23.3250   23.4100  119.1310    4.1850    0.1940    2.7390   -0.3200    8.4300 
8850.5000   21.4150   21.9630   22.4450   23.0130   22.8810  120.5290    4.1910    0.2050    2.7310   -0.3420    8.4080 
8851.0000   20.9970   21.7330   22.3890   22.8480   22.9320  119.0390    4.2030    0.2050    2.7220   -0.3200    8.4300 
8851.5000   21.3380   21.9600   22.3900   22.8340   22.8760  119.3830    4.2570    0.2090    2.7120   -0.3200    8.4300 
8852.0000   21.4730   22.0550   22.4380   22.9370   23.0320  121.7140    4.3070    0.2080    2.7060   -0.3200    8.4300 
8852.5000   21.3820   21.8770   22.4480   22.9860   23.0770  121.9590    4.3080    0.2050    2.7090   -0.3200    8.4300 
8853.0000   21.3920   21.8980   22.1630   22.5370   22.6920  120.8120    4.3100    0.1970    2.7100   -0.3050    8.4450 
8853.5000   21.2110   21.7610   22.2150   22.5010   22.4500  115.1900    4.2900    0.1910    2.7100   -0.3200    8.4300 
8854.0000   20.6990   21.1930   21.6570   21.9050   22.0090  114.9450    4.3100    0.2010    2.7020   -0.3130    8.4370 
8854.5000   20.2730   20.8890   21.2180   21.2510   21.4570  117.2170    4.2630    0.1960    2.7090   -0.3200    8.4300 
8855.0000   19.8370   20.3440   20.6390   20.7650   20.8020  120.4300    4.2130    0.1890    2.7170   -0.3130    8.4370 
8855.5000   19.2310   19.6750   19.9600   20.0890   20.0800  125.4760    4.1880    0.1910    2.7210   -0.3050    8.4450 
8856.0000   18.5150   18.9260   19.2380   19.4440   19.3750  128.0570    4.2030    0.2050    2.7190   -0.3200    8.4300 
8856.5000   18.7100   19.1570   19.4900   19.6650   19.5390  128.1710    4.2470    0.2100    2.7130   -0.3200    8.4300 
8857.0000   19.3330   19.7970   20.0490   20.2960   20.1100  127.0250    4.2860    0.2080    2.7120   -0.3200    8.4300 
8857.5000   19.6070   20.0820   20.3520   20.5320   20.4280  125.5190    4.3030    0.2070    2.7190   -0.3200    8.4300 
8858.0000   19.9910   20.4410   20.7640   21.0400   20.9510  123.2240    4.3760    0.2120    2.7160   -0.2910    8.4590 
8858.5000   20.5860   21.0500   21.4330   21.8820   21.6590  125.1950    4.4310    0.2140    2.7130   -0.2870    8.4630 
8859.0000   20.9210   21.4140   21.7770   22.0080   22.0430  124.8090    4.4730    0.2080    2.7100   -0.2870    8.4630 
8859.5000   21.2000   21.6670   22.0390   22.1840   22.4100  128.3580    4.4560    0.2080    2.7170   -0.2980    8.4520 
8860.0000   21.3560   21.7660   22.1250   22.3650   22.4550  124.2280    4.4620    0.2030    2.7190   -0.2980    8.4520 
8860.5000   21.4570   21.5570   22.0740   22.2960   22.3820  122.7370    4.4960    0.2040    2.7130   -0.3200    8.4300 
8861.0000   21.2130   21.6060   22.0200   22.1500   22.2980  124.1350    4.5040    0.2020    2.7070   -0.3090    8.4410 
8861.5000   20.8090   21.2260   21.5650   21.6920   21.6840  125.1680    4.4860    0.2010    2.7030   -0.3090    8.4410 
8862.0000   20.3720   20.8470   21.2500   21.4370   21.4200  126.6580    4.4150    0.2010    2.7120   -0.3130    8.4370 
8862.5000   20.0190   20.5480   20.8570   21.0930   21.1050  125.3680    4.3400    0.1940    2.7240   -0.3130    8.4370 
8863.0000   19.7650   20.3660   20.6260   20.8590   20.7790  127.7770    4.2930    0.1970    2.7270   -0.3200    8.4300 
8863.5000   19.5570   20.2870   20.5680   20.8400   20.7040  129.0600    4.2790    0.1990    2.7220   -0.3090    8.4410 
8864.0000   19.3730   19.8950   20.1210   20.6400   20.3190  125.1700    4.2580    0.2090    2.7260   -0.3130    8.4370 
8864.5000   19.4760   19.8280   20.1040   20.5400   20.3010  125.0560    4.2360    0.2040    2.7300   -0.3050    8.4450 
8865.0000   19.6550   20.0050   20.2640   20.7020   20.4580  122.9910    4.2700    0.2040    2.7240   -0.2910    8.4590 
8865.5000   19.7830   20.1390   20.4690   20.8280   20.6290  125.2670    4.3450    0.2040    2.7030   -0.2980    8.4520 
