~VERSION INFORMATION
 VERS.                 2.0:   CWLS LOG ASCII STANDARD - VERSION 2.0
 WRAP.                  NO:   SINGLE LINE PER DEPTH STEP
 CREA.                 07/23/2021 11:30:29
#CREATED USING DSPetro VERSION 10ep.4.05.01 BY H227404 ON 07/23/2021 11:30:29
~WELL INFORMATION
#MNEM.UNIT       DATA                          DESCRIPTION MNEMONIC
#---------      ---------------------------   --------------------------
 STRT    .FT        156.0000                  : START DEPTH
 STOP    .FT        9462.0000                 : STOP DEPTH
 STEP    .FT        0.5000                    : STEP VALUE
 NULL    .      -999.0000                     : NULL VALUE
 DATE    .      07/23/2021                    : LAS file Creation Date
 WELL   .      SNRG-0004         : Well Name
 COMP   .                        : Company
 FLD    .                        : Field
 API    .      SNRG-0004         : API Number
 UWI    .      SNRG-0004         : Unique Well Identifier (UWI)
 LOC    .                        : Location
 KB     .      1230.0            : KB Elevation
 RWS    .      0                 : Def_Rw
 WST    .      0                 : Def_Rwt
 PROV   .                        : Province
 MDEC   .      0                 : Magnetic Declination
 SRVC   .      UNKNOWN           : Contractor
 GDAT   .      WGS 84            : Geodatum
 LONG   .      -80.4115240001679 : Longitude
 LATI   .      40.7475300004747  : Latitude
 COORDIN.                        : Grid System
 XCOORD .                        : X or East-West Coordinate
 YCOORD .                        : Y or North-South Coordinate
~CURVE INFORMATION
#MNEM              UNIT       API CODE   Curve Type Comments
#----------  --------------- ----------  ---------- -----------
 DEPTH      .FT                        : Depth       
 AT10       .OHMM                      : ShalRes     12 Array Induction Two Foot Resistivity
 AT20       .OHMM                      : MedRes      13 Array Induction Two Foot Resistivity
 AT30       .OHMM                      : MedRes      14 Array Induction Two Foot Resistivity
 AT60       .OHMM                      : MedRes      15 Array Induction Two Foot Resistivity
 AT90       .OHMM                      : DeepRes     16 Array Induction Two Foot Resistivity
 GR         .API                       : GammaRay    
 PEFZ       .B/E                       : PEF         
 NPHI       .DECP                      : Neutron     neutron porosity
 RHOZ       .gm/cc                     : Density     
 DCAL       .in                        :             
 HCAL       .inch                      : Caliper     
~A  DEPTH    AT10      AT20      AT30      AT60      AT90       GR       PEFZ      NPHI      RHOZ      DCAL      HCAL   
# ...
5114.0000   30.5330   33.3000   34.2710   36.8150   38.3800   55.4680    4.1710    0.0260    2.6650   -0.2760    8.4740 
5114.5000   30.2810   32.6850   33.9010   36.5560   37.5640   52.2250    4.1480    0.0240    2.6630   -0.2760    8.4740 
5115.0000   37.7120   40.5010   41.7140   45.2430   46.6900   51.4260    4.2670    0.0230    2.6590   -0.2910    8.4590 
5115.5000   48.7260   51.2260   53.2370   56.8730   58.2280   48.7620    4.4090    0.0220    2.6510   -0.3640    8.3860 
5116.0000   51.5460   51.7470   51.7710   54.6000   55.9140   52.5300    4.4360    0.0220    2.6390   -0.3200    8.4300 
5116.5000   41.3740   40.8390   42.0970   45.3960   46.8740   52.6450    4.3190    0.0240    2.6390   -0.3200    8.4300 
5117.0000   30.4550   31.6400   32.8180   34.6590   35.4230   55.6280    4.2480    0.0300    2.6390   -0.3090    8.4410 
5117.5000   26.1390   27.3790   28.3430   30.0300   31.0140   53.5640    4.2710    0.0360    2.6470   -0.3200    8.4300 
5118.0000   27.4000   29.3080   29.9700   31.7800   32.5380   53.3350    4.4430    0.0380    2.6370   -0.3200    8.4300 
5118.5000   31.2120   33.5800   33.9570   36.3390   37.1920   51.2030    4.5180    0.0320    2.6400   -0.3200    8.4300 
5119.0000   40.1060   42.7900   43.8950   47.5820   48.5510   50.8590    4.5410    0.0230    2.6450   -0.3570    8.3930 
5119.5000   53.8360   58.1050   59.8420   64.7140   64.7880   46.4860    4.4760    0.0170    2.6650   -0.3200    8.4300 
5120.0000   64.4930   67.6370   69.2430   74.9210   75.7280   41.9630    4.4470    0.0150    2.6790   -0.3420    8.4080 
5120.5000   70.5690   72.0130   75.0650   81.6250   83.4270   40.7290    4.4280    0.0170    2.6840   -0.3270    8.4230 
5121.0000   76.9210   78.2070   82.2980   88.0080   91.0750   40.1690    4.4220    0.0190    2.6790   -0.3420    8.4080 
5121.5000   77.3060   78.7470   83.6720   88.0390   91.5020   40.9720    4.4170    0.0210    2.6720   -0.3130    8.4370 
5122.0000   69.1230   72.0900   77.5850   81.1280   85.6800   39.6980    4.4410    0.0210    2.6690   -0.3200    8.4300 
5122.5000   61.9110   65.6620   71.5180   74.6000   79.0940   38.7800    4.5180    0.0210    2.6680   -0.3200    8.4300 
5123.0000   60.9190   65.7670   71.6060   74.8780   80.1860   41.9930    4.5940    0.0180    2.6690   -0.2980    8.4520 
5123.5000   73.1200   77.7830   84.3720   89.4700   94.7910   42.7820    4.6290    0.0160    2.6660   -0.3420    8.4080 
5124.0000   85.1950   94.3710  100.4810  109.5510  111.8120   45.5750    4.5380    0.0150    2.6710   -0.3640    8.3860 
5124.5000   92.8450   98.5550  105.8670  115.6770  119.3580   44.2760    4.4230    0.0140    2.6710   -0.2980    8.4520 
5125.0000   89.3410   91.8230  102.4350  118.2910  115.8030   46.5680    4.2920    0.0180    2.6770   -0.3050    8.4450 
5125.5000   88.1040   90.0990   95.7670  115.0700  110.0300   46.1840    4.2800    0.0190    2.6730   -0.3050    8.4450 
5126.0000   85.2820   87.5980   97.9600  105.6700  108.9630   44.6150    4.3580    0.0210    2.6680   -0.3050    8.4450 
5126.5000   76.6500   76.5540   80.7740   83.3650   86.6360   41.9620    4.4670    0.0170    2.6680   -0.3050    8.4450 
5127.0000   58.3200   57.8250   61.2320   63.4570   65.8690   41.7320    4.5710    0.0190    2.6690   -0.2980    8.4520 
5127.5000   40.4830   41.4000   42.1250   45.1020   45.3320   46.5330    4.5870    0.0220    2.6720   -0.3420    8.4080 
5128.0000   31.1290   31.9590   31.8930   32.5060   33.3750   53.4480    4.5730    0.0360    2.6650   -0.3050    8.4450 
5128.5000   19.7790   20.2340   20.5430   21.1250   21.6810   64.6920    4.4860    0.0590    2.6690   -0.2870    8.4630 
5129.0000   13.8280   14.4630   14.4090   14.8030   15.0690   71.9390    4.5550    0.0710    2.6600   -0.2980    8.4520 
5129.5000   17.3360   16.5340   16.2870   16.4770   16.8960   71.7090    4.6990    0.0690    2.6590   -0.2650    8.4850 
5130.0000   27.9900   28.0540   28.4490   29.4540   30.9080   64.7100    4.8350    0.0510    2.6660   -0.2760    8.4740 
5130.5000   45.9150   47.9680   45.9690   47.5750   46.8520   57.3670    4.9030    0.0410    2.6730   -0.2980    8.4520 
5131.0000   51.2530   53.3180   50.6880   52.9740   54.3630   54.9390    4.9370    0.0370    2.6780   -0.2760    8.4740 
5131.5000   52.2200   51.9810   53.6380   56.9220   58.8150   51.3830    4.9780    0.0380    2.6790   -0.2540    8.4960 
5132.0000   54.0640   52.3190   55.8120   59.9540   62.4690   48.2100    4.9820    0.0400    2.6970   -0.2400    8.5100 
5132.5000   64.5910   63.9220   68.8340   77.5910   80.7180   46.6230    5.0470    0.0340    2.7070   -0.1740    8.5760 
5133.0000   94.8880   96.1670  103.3030  112.5170  115.2310   46.2780    5.1920    0.0270    2.7060   -0.2320    8.5180 
5133.5000  137.7330  144.0030  134.4130  143.2980  133.0550   49.1060    5.3040    0.0220    2.6970   -0.2100    8.5400 
5134.0000  134.3470  137.9670  133.8170  142.4040  141.1590   49.6630    5.3200    0.0210    2.6930   -0.2030    8.5470 
5134.5000   85.7630   93.1060  102.3960  106.6340  107.6990   51.2690    5.2540    0.0250    2.6950   -0.2000    8.5510 
5135.0000   62.3240   67.0440   70.3980   75.6120   78.3110   51.1370    5.2560    0.0250    2.6900   -0.1780    8.5730 
5135.5000   49.3660   53.9640   57.1760   59.1930   60.1610   50.6950    5.2610    0.0300    2.6870   -0.2430    8.5070 
5136.0000   40.1670   41.5620   42.8770   43.3290   45.1080   51.8430    5.2580    0.0320    2.6720   -0.2650    8.4850 
5136.5000   37.0650   37.6630   38.6640   41.8020   44.4260   48.4180    5.1320    0.0350    2.6660   -0.2210    8.5290 
5137.0000   54.2440   55.7050   58.5380   65.9590   67.9910   40.8460    5.0790    0.0330    2.6540   -0.2760    8.4740 
5137.5000   87.8540  106.0610  110.6720  108.1010  115.7400   30.7490    5.1800    0.0350    2.6380   -0.2320    8.5180 
5138.0000  109.3170  143.2560  157.7390  162.2340  163.4880   27.6510    5.3440    0.0400    2.6250   -0.2100    8.5400 
5138.5000  105.9430  112.3000  120.1190  119.7220  122.7880   34.2520    5.4350    0.0500    2.6250   -0.1520    8.5980 
5139.0000   93.2490   96.9610  103.7400  114.6940  116.3270   41.3650    5.4380    0.0510    2.6360   -0.2400    8.5100 
5139.5000  100.5590  107.2170  114.2990  118.6500  141.4180   40.4470    5.3960    0.0380    2.6490   -0.2540    8.4960 
5140.0000  119.1230  129.8020  137.1380  143.2620  151.0130   34.1910    5.3430    0.0240    2.6540   -0.3200    8.4300 
5140.5000  130.6530  144.2200  162.3700  171.9840  173.3660   26.8480    5.2200    0.0150    2.6700   -0.2760    8.4740 
5141.0000  129.6510  139.4790  161.7640  175.3660  174.0400   26.0360    5.2400    0.0150    2.6770   -0.2650    8.4850 
5141.5000  131.9520  133.9180  162.2270  185.4860  176.3850   25.4620    5.4130    0.0150    2.6740   -0.2980    8.4520 
5142.0000  139.7520  148.1070  186.3180  227.5560  208.4010   27.1830    5.5760    0.0180    2.6710   -0.2910    8.4590 
5142.5000  162.5280  183.7320  245.6280  319.5180  293.9230   27.0680    5.7540    0.0180    2.6600   -0.2540    8.4960 
5143.0000  197.7260  227.4450  321.0680  452.3790  432.5030   23.9700    5.8550    0.0170    2.6560   -0.2760    8.4740 
5143.5000  225.1300  260.9680  375.0310  561.5910  583.3330   21.7910    6.4550    0.0170    2.6320   -0.2980    8.4520 
5144.0000  246.8640  280.6780  397.7550  596.3590  748.5500   17.3250    7.5560    0.0200    2.5950   -0.2910    8.4590 
5144.5000  195.9230  226.3720  347.3620  547.6640  873.6710   18.6650    8.8660    0.0370    2.5680   -0.2620    8.4880 
5145.0000  160.7140  172.9060  262.5440  435.0890  798.9130   18.7640    9.7410    0.0580    2.5760   -0.2760    8.4740 
5145.5000  144.0500  150.8400  218.1990  344.3440  771.1490   20.1850    9.9980    0.0830    2.5720   -0.3790    8.3720 
5146.0000  127.5080  142.7540  192.2780  326.4600  696.2960   19.3040    9.9980    0.0920    2.5140   -0.2100    8.5400 
5146.5000  129.4440  148.6690  190.4510  290.1120  601.1360   18.1720    9.9980    0.1070    2.4410   -0.1010    8.6490 
5147.0000  144.9610  181.0810  219.5140  304.7690  551.3640   19.2530    9.7140    0.1080    2.4860   -0.0930    8.6570 
