~VERSION INFORMATION
 VERS.                 2.0:   CWLS LOG ASCII STANDARD - VERSION 2.0
 WRAP.                  NO:   SINGLE LINE PER DEPTH STEP
 CREA.                 07/23/2021 12:08:25
#CREATED USING DSPetro VERSION 10ep.4.05.01 BY H227404 ON 07/23/2021 12:08:25
~WELL INFORMATION
#MNEM.UNIT       DATA                          DESCRIPTION MNEMONIC
#---------      ---------------------------   --------------------------
 STRT    .FT        500.0000                  : START DEPTH
 STOP    .FT        9050.0000                 : STOP DEPTH
 STEP    .FT        0.5000                    : STEP VALUE
 NULL    .      -999.0000                     : NULL VALUE
 DATE    .      07/23/2021                    : LAS file Creation Date
 WELL   .      3402920607                           : Well Name
 COMP   .      TRI-STATE PRODUCING COMPANY          : Company
 FLD    .      WILDCAT                              : Field
 STATE  .      OHIO                                 : State
 COUNT  .      USA                                  : Country
 API    .      34029206070000                       : API Number
 UWI    .      34029206070000                       : Unique Well Identifier (UWI)
 LOC    .      197' FSL & 245' FEL - SW/Q SECTION 7 : Location
 EPDAT  .      1299.7                               : Elevation of Permanent Datum
 GL     .      1299.7                               : GL Elevation
 RWS    .      0                                    : Def_Rw
 WST    .      0                                    : Def_Rwt
 CNTY   .      COLUMBIANA                           : County
 PROV   .                                           : Province
 MDEC   .      0                                    : Magnetic Declination
 SRVC   .      SCH                                  : Contractor
 GDAT   .      (Undefined)                          : Geodatum
 LONG   .      -80.8510498333639                    : Longitude
 LATI   .      40.7851609999604                     : Latitude
 COORDIN.                                           : Grid System
 XCOORD .                                           : X or East-West Coordinate
 YCOORD .                                           : Y or North-South Coordinate
~CURVE INFORMATION
#MNEM              UNIT       API CODE   Curve Type Comments
#----------  --------------- ----------  ---------- -----------
 DEPTH      .FT                        : Depth       
 CALI       .IN                        : Caliper     Caliper
 GR         .GAPI                      : GammaRay    Gamma Ray
 RT         .OHMM                      :             Latero-Log 8
 NPHI       .dec                       : Neutron     
 RHOB       .G/C3                      : Density     Bulk Density
 TOC        .%                         :             TOTAL ORGANIC CARBON
 DT         .US/F                      : Time        Transit Time
~A  DEPTH    CALI       GR        RT       NPHI      RHOB      TOC        DT    
# ...
7529.0000    7.8823  128.1705 -999.0000    0.0986    2.7040 -999.0000 -999.0000 
7529.5000    7.8868  131.4622 -999.0000    0.0972    2.6973 -999.0000 -999.0000 
7530.0000    7.8844  134.1227 -999.0000    0.0951    2.6897 -999.0000 -999.0000 
7530.5000    7.8839  136.6480 -999.0000    0.0944    2.6862 -999.0000 -999.0000 
7531.0000    7.8857  140.0064 -999.0000    0.0937    2.6941 -999.0000 -999.0000 
7531.5000    7.8859  140.7836 -999.0000    0.0930    2.6989 -999.0000 -999.0000 
7532.0000    7.8888  137.8597 -999.0000    0.0930    2.7000 -999.0000 -999.0000 
7532.5000    7.9474  137.9791 -999.0000    0.0916    2.7108 -999.0000 -999.0000 
7533.0000    7.9650  139.1428 -999.0000    0.0867    2.7267 -999.0000 -999.0000 
7533.5000    7.9645  137.2670 -999.0000    0.0902    2.7284 -999.0000 -999.0000 
7534.0000    7.9818  136.1209 -999.0000    0.0923    2.7173 -999.0000 -999.0000 
7534.5000    8.0052  135.0521 -999.0000    0.0888    2.7066 -999.0000 -999.0000 
7535.0000    8.0289  134.7844 -999.0000    0.0853    2.6975 -999.0000 -999.0000 
7535.5000    8.1237  135.8968 -999.0000    0.0902    2.6992 -999.0000 -999.0000 
7536.0000    8.2154  134.8716 -999.0000    0.0929    2.6846 -999.0000 -999.0000 
7536.5000    8.2767  133.8965 -999.0000    0.0943    2.6827 -999.0000 -999.0000 
7537.0000    8.3804  134.0603 -999.0000    0.1000    2.6925 -999.0000 -999.0000 
7537.5000    8.3995  135.0439 -999.0000    0.1028    2.7043 -999.0000 -999.0000 
7538.0000    8.3841  136.3888 -999.0000    0.0986    2.7068 -999.0000 -999.0000 
7538.5000    8.2164  139.9345 -999.0000    0.0972    2.6999 -999.0000 -999.0000 
7539.0000    7.9983  142.5542 -999.0000    0.0958    2.6956 -999.0000 -999.0000 
7539.5000    7.8656  139.7666 -999.0000    0.0944    2.7099 -999.0000 -999.0000 
7540.0000    7.8438  139.3298 -999.0000    0.0930    2.7079 -999.0000 -999.0000 
7540.5000    7.8471  139.4505 -999.0000    0.0930    2.7009 -999.0000 -999.0000 
7541.0000    7.8435  141.6129 -999.0000    0.0937    2.6990 -999.0000 -999.0000 
7541.5000    7.8454  141.6063 -999.0000    0.0916    2.6889 -999.0000 -999.0000 
7542.0000    7.8450  137.4848 -999.0000    0.0916    2.6848 -999.0000 -999.0000 
7542.5000    7.8448  135.3982 -999.0000    0.0916    2.6710 -999.0000 -999.0000 
7543.0000    7.8456  133.3337 -999.0000    0.0916    2.6672 -999.0000 -999.0000 
7543.5000    7.8447  132.9861 -999.0000    0.0944    2.6776 -999.0000 -999.0000 
7544.0000    7.8452  132.8503 -999.0000    0.0930    2.6867 -999.0000 -999.0000 
7544.5000    7.8472  133.4670 -999.0000    0.0902    2.6996 -999.0000 -999.0000 
7545.0000    7.8395  134.5784 -999.0000    0.0916    2.6983 -999.0000 -999.0000 
7545.5000    7.8816  135.3684 -999.0000    0.0888    2.7058 -999.0000 -999.0000 
7546.0000    7.8525  135.1277 -999.0000    0.0888    2.7110 -999.0000 -999.0000 
7546.5000    7.8464  137.4164 -999.0000    0.0916    2.6923 -999.0000 -999.0000 
7547.0000    7.8435  140.2208 -999.0000    0.0937    2.6846 -999.0000 -999.0000 
7547.5000    7.8462  137.5314 -999.0000    0.0972    2.6946 -999.0000 -999.0000 
7548.0000    7.8450  138.6053 -999.0000    0.0986    2.6939 -999.0000 -999.0000 
7548.5000    7.8452  140.6955 -999.0000    0.1028    2.6882 -999.0000 -999.0000 
7549.0000    7.8454  140.3979 -999.0000    0.1041    2.6912 -999.0000 -999.0000 
7549.5000    7.8449  140.8542 -999.0000    0.1000    2.7004 -999.0000 -999.0000 
7550.0000    7.8460  141.7135 -999.0000    0.0986    2.7027 -999.0000 -999.0000 
7550.5000    7.8443  140.7323 -999.0000    0.0986    2.7159 -999.0000 -999.0000 
7551.0000    7.8451  139.3271 -999.0000    0.0986    2.7230 -999.0000 -999.0000 
7551.5000    7.8490  139.5106 -999.0000    0.0986    2.7181 -999.0000 -999.0000 
7552.0000    7.8299  137.0290 -999.0000    0.1000    2.7123 -999.0000 -999.0000 
7552.5000    7.8585  132.9744 -999.0000    0.0986    2.7062 -999.0000 -999.0000 
7553.0000    7.8404  132.6153 -999.0000    0.0986    2.6991 -999.0000 -999.0000 
7553.5000    7.8540  137.7569 -999.0000    0.0986    2.6959 -999.0000 -999.0000 
7554.0000    7.8347  140.2264 -999.0000    0.0958    2.7030 -999.0000 -999.0000 
7554.5000    7.8954  140.6980 -999.0000    0.0916    2.7059 -999.0000 -999.0000 
7555.0000    7.8368  143.0146 -999.0000    0.0874    2.7043 -999.0000 -999.0000 
7555.5000    7.8504  143.1197 -999.0000    0.0888    2.6949 -999.0000 -999.0000 
7556.0000    7.8433  142.3764 -999.0000    0.0902    2.6893 -999.0000 -999.0000 
7556.5000    7.8452  142.4415 -999.0000    0.0916    2.6838 -999.0000 -999.0000 
7557.0000    7.8459  141.4275 -999.0000    0.0958    2.6717 -999.0000 -999.0000 
7557.5000    7.8449  145.4018 -999.0000    0.0944    2.6713 -999.0000 -999.0000 
7558.0000    7.8451  147.5055 -999.0000    0.0930    2.6730 -999.0000 -999.0000 
7558.5000    7.8461  145.8760 -999.0000    0.0902    2.6725 -999.0000 -999.0000 
7559.0000    7.8441  143.8751 -999.0000    0.0832    2.6766 -999.0000 -999.0000 
7559.5000    7.8452  141.4283 -999.0000    0.0817    2.6897 -999.0000 -999.0000 
7560.0000    7.8539  139.1108 -999.0000    0.0846    2.7043 -999.0000 -999.0000 
7560.5000    7.8776  136.8902 -999.0000    0.0902    2.7110 -999.0000 -999.0000 
7561.0000    7.8431  135.1193 -999.0000    0.0902    2.7080 -999.0000 -999.0000 
7561.5000    7.8504  133.5171 -999.0000    0.0888    2.7057 -999.0000 -999.0000 
7562.0000    7.8351  134.3623 -999.0000    0.0888    2.7043 -999.0000 -999.0000 
7562.5000    7.9062  134.5842 -999.0000    0.0909    2.7072 -999.0000 -999.0000 
7563.0000    7.8478  134.0086 -999.0000    0.0944    2.7030 -999.0000 -999.0000 
7563.5000    7.8498  135.3504 -999.0000    0.0930    2.6955 -999.0000 -999.0000 
7564.0000    7.8406  138.4816 -999.0000    0.0944    2.6934 -999.0000 -999.0000 
7564.5000    7.8726  138.8230 -999.0000    0.0958    2.7012 -999.0000 -999.0000 
7565.0000    7.9472  137.2428 -999.0000    0.0944    2.7023 -999.0000 -999.0000 
7565.5000    8.0823  136.9846 -999.0000    0.0944    2.7022 -999.0000 -999.0000 
7566.0000    8.1251  138.4349 -999.0000    0.0986    2.7118 -999.0000 -999.0000 
7566.5000    8.1391  143.1119 -999.0000    0.0986    2.7056 -999.0000 -999.0000 
7567.0000    8.0344  148.0727 -999.0000    0.1028    2.6896 -999.0000 -999.0000 
7567.5000    8.0750  148.4666 -999.0000    0.1028    2.6696 -999.0000 -999.0000 
7568.0000    8.3736  143.3216 -999.0000    0.1014    2.6600 -999.0000 -999.0000 
7568.5000    8.4349  141.3474 -999.0000    0.0972    2.6696 -999.0000 -999.0000 
7569.0000    8.4908  139.4311 -999.0000    0.0958    2.6906 -999.0000 -999.0000 
7569.5000    8.4415  138.0639 -999.0000    0.0958    2.6914 -999.0000 -999.0000 
7570.0000    8.3589  137.5563 -999.0000    0.0917    2.6838 -999.0000 -999.0000 
7570.5000    8.1619  139.2468 -999.0000    0.0861    2.6868 -999.0000 -999.0000 
7571.0000    7.9483  142.3090 -999.0000    0.0902    2.6900 -999.0000 -999.0000 
7571.5000    7.8778  144.5984 -999.0000    0.0944    2.6841 -999.0000 -999.0000 
7572.0000    7.8971  144.9475 -999.0000    0.0916    2.6841 -999.0000 -999.0000 
7572.5000    7.8962  146.4213 -999.0000    0.0916    2.6816 -999.0000 -999.0000 
7573.0000    7.8844  145.3649 -999.0000    0.0874    2.6738 -999.0000 -999.0000 
7573.5000    7.8795  140.0500 -999.0000    0.0860    2.6708 -999.0000 -999.0000 
7574.0000    7.9184  136.9897 -999.0000    0.0888    2.6712 -999.0000 -999.0000 
7574.5000    7.9245  134.4392 -999.0000    0.0860    2.6848 -999.0000 -999.0000 
7575.0000    7.9178  134.7407 -999.0000    0.0860    2.6882 -999.0000 -999.0000 
7575.5000    7.8782  132.2637 -999.0000    0.0846    2.6864 -999.0000 -999.0000 
7576.0000    7.8986  127.6544 -999.0000    0.0846    2.6808 -999.0000 -999.0000 
7576.5000    7.8970  122.6291 -999.0000    0.0832    2.6917 -999.0000 -999.0000 
7577.0000    7.8799  122.6168 -999.0000    0.0846    2.6945 -999.0000 -999.0000 
7577.5000    7.8908  125.7133 -999.0000    0.0832    2.6814 -999.0000 -999.0000 
7578.0000    7.8564  129.5542 -999.0000    0.0774    2.7048 -999.0000 -999.0000 
