~VERSION INFORMATION
 VERS.                 2.0:   CWLS LOG ASCII STANDARD - VERSION 2.0
 WRAP.                  NO:   SINGLE LINE PER DEPTH STEP
 CREA.                 07/23/2021 11:30:29
#CREATED USING DSPetro VERSION 10ep.4.05.01 BY H227404 ON 07/23/2021 11:30:29
~WELL INFORMATION
#MNEM.UNIT       DATA                          DESCRIPTION MNEMONIC
#---------      ---------------------------   --------------------------
 STRT    .FT        156.0000                  : START DEPTH
 STOP    .FT        9462.0000                 : STOP DEPTH
 STEP    .FT        0.5000                    : STEP VALUE
 NULL    .      -999.0000                     : NULL VALUE
 DATE    .      07/23/2021                    : LAS file Creation Date
 WELL   .      SNRG-0004         : Well Name
 COMP   .                        : Company
 FLD    .                        : Field
 API    .      SNRG-0004         : API Number
 UWI    .      SNRG-0004         : Unique Well Identifier (UWI)
 LOC    .                        : Location
 KB     .      1230.0            : KB Elevation
 RWS    .      0                 : Def_Rw
 WST    .      0                 : Def_Rwt
 PROV   .                        : Province
 MDEC   .      0                 : Magnetic Declination
 SRVC   .      UNKNOWN           : Contractor
 GDAT   .      WGS 84            : Geodatum
 LONG   .      -80.4115240001679 : Longitude
 LATI   .      40.7475300004747  : Latitude
 COORDIN.                        : Grid System
 XCOORD .                        : X or East-West Coordinate
 YCOORD .                        : Y or North-South Coordinate
~CURVE INFORMATION
#MNEM              UNIT       API CODE   Curve Type Comments
#----------  --------------- ----------  ---------- -----------
 DEPTH      .FT                        : Depth       
 AT10       .OHMM                      : ShalRes     12 Array Induction Two Foot Resistivity
 AT20       .OHMM                      : MedRes      13 Array Induction Two Foot Resistivity
 AT30       .OHMM                      : MedRes      14 Array Induction Two Foot Resistivity
 AT60       .OHMM                      : MedRes      15 Array Induction Two Foot Resistivity
 AT90       .OHMM                      : DeepRes     16 Array Induction Two Foot Resistivity
 GR         .API                       : GammaRay    
 PEFZ       .B/E                       : PEF         
 NPHI       .DECP                      : Neutron     neutron porosity
 RHOZ       .gm/cc                     : Density     
 DCAL       .in                        :             
 HCAL       .inch                      : Caliper     
~A  DEPTH    AT10      AT20      AT30      AT60      AT90       GR       PEFZ      NPHI      RHOZ      DCAL      HCAL   
# ...
1998.5000 1950.0000    0.4940    8.8290 1703.3130   21.7220   69.1840   10.0000    0.3330    2.3490   -4.7700    3.9800 
1999.0000 1950.0000    0.4920   10.0910 1950.0000   35.1060   67.2170   10.0000    0.3430    2.3470   -4.7920    3.9580 
1999.5000 1950.0000    0.4850    9.3730 1950.0000   46.4670   67.5620   10.0000    0.3200    2.3480   -4.7920    3.9580 
2000.0000 1950.0000    0.4750    7.3540 1950.0000   33.2410   64.3440   10.0000    0.3240    2.3370   -4.7700    3.9800 
2000.5000 1950.0000    0.4670    6.6000 1950.0000   37.2230   70.4420   10.0000    0.3280    2.3380   -4.7700    3.9800 
2001.0000 1950.0000    0.4680    6.7840 1950.0000   50.5470   72.1620   10.0000    0.3790    2.3340   -4.7920    3.9580 
2001.5000 1950.0000    0.4690    7.1600 1950.0000   50.3800   86.0630   10.0000    0.3920    2.3360   -4.7920    3.9580 
2002.0000 1950.0000    0.4710    7.1800 1950.0000   51.3530   88.4720   10.0000    0.4420    2.3330   -4.7700    3.9800 
2002.5000 1950.0000    0.4710    7.6220 1087.7061   55.3570   85.7180   10.0000    0.4060    2.3370   -4.7700    3.9800 
2003.0000 1950.0000    0.4690    7.5210  365.3560   32.6150   76.1080   10.0000    0.3700    2.3410   -4.7700    3.9800 
2003.5000 1950.0000    0.4730    6.7410  140.6200   23.9290   70.2570   10.0000    0.3040    2.3470   -4.7700    3.9800 
2004.0000 1950.0000    0.4660    6.1110   51.2600   16.2630   74.0430   10.0000    0.3480    2.3480   -4.7920    3.9580 
2004.5000 1950.0000    0.4800    5.3560   21.8030   10.5250   75.8930   10.0000    0.4090    2.3550   -4.7700    3.9800 
2005.0000 1950.0000    0.4740    4.8950   13.1510    7.6460   77.2700   10.0000    0.4380    2.3580   -4.7810    3.9690 
2005.5000 1950.0000    0.4950    6.1670   12.9900    9.2740   72.1070   10.0000    0.3900    2.3810   -4.7920    3.9580 
2006.0000 1950.0000    0.5110    3.9920    6.2320    5.2420   63.2790   10.0000    0.3160    2.4170   -4.7700    3.9800 
2006.5000 1950.0000    0.5030    3.3580    4.0230    3.2790   59.1950   10.0000    0.3230    2.4510   -4.7700    3.9800 
2007.0000 1950.0000    0.5340    5.8830   12.2160    7.3720   65.0470   10.0000    0.3720    2.4420   -4.7700    3.9800 
2007.5000 1950.0000    0.5820   11.9980   19.2170   13.3450   74.7370   10.0000    0.3980    2.4090   -4.7700    3.9800 
2008.0000 1950.0000    0.5860   14.2900   35.8030   14.4990   74.6900   10.0000    0.3970    2.3740   -4.7920    3.9580 
2008.5000 1950.0000    0.5780    9.0010   22.8840    9.2620   72.2090   10.0000    0.3570    2.3560   -4.7700    3.9800 
2009.0000 1950.0000    0.5640    9.3400   32.6990    8.7550   69.4570   10.0000    0.3660    2.3540   -4.7700    3.9800 
2009.5000 1950.0000    0.5550    8.9370   42.8890    7.9140   72.8990   10.0000    0.3540    2.3590   -4.7700    3.9800 
2010.0000 1950.0000    0.5470   10.5700   67.2210   13.0610   72.9590   10.0000    0.3600    2.3620   -4.7700    3.9800 
2010.5000 1950.0000    0.5340   12.4920  124.9740   22.0670   72.9590   10.0000    0.3190    2.3570   -4.7920    3.9580 
2011.0000 1950.0000    0.5190   13.9950  247.3380   34.8570   78.4510   10.0000    0.3000    2.3450   -4.7700    3.9800 
2011.5000 1950.0000    0.4960   10.3890  522.3300   23.5720   75.0210   10.0000    0.2940    2.3450   -4.7920    3.9580 
2012.0000 1950.0000    0.4740    8.5380 1073.7430   36.6840   75.0210   10.0000    0.3240    2.3440   -4.7700    3.9800 
2012.5000 1950.0000    0.4530    7.0870 1822.5620   53.6810   67.5670   10.0000    0.3280    2.3430   -4.7920    3.9580 
2013.0000 1950.0000    0.4390    6.8640 1950.0000   87.8880   74.7960   10.0000    0.3480    2.3380   -4.7920    3.9580 
2013.5000 1950.0000    0.4320    7.1770 1950.0000  148.1400   77.5490   10.0000    0.3430    2.3350   -4.7920    3.9580 
2014.0000 1950.0000    0.4330    6.8170 1950.0000  273.7460   78.9830   10.0000    0.3500    2.3330   -4.7920    3.9580 
2014.5000 1950.0000    0.4410    6.0790 1845.7900  530.7970   73.1310   10.0000    0.3260    2.3370   -4.7700    3.9800 
2015.0000 1950.0000    0.4600    5.7590 1496.0120  993.7430   72.7730   10.0000    0.3740    2.3350   -4.7700    3.9800 
2015.5000 1950.0000    0.4880    5.7820 1047.7870 1580.5260   68.8270   10.0000    0.3820    2.3350   -4.7920    3.9580 
2016.0000 1950.0000    0.5370    6.8910  607.8700 1203.6820   74.3340   10.0000    0.3800    2.3310   -4.7920    3.9580 
2016.5000 1950.0000    0.5920   11.2850  282.0900  393.5860   69.5290   10.0000    0.3240    2.3390   -4.7700    3.9800 
2017.0000 1950.0000    0.6470   13.1210  141.3610  150.9870   74.0490   10.0000    0.3380    2.3440   -4.7700    3.9800 
2017.5000 1950.0000    0.6910    9.2910   85.3930   79.5170   68.1970   10.0000    0.3440    2.3500   -4.7700    3.9800 
2018.0000 1950.0000    0.7320    9.8260   39.3570   58.7450   70.4220   10.0000    0.3430    2.3500   -4.7920    3.9580 
2018.5000 1950.0000    0.7620    8.0020   45.5410   32.6840   72.4420   10.0000    0.3320    2.3510   -4.7700    3.9800 
2019.0000 1950.0000    0.7730    7.4900   20.0910   13.0280   68.3120   10.0000    0.3100    2.3430   -4.7700    3.9800 
2019.5000 1950.0000    0.7920    6.2610   12.7160    8.7550   70.0320   10.0000    0.3520    2.3490   -4.7920    3.9580 
2020.0000 1950.0000    0.8140    6.9820   12.5440    8.3390   71.4090   10.0000    0.3660    2.3510   -4.7920    3.9580 
2020.5000 1950.0000    0.8640   10.5010   15.1770    8.9760   85.8650   10.0000    0.4060    2.3640   -4.7920    3.9580 
2021.0000 1950.0000    0.9280   18.5230   22.4680   14.6550   84.4320   10.0000    0.4090    2.3590   -4.7700    3.9800 
2021.5000 1950.0000    0.8750   22.7910   21.8500   11.3760   80.6450   10.0000    0.3810    2.3620   -4.7700    3.9800 
2022.0000 1950.0000    0.8760    7.7860   12.1240   10.4740   78.5800   10.0000    0.3520    2.3610   -4.7920    3.9580 
2022.5000 1950.0000    0.8430    8.3720   13.9920    9.5180   75.1400   10.0000    0.3190    2.3610   -4.7920    3.9580 
2023.0000 1950.0000    0.8040   12.4650   22.2940   12.6550   74.7960   10.0000    0.3450    2.3590   -4.7700    3.9800 
2023.5000 1950.0000    0.7820   10.9640   23.8670   10.0990   70.6650   10.0000    0.3510    2.3570   -4.7700    3.9800 
2024.0000 1950.0000    0.7690    7.8920   34.5100   14.0770   72.6720   10.0000    0.3340    2.3590   -4.7920    3.9580 
2024.5000 1950.0000    0.7630    7.2810   45.8870   17.9240   76.8020   10.0000    0.3770    2.3610   -4.7920    3.9580 
2025.0000 1950.0000    0.7700    8.0060   49.4670   20.1990   77.1470   10.0000    0.3760    2.3710   -4.7700    3.9800 
2025.5000 1950.0000    0.7760    8.2900   45.9360   17.0640   75.7130   10.0000    0.3990    2.3820   -4.7920    3.9580 
2026.0000 1950.0000    0.7870    8.2040   43.6900   19.6490   73.3040   10.0000    0.3280    2.3810   -4.7920    3.9580 
2026.5000 1950.0000    0.7990    9.3610   38.9560   16.5260   70.2060   10.0000    0.3370    2.3790   -4.7700    3.9800 
2027.0000 1950.0000    0.7950   10.3180   39.9800   17.4440   73.5820   10.0000    0.3590    2.3770   -4.7810    3.9690 
2027.5000 1950.0000    0.7720    8.9920   58.2490   14.9070   72.3670   10.0000    0.3590    2.3760   -4.7700    3.9800 
2028.0000 1950.0000    0.7520   10.2580   38.4530   13.4550   71.3350   10.0000    0.3630    2.3780   -4.7920    3.9580 
2028.5000 1950.0000    0.7330   13.2050   42.3100   11.8420   70.0350   10.0000    0.3120    2.3730   -4.7920    3.9580 
2029.0000 1950.0000    0.7010   16.4870   38.4530   13.1010   69.9760   10.0000    0.3240    2.3740   -4.7700    3.9800 
2029.5000 1950.0000    0.6360   11.7740   53.8450   13.0860   71.6260   10.0000    0.2860    2.3710   -4.7700    3.9800 
2030.0000 1950.0000    0.5820    9.5840   47.6320   10.7530   70.7550   10.0000    0.2940    2.3730   -4.7810    3.9690 
2030.5000 1950.0000    0.5360    9.1930   58.1490    8.9900   65.1450   10.0000    0.2940    2.3780   -4.7700    3.9800 
2031.0000 1950.0000    0.4930    9.1100   96.1600   13.2020   62.4620   10.0000    0.2990    2.3820   -4.7700    3.9800 
2031.5000 1950.0000    0.4650    8.1520  136.7110   14.4760   65.3980   10.0000    0.3030    2.3910   -4.7700    3.9800 
