~VERSION INFORMATION
 VERS.                 2.0:   CWLS LOG ASCII STANDARD - VERSION 2.0
 WRAP.                  NO:   SINGLE LINE PER DEPTH STEP
 CREA.                 07/23/2021 11:30:29
#CREATED USING DSPetro VERSION 10ep.4.05.01 BY H227404 ON 07/23/2021 11:30:29
~WELL INFORMATION
#MNEM.UNIT       DATA                          DESCRIPTION MNEMONIC
#---------      ---------------------------   --------------------------
 STRT    .FT        156.0000                  : START DEPTH
 STOP    .FT        9462.0000                 : STOP DEPTH
 STEP    .FT        0.5000                    : STEP VALUE
 NULL    .      -999.0000                     : NULL VALUE
 DATE    .      07/23/2021                    : LAS file Creation Date
 WELL   .      SNRG-0004         : Well Name
 COMP   .                        : Company
 FLD    .                        : Field
 API    .      SNRG-0004         : API Number
 UWI    .      SNRG-0004         : Unique Well Identifier (UWI)
 LOC    .                        : Location
 KB     .      1230.0            : KB Elevation
 RWS    .      0                 : Def_Rw
 WST    .      0                 : Def_Rwt
 PROV   .                        : Province
 MDEC   .      0                 : Magnetic Declination
 SRVC   .      UNKNOWN           : Contractor
 GDAT   .      WGS 84            : Geodatum
 LONG   .      -80.4115240001679 : Longitude
 LATI   .      40.7475300004747  : Latitude
 COORDIN.                        : Grid System
 XCOORD .                        : X or East-West Coordinate
 YCOORD .                        : Y or North-South Coordinate
~CURVE INFORMATION
#MNEM              UNIT       API CODE   Curve Type Comments
#----------  --------------- ----------  ---------- -----------
 DEPTH      .FT                        : Depth       
 AT10       .OHMM                      : ShalRes     12 Array Induction Two Foot Resistivity
 AT20       .OHMM                      : MedRes      13 Array Induction Two Foot Resistivity
 AT30       .OHMM                      : MedRes      14 Array Induction Two Foot Resistivity
 AT60       .OHMM                      : MedRes      15 Array Induction Two Foot Resistivity
 AT90       .OHMM                      : DeepRes     16 Array Induction Two Foot Resistivity
 GR         .API                       : GammaRay    
 PEFZ       .B/E                       : PEF         
 NPHI       .DECP                      : Neutron     neutron porosity
 RHOZ       .gm/cc                     : Density     
 DCAL       .in                        :             
 HCAL       .inch                      : Caliper     
~A  DEPTH    AT10      AT20      AT30      AT60      AT90       GR       PEFZ      NPHI      RHOZ      DCAL      HCAL   
# ...
5717.0000  111.2950  179.7260  607.3450  640.1940  331.8540   19.2690    6.9850    0.0070    2.5580    0.6230    9.3730 
5717.5000  103.3020  148.6980  152.5100  184.7490  176.5660   22.9400    6.4670    0.0120    2.7770   -0.0350    8.7150 
5718.0000   76.9620   66.4880   97.2700  119.2240  135.5140   24.6680    6.0950    0.0130    2.7870   -0.1740    8.5760 
5718.5000   48.2670   57.1050   68.4160   82.2030  104.3100   27.0110    5.9720    0.0170    2.7150   -0.1740    8.5760 
5719.0000   34.3490   41.4310   49.8650   56.6420   70.6360   28.0050    5.9990    0.0290    2.6320   -0.1670    8.5830 
5719.5000   26.3810   35.8460   35.5440   35.3990   48.3900   33.1680    5.8800    0.0480    2.6070   -0.0570    8.6930 
5720.0000   23.4080   29.7340   28.6850   28.4480   42.9420   34.9440    5.4860    0.0740    2.5950    0.0310    8.7810 
5720.5000   22.6950   34.0160   33.5760   33.4700   43.3080   37.3920    5.0540    0.0950    2.5760   -0.0680    8.6820 
5721.0000   35.3680   41.9210   39.8550   40.9170   55.8460   34.7420    4.8550    0.0980    2.5850   -0.0570    8.6930 
5721.5000   50.7010   64.4510   60.4220   61.7110   72.9550   29.5900    5.0610    0.0680    2.6710   -0.1590    8.5910 
5722.0000   97.2700  124.7180  114.3780   96.9960  113.4220   23.8540    5.3560    0.0300    2.7900   -0.2400    8.5100 
5722.5000  116.8940  149.0150  127.8360  111.0520  145.3090   19.3900    5.6330    0.0080    2.8720   -0.2540    8.4960 
5723.0000  104.8690  127.0530  128.3000  147.1700  118.0790   19.5050    5.7170    0.0030    2.8990   -0.2430    8.5070 
5723.5000   79.0430   98.4180  111.6340  135.5500   94.5620   20.6520    5.7690    0.0030    2.8990   -0.2320    8.5180 
5724.0000   71.8280   89.6910   94.7290  105.5840   75.0420   21.9150    5.8000    0.0030    2.8960   -0.2470    8.5030 
5724.5000   64.1880   82.8810   86.4290  110.3610   71.0510   24.4300    5.9630    0.0030    2.8950   -0.3090    8.4410 
5725.0000   67.9840   94.5550  100.4250  111.1770   78.3370   23.3970    6.0660    0.0010    2.8880   -0.2760    8.4740 
5725.5000   73.3910   92.4700  101.2230  106.9540   78.4280   21.5610    6.1400   -0.0010    2.8920   -0.2760    8.4740 
5726.0000   87.4030  104.8700  130.0790  123.6800   92.0280   18.8110    6.0810   -0.0020    2.8890   -0.2620    8.4880 
5726.5000   86.8840   90.3850  124.9300  111.7010  102.3270   19.0400    6.0420   -0.0020    2.8470   -0.2840    8.4670 
5727.0000   88.6980   70.0890   90.5890   90.8700   65.2930   22.0230    6.0550    0.0010    2.7520   -0.2760    8.4740 
5727.5000   67.1470   51.3760   71.7330   65.1950   46.9700   26.1600    6.0900    0.0150    2.6450   -0.2540    8.4960 
5728.0000   56.8300   61.9830   53.2630   55.6290   36.4880   28.1100    6.1130    0.0580    2.6170   -0.2250    8.5250 
5728.5000   34.9980   40.9230   39.3010   46.6390   29.2020   26.3450    5.9170    0.0860    2.6650   -0.2210    8.5290 
5729.0000   29.5710   33.1750   29.7710   31.9110   21.2570   24.3940    5.7110    0.0760    2.7510   -0.2760    8.4740 
5729.5000   30.5060   35.6940   34.3910   37.7310   23.1200   21.9850    5.5190    0.0300    2.8320   -0.2470    8.5030 
5730.0000   33.8630   53.1680   47.6600   51.2170   23.7290   22.0990    5.5240    0.0100    2.8750   -0.2540    8.4960 
5730.5000   48.1320   74.3880   40.7360   45.5660   41.9760   21.2960    5.5260    0.0040    2.8760   -0.2540    8.4960 
5731.0000   33.4510   47.2570   27.9940   30.7700   23.9560   22.3290    5.5210    0.0080    2.8310   -0.2430    8.5070 
5731.5000   15.1240   17.8010   16.2720   17.2480   15.4350   24.2000    5.4920    0.0410    2.7580   -0.2430    8.5070 
5732.0000    6.6860    7.0780    7.7720    8.3270    8.4830   26.6090    5.5250    0.1150    2.7070   -0.1960    8.5540 
5732.5000    5.6140    5.8650    6.6210    6.9170    7.1140   27.8780    5.5510    0.1480    2.7040   -0.2210    8.5290 
5733.0000    5.8140    6.5980    7.9240    8.0000    9.3520   26.7320    5.4750    0.1590    2.7260   -0.2650    8.4850 
5733.5000    6.5390    7.3840    7.9460    8.6450    8.1490   27.1910    5.3970    0.1900    2.6900   -0.2320    8.5180 
5734.0000    4.0950    4.4770    5.1370    5.6950    6.5400   30.7290    5.4690    0.2330    2.6200   -0.1670    8.5830 
5734.5000    2.9340    3.0610    3.2690    3.4550    3.4280   36.4700    5.6090    0.2270    2.5470    0.0090    8.7590 
5735.0000    3.8110    3.3520    3.6720    3.9510    3.7760   36.5840    5.5590    0.1670    2.5820    0.7250    9.4750 
5735.5000    5.0650    6.2720    7.7870    9.2650    6.9060   30.7390    5.4380    0.1050    2.6700   -0.1810    8.5690 
5736.0000    9.7770   12.8950   18.9790   23.5090   15.9200   25.6940    5.6070    0.0640    2.7810   -0.2540    8.4960 
5736.5000    7.7480   15.3680   26.8220   42.0190   21.0980   24.8910    5.9970    0.0400    2.8090   -0.2540    8.4960 
5737.0000    7.3190   12.3520   21.1730   40.7700   19.8800   27.9860    6.3470    0.0630    2.7740   -0.2180    8.5320 
5737.5000    7.0560   13.1620   29.7570   49.2380   32.9770   26.7870    6.5610    0.0910    2.7090   -0.2030    8.5470 
5738.0000    6.0990    9.6980   17.0820   22.5510   23.5380   26.3280    7.1440    0.1110    2.5860   -0.1590    8.5910 
5738.5000    3.5000    4.5380    6.8960   10.4140   11.3510   27.1310    8.1930    0.1770    2.4010   -0.1010    8.6490 
5739.0000    2.1490    2.4540    2.9640    3.7300    3.9670   32.9190    8.9200    0.2430    2.2930    0.5020    9.2520 
5739.5000    1.5980    1.7560    1.9320    2.3050    2.5700   34.9250    8.6220    0.2870    2.3440    1.2000    9.9500 
5740.0000    1.4730    1.5730    1.7170    2.0840    2.4620   38.9500    7.7620    0.2630    2.4360    1.2730   10.0230 
5740.5000    1.6420    1.7270    1.9010    2.1890    2.6970   36.5410    7.5160    0.2540    2.3970    0.3160    9.0660 
5741.0000    2.0830    2.2610    2.4070    2.7320    3.4260   37.9650    8.0470    0.2560    2.3590    0.3670    9.1170 
5741.5000    2.6020    3.0180    3.3540    3.7720    4.9400   36.2440    8.3480    0.2370    2.4270   -0.0130    8.7370 
5742.0000    3.1290    3.9490    3.7540    4.1370    5.7450   36.7290    7.7800    0.1790    2.5360    0.0090    8.7590 
5742.5000    4.0470    5.6270    5.1280    5.6340    9.8930   33.3000    6.9030    0.1070    2.6190    0.1840    8.9340 
5743.0000    7.1280   11.9670   10.1970   12.4040   20.5160   33.3000    6.4250    0.0770    2.6310   -0.2000    8.5510 
5743.5000   14.6940   22.3440   26.2470   38.1830   56.0770   29.7430    6.6000    0.0630    2.6510   -0.2760    8.4740 
5744.0000   20.7400   25.3320   47.7650   82.9720   44.7930   28.8250    6.9210    0.0520    2.6290   -0.2540    8.4960 
5744.5000   36.4910   31.1630   52.6910   58.9240  144.2600   26.0720    7.1860    0.0500    2.6010   -0.2980    8.4520 
5745.0000   47.3120   19.4330   50.9690   68.5180   57.4000   26.9630    7.1730    0.0540    2.5920   -0.3420    8.4080 
5745.5000   27.4590    9.8450   16.2760   19.1490   29.3400   26.5040    7.4990    0.0490    2.5830   -0.1560    8.5940 
5746.0000   12.9400    5.5760    6.3320    6.7300    8.9460   27.7110    8.2930    0.0640    2.4210   -0.1780    8.5730 
5746.5000    4.3060    3.6890    3.4260    3.4760    4.1490   29.4320    9.2770    0.1370    2.1790   -0.1670    8.5830 
5747.0000    2.1820    2.1060    2.0320    2.0540    2.5020   32.6440    9.8850    0.3070    2.0220    2.7050   11.4550 
5747.5000    1.4590    1.4610    1.4350    1.4720    1.6500   32.8140    9.9240    0.5300    2.0850    8.6680   17.4180 
5748.0000    1.2910    1.3520    1.3130    1.3830    1.5270   31.7820    9.0800    0.6250    2.2690   12.6430   21.3930 
5748.5000    1.6700    1.8700    1.6920    1.7850    1.9350   28.3960    7.6880    0.4830    2.4820   14.0720   22.8220 
5749.0000    2.8220    3.2900    2.7240    2.8830    3.0340   23.4620    6.2090    0.2540    2.6570   14.3790   23.1280 
5749.5000    5.2470    3.7570    3.4780    4.1640    4.1770   20.7080    5.4380    0.1680    2.7720   -0.2400    8.5100 
5750.0000    9.1290    4.7060    5.3950    6.5130    5.4890   20.1940    5.2220    0.0980    2.7780   -0.2320    8.5180 
