~VERSION INFORMATION
 VERS.                 2.0:   CWLS LOG ASCII STANDARD - VERSION 2.0
 WRAP.                  NO:   SINGLE LINE PER DEPTH STEP
 CREA.                 07/23/2021 12:08:25
#CREATED USING DSPetro VERSION 10ep.4.05.01 BY H227404 ON 07/23/2021 12:08:25
~WELL INFORMATION
#MNEM.UNIT       DATA                          DESCRIPTION MNEMONIC
#---------      ---------------------------   --------------------------
 STRT    .FT        500.0000                  : START DEPTH
 STOP    .FT        9050.0000                 : STOP DEPTH
 STEP    .FT        0.5000                    : STEP VALUE
 NULL    .      -999.0000                     : NULL VALUE
 DATE    .      07/23/2021                    : LAS file Creation Date
 WELL   .      3402920607                           : Well Name
 COMP   .      TRI-STATE PRODUCING COMPANY          : Company
 FLD    .      WILDCAT                              : Field
 STATE  .      OHIO                                 : State
 COUNT  .      USA                                  : Country
 API    .      34029206070000                       : API Number
 UWI    .      34029206070000                       : Unique Well Identifier (UWI)
 LOC    .      197' FSL & 245' FEL - SW/Q SECTION 7 : Location
 EPDAT  .      1299.7                               : Elevation of Permanent Datum
 GL     .      1299.7                               : GL Elevation
 RWS    .      0                                    : Def_Rw
 WST    .      0                                    : Def_Rwt
 CNTY   .      COLUMBIANA                           : County
 PROV   .                                           : Province
 MDEC   .      0                                    : Magnetic Declination
 SRVC   .      SCH                                  : Contractor
 GDAT   .      (Undefined)                          : Geodatum
 LONG   .      -80.8510498333639                    : Longitude
 LATI   .      40.7851609999604                     : Latitude
 COORDIN.                                           : Grid System
 XCOORD .                                           : X or East-West Coordinate
 YCOORD .                                           : Y or North-South Coordinate
~CURVE INFORMATION
#MNEM              UNIT       API CODE   Curve Type Comments
#----------  --------------- ----------  ---------- -----------
 DEPTH      .FT                        : Depth       
 CALI       .IN                        : Caliper     Caliper
 GR         .GAPI                      : GammaRay    Gamma Ray
 RT         .OHMM                      :             Latero-Log 8
 NPHI       .dec                       : Neutron     
 RHOB       .G/C3                      : Density     Bulk Density
 TOC        .%                         :             TOTAL ORGANIC CARBON
 DT         .US/F                      : Time        Transit Time
~A  DEPTH    CALI       GR        RT       NPHI      RHOB      TOC        DT    
# ...
7677.5000    7.9604  107.2616  301.7181    0.0601    2.6166 -999.0000 -999.0000 
7678.0000    8.0002  107.5144  285.6222    0.0601    2.6039 -999.0000 -999.0000 
7678.5000    7.9708  110.1327  251.3254    0.0586    2.5972 -999.0000 -999.0000 
7679.0000    7.9673  114.0932  246.7742    0.0586    2.6057 -999.0000 -999.0000 
7679.5000    7.9590  119.2901  243.7613    0.0601    2.5977 -999.0000 -999.0000 
7680.0000    7.9948  119.3779  250.0528    0.0608    2.5884 -999.0000 -999.0000 
7680.5000    7.9831  119.3123  256.5067    0.0615    2.6073 -999.0000 -999.0000 
7681.0000    7.9742  118.4303  263.1272    0.0629    2.6207 -999.0000 -999.0000 
7681.5000    8.0057  115.4995  270.6441    0.0658    2.6262 -999.0000 -999.0000 
7682.0000    8.0072  113.9638  270.2374    0.0658    2.6184 -999.0000 -999.0000 
7682.5000    7.9713  111.6588  289.0120    0.0673    2.6178 -999.0000 -999.0000 
7683.0000    7.9642  111.3251  330.2845    0.0673    2.6192 -999.0000 -999.0000 
7683.5000    7.9714  113.5471  303.2581    0.0673    2.6270 -999.0000 -999.0000 
7684.0000    8.0086  115.8188  265.6841    0.0673    2.6347 -999.0000 -999.0000 
7684.5000    7.9956  119.8213  232.6754    0.0673    2.6350 -999.0000 -999.0000 
7685.0000    7.9584  119.1148  205.5582    0.0687    2.6428 -999.0000 -999.0000 
7685.5000    7.9681  117.3689  198.1809    0.0731    2.6232 -999.0000 -999.0000 
7686.0000    7.9699  118.0619  198.1809    0.0731    2.6112 -999.0000 -999.0000 
7686.5000    8.0007  120.6126  187.6084    0.0716    2.6127 -999.0000 -999.0000 
7687.0000    7.9662  122.7589  184.2111    0.0716    2.6119 -999.0000 -999.0000 
7687.5000    8.0099  121.2935  177.5999    0.0687    2.5922 -999.0000 -999.0000 
7688.0000    8.0023  121.3636  189.9798    0.0687    2.5972 -999.0000 -999.0000 
7688.5000    8.0038  122.8346  204.7433    0.0687    2.6085 -999.0000 -999.0000 
7689.0000    8.0046  121.5071  220.6539    0.0673    2.6166 -999.0000 -999.0000 
7689.5000    8.0036  119.1515  237.8011    0.0687    2.6008 -999.0000 -999.0000 
7690.0000    8.0041  119.5844  256.2807    0.0678    2.5676 -999.0000 -999.0000 
7690.5000    8.0039  116.5293  276.1964    0.0658    2.5728 -999.0000 -999.0000 
7691.0000    8.0040  113.6451  312.9496    0.0659    2.5808 -999.0000 -999.0000 
7691.5000    8.0041  111.5270  296.0200    0.0673    2.5934 -999.0000 -999.0000 
7692.0000    8.0035  111.5438  250.1950    0.0687    2.6057 -999.0000 -999.0000 
7692.5000    8.0050  111.4663  211.4640    0.0672    2.6066 -999.0000 -999.0000 
7693.0000    8.0034  111.6125  174.3838    0.0686    2.6062 -999.0000 -999.0000 
7693.5000    8.0021  112.5578  179.1613    0.0672    2.6093 -999.0000 -999.0000 
7694.0000    8.0161  113.3579  193.6910    0.0686    2.6244 -999.0000 -999.0000 
7694.5000    8.0158  115.5065  209.3989    0.0701    2.6352 -999.0000 -999.0000 
7695.0000    7.9999  117.8240  226.3808    0.0702    2.6345 -999.0000 -999.0000 
7695.5000    8.0101  122.5454  237.9177    0.0687    2.6360 -999.0000 -999.0000 
7696.0000    7.9679  123.7973  219.1583    0.0658    2.6322 -999.0000 -999.0000 
7696.5000    7.9897  124.0292  201.2623    0.0644    2.6070 -999.0000 -999.0000 
7697.0000    7.9583  124.5367  187.6084    0.0658    2.6149 -999.0000 -999.0000 
7697.5000    7.9662  125.9334  201.4673    0.0687    2.6081 -999.0000 -999.0000 
7698.0000    7.9745  125.9618  217.1422    0.0702    2.5980 -999.0000 -999.0000 
7698.5000    7.9758  126.5375  217.1422    0.0673    2.5632 -999.0000 -999.0000 
7699.0000    7.9631  125.0127  213.2101    0.0673    2.5697 -999.0000 -999.0000 
7699.5000    7.9633  120.0586  201.8358    0.0673    2.5935 -999.0000 -999.0000 
7700.0000    7.9653  117.4733  189.3305    0.0668    2.6076 -999.0000 -999.0000 
7700.5000    7.9638  117.9297  183.9229    0.0661    2.6141 -999.0000 -999.0000 
7701.0000    7.9644  118.1047  177.4043    0.0658    2.6236 -999.0000 -999.0000 
7701.5000    7.9643  119.5863  177.4313    0.0629    2.6333 -999.0000 -999.0000 
7702.0000    7.9642  118.7445  181.0251    0.0622    2.6310 -999.0000 -999.0000 
7702.5000    7.9643  114.2603  183.9837    0.0644    2.6146 -999.0000 -999.0000 
7703.0000    7.9643  112.2038  187.8364    0.0658    2.6239 -999.0000 -999.0000 
7703.5000    7.9643  112.2134  187.4114    0.0643    2.6483 -999.0000 -999.0000 
7704.0000    7.9643  115.6865  184.1158    0.0664    2.6723 -999.0000 -999.0000 
7704.5000    7.9643  120.2267  184.2111    0.0657    2.6899 -999.0000 -999.0000 
7705.0000    7.9643  123.4132  180.8753    0.0671    2.6901 -999.0000 -999.0000 
7705.5000    7.9643  125.7110  180.8753    0.0657    2.6811 -999.0000 -999.0000 
7706.0000    7.9643  123.9910  177.5999    0.0679    2.6544 -999.0000 -999.0000 
7706.5000    7.9643  121.8154  177.5999    0.0657    2.6450 -999.0000 -999.0000 
7707.0000    7.9643  120.1569  174.3838    0.0643    2.6448 -999.0000 -999.0000 
7707.5000    7.9643  119.5200  168.1253    0.0643    2.6411 -999.0000 -999.0000 
7708.0000    7.9643  123.3672  168.1253    0.0636    2.6408 -999.0000 -999.0000 
7708.5000    7.9643  127.9214  171.2260    0.0643    2.6368 -999.0000 -999.0000 
7709.0000    7.9643  126.4951  176.0810    0.0665    2.6271 -999.0000 -999.0000 
7709.5000    7.9643  127.3912  195.2243    0.0686    2.6287 -999.0000 -999.0000 
7710.0000    7.9644  129.0582  216.4489    0.0681    2.6346 -999.0000 -999.0000 
7710.5000    7.9659  132.1277  237.9177    0.0673    2.6344 -999.0000 -999.0000 
7711.0000    7.9673  133.1083  233.6094    0.0687    2.6308 -999.0000 -999.0000 
7711.5000    7.9688  131.3341  229.3791    0.0687    2.6178 -999.0000 -999.0000 
7712.0000    7.9702  125.1758  246.7742    0.0702    2.6122 -999.0000 -999.0000 
7712.5000    7.9716  121.2954  246.7742    0.0702    2.6077 -999.0000 -999.0000 
7713.0000    7.9731  121.2006  246.7742    0.0687    2.6043 -999.0000 -999.0000 
7713.5000    7.9745  120.3481  242.3055    0.0702    2.5994 -999.0000 -999.0000 
7714.0000    7.9759  119.9292  237.9177    0.0716    2.6075 -999.0000 -999.0000 
7714.5000    7.9773  118.6506  237.9177    0.0687    2.6148 -999.0000 -999.0000 
7715.0000    7.9788  119.4156  222.0468    0.0687    2.6270 -999.0000 -999.0000 
7715.5000    7.9802  120.9093  200.5286    0.0702    2.6346 -999.0000 -999.0000 
7716.0000    7.9816  121.7722  180.8760    0.0687    2.6478 -999.0000 -999.0000 
7716.5000    7.9831  124.9675  159.2508    0.0687    2.6564 -999.0000 -999.0000 
7717.0000    7.9845  126.8812  161.9766    0.0723    2.6526 -999.0000 -999.0000 
7717.5000    7.9859  126.7172  165.0202    0.0745    2.6481 -999.0000 -999.0000 
7718.0000    7.9874  125.7796  171.2265    0.0752    2.6322 -999.0000 -999.0000 
7718.5000    7.9888  126.6461  164.0130    0.0774    2.6272 -999.0000 -999.0000 
7719.0000    7.9902  124.9212  156.6901    0.0767    2.6203 -999.0000 -999.0000 
7719.5000    7.9917  123.9884  149.6762    0.0745    2.6169 -999.0000 -999.0000 
7720.0000    7.9931  123.2118  145.2583    0.0738    2.6048 -999.0000 -999.0000 
7720.5000    7.9945  122.5994  145.2583    0.0745    2.6069 -999.0000 -999.0000 
7721.0000    7.9960  121.8801  145.2583    0.0716    2.6156 -999.0000 -999.0000 
7721.5000    7.9974  121.0567  140.0452    0.0702    2.6282 -999.0000 -999.0000 
7722.0000    7.9987  122.3759  135.0191    0.0723    2.6302 -999.0000 -999.0000 
7722.5000    8.0006  123.9754  135.0191    0.0730    2.6304 -999.0000 -999.0000 
7723.0000    8.0016  123.3724  135.0191    0.0723    2.6270 -999.0000 -999.0000 
7723.5000    8.0028  122.6175  135.0670    0.0701    2.6136 -999.0000 -999.0000 
7724.0000    8.0061  122.7747  134.9227    0.0716    2.6107 -999.0000 -999.0000 
7724.5000    7.9999  125.8189  134.8456    0.0716    2.6003 -999.0000 -999.0000 
7725.0000    8.0352  129.0227  135.2046    0.0716    2.5874 -999.0000 -999.0000 
7725.5000    8.0462  131.5151  132.2895    0.0716    2.5938 -999.0000 -999.0000 
7726.0000    8.0373  134.4192  132.8546    0.0709    2.6051 -999.0000 -999.0000 
7726.5000    7.9763  133.5665  139.8188    0.0716    2.6074 -999.0000 -999.0000 
