~VERSION INFORMATION
 VERS.                 2.0:   CWLS LOG ASCII STANDARD - VERSION 2.0
 WRAP.                  NO:   SINGLE LINE PER DEPTH STEP
 CREA.                 07/23/2021 11:30:29
#CREATED USING DSPetro VERSION 10ep.4.05.01 BY H227404 ON 07/23/2021 11:30:29
~WELL INFORMATION
#MNEM.UNIT       DATA                          DESCRIPTION MNEMONIC
#---------      ---------------------------   --------------------------
 STRT    .FT        156.0000                  : START DEPTH
 STOP    .FT        9462.0000                 : STOP DEPTH
 STEP    .FT        0.5000                    : STEP VALUE
 NULL    .      -999.0000                     : NULL VALUE
 DATE    .      07/23/2021                    : LAS file Creation Date
 WELL   .      SNRG-0004         : Well Name
 COMP   .                        : Company
 FLD    .                        : Field
 API    .      SNRG-0004         : API Number
 UWI    .      SNRG-0004         : Unique Well Identifier (UWI)
 LOC    .                        : Location
 KB     .      1230.0            : KB Elevation
 RWS    .      0                 : Def_Rw
 WST    .      0                 : Def_Rwt
 PROV   .                        : Province
 MDEC   .      0                 : Magnetic Declination
 SRVC   .      UNKNOWN           : Contractor
 GDAT   .      WGS 84            : Geodatum
 LONG   .      -80.4115240001679 : Longitude
 LATI   .      40.7475300004747  : Latitude
 COORDIN.                        : Grid System
 XCOORD .                        : X or East-West Coordinate
 YCOORD .                        : Y or North-South Coordinate
~CURVE INFORMATION
#MNEM              UNIT       API CODE   Curve Type Comments
#----------  --------------- ----------  ---------- -----------
 DEPTH      .FT                        : Depth       
 AT10       .OHMM                      : ShalRes     12 Array Induction Two Foot Resistivity
 AT20       .OHMM                      : MedRes      13 Array Induction Two Foot Resistivity
 AT30       .OHMM                      : MedRes      14 Array Induction Two Foot Resistivity
 AT60       .OHMM                      : MedRes      15 Array Induction Two Foot Resistivity
 AT90       .OHMM                      : DeepRes     16 Array Induction Two Foot Resistivity
 GR         .API                       : GammaRay    
 PEFZ       .B/E                       : PEF         
 NPHI       .DECP                      : Neutron     neutron porosity
 RHOZ       .gm/cc                     : Density     
 DCAL       .in                        :             
 HCAL       .inch                      : Caliper     
~A  DEPTH    AT10      AT20      AT30      AT60      AT90       GR       PEFZ      NPHI      RHOZ      DCAL      HCAL   
# ...
4477.5000   17.5020   18.4110   18.8720   19.9480   20.3540  134.7460    4.1510    0.2550    2.6860   -0.1780    8.5730 
4478.0000   16.4570   17.3190   17.6080   18.8230   19.0930  135.6860    4.0150    0.2570    2.6810   -0.1670    8.5830 
4478.5000   16.4590   17.4770   17.9720   18.9510   19.2710  138.0020    3.9800    0.2430    2.6790   -0.1780    8.5730 
4479.0000   17.1450   18.1410   18.3540   19.4050   19.7290  139.4930    3.9800    0.2520    2.6790   -0.1300    8.6200 
4479.5000   17.6650   18.6730   18.9920   20.0870   20.3700  135.5520    4.0330    0.2440    2.6720   -0.1740    8.5760 
4480.0000   17.6550   18.6530   19.0850   20.3050   20.4880  132.7070    4.0900    0.2440    2.6660   -0.1450    8.6050 
4480.5000   17.3070   17.9050   18.5520   19.7830   19.9970  132.3920    4.1430    0.2270    2.6600   -0.1670    8.5830 
4481.0000   16.8060   17.4180   17.9770   19.2030   19.4370  136.4030    4.1560    0.2320    2.6630   -0.1590    8.5910 
4481.5000   16.4160   17.3450   17.8140   19.0620   19.1230  140.1900    4.1810    0.2350    2.6540   -0.1890    8.5620 
4482.0000   16.3750   17.1150   17.6560   18.8940   19.0210  137.9810    4.1720    0.2440    2.6520   -0.1890    8.5620 
4482.5000   16.2070   16.9050   17.2860   18.4060   18.4380  140.5190    4.2060    0.2390    2.6640   -0.1890    8.5620 
4483.0000   15.2350   15.9230   16.3310   17.3960   17.3780  142.9280    4.1960    0.2430    2.6770   -0.1890    8.5620 
4483.5000   14.4340   15.1330   15.5000   16.5100   16.5140  140.6330    4.1990    0.2280    2.6830   -0.2030    8.5470 
4484.0000   14.1520   14.8600   15.1370   16.0370   16.0700  139.0120    4.1580    0.2290    2.6760   -0.2250    8.5250 
4484.5000   13.8550   14.5970   14.8970   15.9630   15.6850  133.6200    4.1440    0.2290    2.6840   -0.1560    8.5940 
4485.0000   13.5720   14.3010   14.4950   15.4660   15.2200  138.1860    4.2160    0.2420    2.6810   -0.1590    8.5910 
4485.5000   12.8390   13.5590   13.7290   14.6970   14.4240  140.1820    4.2960    0.2500    2.6790   -0.1670    8.5830 
4486.0000   12.8400   13.7550   14.1120   15.2360   14.9030  134.7890    4.3490    0.2300    2.6840   -0.2100    8.5400 
4486.5000   14.1500   14.9370   15.4240   16.7600   16.2840  130.6610    4.3060    0.2330    2.7050   -0.2540    8.4960 
4487.0000   15.0880   15.9290   16.3480   17.5890   17.3370  124.8100    4.2290    0.2250    2.7000   -0.1890    8.5620 
4487.5000   13.8570   14.4330   14.8830   16.1510   15.9020  129.1690    4.1690    0.2440    2.6760   -0.1810    8.5690 
4488.0000   13.0340   13.6660   14.0310   15.2670   15.0360  131.4850    4.1300    0.2420    2.6500   -0.1780    8.5730 
4488.5000   12.9340   13.6150   14.0000   15.3010   15.2500  133.2650    4.1200    0.2420    2.6560   -0.1560    8.5940 
4489.0000   13.2100   13.9030   14.3480   15.5210   15.6350  139.6900    4.1420    0.2340    2.6630   -0.1590    8.5910 
4489.5000   13.1070   13.9580   14.2460   15.4110   15.3610  136.3630    4.1680    0.2440    2.6700   -0.1590    8.5910 
4490.0000   12.8640   13.8130   14.1250   15.3320   15.2360  137.1560    4.2170    0.2450    2.6630   -0.1230    8.6270 
4490.5000   13.2580   14.1640   14.5670   15.8320   15.6920  127.7480    4.2800    0.2270    2.6540   -0.1080    8.6420 
4491.0000   14.5210   15.5760   16.0560   17.5950   17.2750  122.4700    4.4760    0.2040    2.6520   -0.1230    8.6270 
4491.5000   15.3680   16.2650   16.5810   18.0190   17.7560  118.0220    4.7390    0.1970    2.6550   -0.2100    8.5400 
4492.0000   13.9810   14.6150   15.1740   16.5730   16.1820  118.9400    4.9800    0.2210    2.6550   -0.2760    8.4740 
4492.5000   12.9530   13.6760   14.1220   15.4030   15.1110  125.9580    5.0880    0.2320    2.6550   -0.2210    8.5290 
4493.0000   12.7160   13.4510   13.9340   15.1230   15.0140  128.8230    5.0520    0.2340    2.6670   -0.2470    8.5030 
4493.5000   12.9050   13.6050   14.0290   15.2220   15.1840  133.7570    4.9310    0.2170    2.6860   -0.1120    8.6380 
4494.0000   12.9260   13.6700   14.0720   15.2240   15.2630  133.4630    4.7170    0.2080    2.6860   -0.0240    8.7260 
4494.5000   13.0030   13.7190   14.0780   15.2130   15.3180  136.3790    4.4880    0.2160    2.6740   -0.0350    8.7150 
4495.0000   12.9040   13.6700   14.0760   15.2430   15.3610  135.6910    4.2680    0.2250    2.6720    0.1400    8.8900 
4495.5000   12.5540   13.2890   13.6850   14.8120   14.9120  136.2640    4.1370    0.2390    2.6730   -0.1230    8.6270 
4496.0000   12.3520   13.0640   13.4270   14.5720   14.5940  135.1110    4.0840    0.2290    2.6710   -0.1300    8.6200 
4496.5000   12.3610   13.0870   13.4500   14.5880   14.6060  134.1780    4.0710    0.2320    2.6670   -0.1560    8.5940 
4497.0000   12.3990   13.1130   13.4810   14.5260   14.5880  132.7510    4.0450    0.2340    2.6720   -0.1780    8.5730 
4497.5000   12.4560   13.2040   13.6060   14.5980   14.7160  137.1330    4.0040    0.2520    2.6760   -0.0930    8.6570 
4498.0000   12.1770   12.8770   13.2380   14.1950   14.2740  139.0990    3.9500    0.2460    2.6770   -0.0280    8.7220 
4498.5000   11.8580   12.4830   12.8520   13.7350   13.8770  148.4350    3.9200    0.2490    2.6750   -0.0500    8.7000 
4499.0000   11.9040   12.5550   12.9500   13.7720   13.9470  145.5930    3.9290    0.2240    2.6740   -0.0460    8.7040 
4499.5000   12.1110   12.7560   13.1090   13.9340   14.1070  148.9200    4.0280    0.2190    2.6690   -0.0570    8.6930 
4500.0000   12.3730   12.9400   13.2310   14.0730   14.2200  141.2860    4.1460    0.2120    2.6540   -0.0420    8.7080 
4500.5000   12.3890   13.0380   13.3520   14.0560   14.2970  145.3680    4.2920    0.2330    2.6460   -0.0680    8.6820 
4501.0000   11.7880   12.4350   12.7210   13.5270   13.6280  141.9940    4.4050    0.2390    2.6590   -0.1560    8.5940 
4501.5000   11.0840   11.6310   11.9950   12.7930   12.9880  140.1070    4.4310    0.2320    2.6760   -0.1590    8.5910 
4502.0000   11.7970   12.2210   12.5740   13.3420   13.5250  135.8620    4.3770    0.2230    2.6840   -0.1080    8.6420 
4502.5000   12.6480   13.1770   13.3970   14.0440   14.2990  137.4000    4.2690    0.2180    2.6760   -0.0570    8.6930 
4503.0000   12.1750   12.7840   13.0020   13.6980   13.9450  143.1880    4.2920    0.2270    2.6560   -0.1120    8.6380 
4503.5000   11.5250   11.9930   12.2760   13.0930   13.3250  140.5490    4.6340    0.2330    2.6520    0.0020    8.7520 
4504.0000   11.8960   12.4320   12.7360   13.4700   13.7980  138.5520    5.1930    0.2490    2.6390   -0.0350    8.7150 
4504.5000   12.8130   13.4450   13.6880   14.4560   14.8340  136.3130    5.7350    0.2450    2.6500    0.0750    8.8250 
4505.0000   13.7870   14.4320   14.7300   15.5410   16.0080  137.3460    5.8910    0.2340    2.6550    0.0750    8.8250 
4505.5000   14.9250   15.6270   16.0150   16.6480   17.2590  138.3100    5.8330    0.2170    2.6660    0.1990    8.9490 
4506.0000   16.2690   17.2090   17.5350   18.3410   19.1800  135.9600    5.7030    0.2260    2.6530    0.1400    8.8900 
4506.5000   16.8740   17.7630   18.1550   19.0520   19.9790  142.2000    5.5710    0.2370    2.6410    0.1620    8.9120 
4507.0000   17.6990   18.4240   18.9680   19.7220   21.0760  148.2800    5.2760    0.2330    2.6310    0.0750    8.8250 
4507.5000   18.0140   18.5950   19.0120   19.8570   21.2290  158.8360    4.8380    0.2300    2.6460   -0.1890    8.5620 
4508.0000   19.2670   19.9980   20.2800   21.1280   22.4490  156.9560    4.4250    0.2290    2.6460   -0.2320    8.5180 
4508.5000   22.6070   24.0530   24.3250   25.2520   26.8370  152.1690    4.2090    0.2460    2.6430   -0.2000    8.5510 
4509.0000   28.0610   29.2660   29.5720   30.8240   33.1390  149.7590    4.1390    0.2540    2.6290   -0.2320    8.5180 
4509.5000   36.7820   38.7100   38.4260   39.8230   42.2970  169.7230    4.1540    0.2470    2.6110   -0.2100    8.5400 
4510.0000   47.9680   49.4960   48.5590   49.8960   52.4080  194.2450    4.1880    0.2540    2.5820   -0.2210    8.5290 
4510.5000   57.4660   60.4370   58.9630   59.7700   61.9340  210.4220    4.2120    0.2620    2.5500   -0.2030    8.5470 
