~VERSION INFORMATION
 VERS.                 2.0:   CWLS LOG ASCII STANDARD - VERSION 2.0
 WRAP.                  NO:   SINGLE LINE PER DEPTH STEP
 CREA.                 07/23/2021 12:08:25
#CREATED USING DSPetro VERSION 10ep.4.05.01 BY H227404 ON 07/23/2021 12:08:25
~WELL INFORMATION
#MNEM.UNIT       DATA                          DESCRIPTION MNEMONIC
#---------      ---------------------------   --------------------------
 STRT    .FT        500.0000                  : START DEPTH
 STOP    .FT        9050.0000                 : STOP DEPTH
 STEP    .FT        0.5000                    : STEP VALUE
 NULL    .      -999.0000                     : NULL VALUE
 DATE    .      07/23/2021                    : LAS file Creation Date
 WELL   .      3402920607                           : Well Name
 COMP   .      TRI-STATE PRODUCING COMPANY          : Company
 FLD    .      WILDCAT                              : Field
 STATE  .      OHIO                                 : State
 COUNT  .      USA                                  : Country
 API    .      34029206070000                       : API Number
 UWI    .      34029206070000                       : Unique Well Identifier (UWI)
 LOC    .      197' FSL & 245' FEL - SW/Q SECTION 7 : Location
 EPDAT  .      1299.7                               : Elevation of Permanent Datum
 GL     .      1299.7                               : GL Elevation
 RWS    .      0                                    : Def_Rw
 WST    .      0                                    : Def_Rwt
 CNTY   .      COLUMBIANA                           : County
 PROV   .                                           : Province
 MDEC   .      0                                    : Magnetic Declination
 SRVC   .      SCH                                  : Contractor
 GDAT   .      (Undefined)                          : Geodatum
 LONG   .      -80.8510498333639                    : Longitude
 LATI   .      40.7851609999604                     : Latitude
 COORDIN.                                           : Grid System
 XCOORD .                                           : X or East-West Coordinate
 YCOORD .                                           : Y or North-South Coordinate
~CURVE INFORMATION
#MNEM              UNIT       API CODE   Curve Type Comments
#----------  --------------- ----------  ---------- -----------
 DEPTH      .FT                        : Depth       
 CALI       .IN                        : Caliper     Caliper
 GR         .GAPI                      : GammaRay    Gamma Ray
 RT         .OHMM                      :             Latero-Log 8
 NPHI       .dec                       : Neutron     
 RHOB       .G/C3                      : Density     Bulk Density
 TOC        .%                         :             TOTAL ORGANIC CARBON
 DT         .US/F                      : Time        Transit Time
~A  DEPTH    CALI       GR        RT       NPHI      RHOB      TOC        DT    
# ...
8766.5000    7.6203   75.0130  134.1103    0.0077    2.6906 -999.0000   56.2948 
8767.0000    7.6197   56.3003  268.4964    0.0005    2.7099 -999.0000   51.8327 
8767.5000    7.6191   37.3876  423.6755   -0.0066    2.7223 -999.0000   48.1673 
8768.0000    7.6186   29.3324  586.3925   -0.0077    2.7232 -999.0000   47.9283 
8768.5000    7.6180   31.6597  580.6354   -0.0077    2.7402 -999.0000   47.9283 
8769.0000    7.6174   30.7929  607.0105   -0.0053    2.7321 -999.0000   47.9283 
8769.5000    7.6169   36.3058  362.3669    0.0019    2.7176 -999.0000   49.2829 
8770.0000    7.6163   46.0041  212.0628    0.0078    2.7241 -999.0000   51.2749 
8770.5000    7.6157   56.5057  135.4313    0.0112    2.7324 -999.0000   52.5801 
8771.0000    7.6152   66.0988  155.6402    0.0114    2.7507 -999.0000   53.4263 
8771.5000    7.6146   61.6634  148.1810    0.0090    2.7798 -999.0000   53.1873 
8772.0000    7.6140   51.1926  127.3528    0.0065    2.7871 -999.0000   51.5139 
8772.5000    7.6135   40.8576  128.1074    0.0053    2.7780 -999.0000   49.9203 
8773.0000    7.6129   32.9873  154.2455    0.0065    2.7690 -999.0000   49.5219 
8773.5000    7.6123   32.1327  201.3394    0.0101    2.7751 -999.0000   49.7610 
8774.0000    7.6117   32.0641  159.8119    0.0149    2.7774 -999.0000   50.3187 
8774.5000    7.6112   31.7127   87.4337    0.0185    2.7588 -999.0000   51.4343 
8775.0000    7.6106   26.4597   47.8163    0.0197    2.7341 -999.0000   52.5498 
8775.5000    7.6100   21.3446   33.6954    0.0197    2.7207 -999.0000   52.8031 
8776.0000    7.6095   23.1297   63.7724    0.0149    2.7146 -999.0000   52.7269 
8776.5000    7.6089   26.8472  198.5203    0.0053    2.7127 -999.0000   50.5793 
8777.0000    7.6083   31.5859  528.9380   -0.0007    2.6840 -999.0000   49.4706 
8777.5000    7.6078   32.9525  436.6282    0.0017    2.6974 -999.0000   49.0024 
8778.0000    7.6072   42.2002  312.9496    0.0089    2.7278 -999.0000   49.4881 
8778.5000    7.6063   54.5021  261.5757    0.0137    2.7567 -999.0000   50.8437 
8779.0000    7.6054   64.0706  198.1809    0.0173    2.7853 -999.0000   53.7056 
8779.5000    7.6045   80.3247   98.9634    0.0197    2.7783 -999.0000   56.7729 
8780.0000    7.6036   83.7605  111.2012    0.0185    2.7596 -999.0000   57.3307 
8780.5000    7.6028   79.2304  145.0939    0.0173    2.7435 -999.0000   57.0120 
8781.0000    7.6019   57.3616  171.2260    0.0137    2.7562 -999.0000   55.8964 
8781.5000    7.6010   59.2424  120.6410    0.0137    2.7709 -999.0000   53.1076 
8782.0000    7.6001   64.3409   86.3692    0.0137    2.7890 -999.0000   52.6295 
8782.5000    7.5992   61.8041   72.4036    0.0113    2.7830 -999.0000   53.0279 
8783.0000    7.5983   55.8735   95.3419    0.0101    2.7803 -999.0000   52.3904 
8783.5000    7.5974   54.2775  132.5741    0.0101    2.7608 -999.0000   51.6397 
8784.0000    7.5965   57.4850  106.0928    0.0113    2.7435 -999.0000   51.1155 
8784.5000    7.5956   67.5416   73.8738    0.0125    2.7584 -999.0000   51.8327 
8785.0000    7.5947   74.1830   83.9987    0.0137    2.7724 -999.0000   52.9482 
8785.5000    7.5938   69.3676  109.8881    0.0125    2.7731 -999.0000   52.7092 
8786.0000    7.5929   57.3231  156.2742    0.0077    2.7743 -999.0000   51.5936 
8786.5000    7.5920   52.2596  124.5913    0.0077    2.7773 -999.0000   50.3187 
8787.0000    7.5911   60.6952   89.6857    0.0137    2.7707 -999.0000   51.5139 
8787.5000    7.5902   74.1919   75.4944    0.0161    2.7702 -999.0000   52.7888 
8788.0000    7.5893   70.7192   91.7440    0.0161    2.7747 -999.0000   53.7450 
8788.5000    7.5884   62.9682  111.4911    0.0089    2.7756 -999.0000   53.6653 
8789.0000    7.5875   48.5364  132.5741    0.0053    2.7673 -999.0000   51.6733 
8789.5000    7.5866   41.8691  229.3791    0.0041    2.7656 -999.0000   52.0717 
8790.0000    7.5857   48.3166  229.3791    0.0053    2.7634 -999.0000   49.7610 
8790.5000    7.5848   60.0203  180.8877    0.0101    2.7615 -999.0000   50.7171 
8791.0000    7.5839   69.6135  146.3107    0.0125    2.7691 -999.0000   52.1514 
8791.5000    7.5830   73.7162  116.6549    0.0125    2.7827 -999.0000   52.7092 
8792.0000    7.5821   71.8758  116.6549    0.0125    2.7744 -999.0000   52.9482 
8792.5000    7.5812   69.1572  129.4616    0.0113    2.7632 -999.0000   51.9124 
8793.0000    7.5803   69.3998  140.0452    0.0101    2.7638 -999.0000   51.5936 
8793.5000    7.5794   73.6967  113.5421    0.0125    2.7677 -999.0000   52.4701 
8794.0000    7.5785   85.2647   97.1713    0.0149    2.7667 -999.0000   53.4263 
8794.5000    7.5776   97.4676   92.7830    0.0197    2.7567 -999.0000   55.4980 
8795.0000    7.5767  102.2085   89.1329    0.0209    2.7608 -999.0000   56.8526 
8795.5000    7.5758  104.8394   85.6263    0.0221    2.7641 -999.0000   57.8884 
8796.0000    7.5749  105.8279   82.2578    0.0221    2.7648 -999.0000   58.3665 
8796.5000    7.5741  110.2001   79.0217    0.0221    2.7599 -999.0000   59.3227 
8797.0000    7.5732  103.8208   75.1867    0.0209    2.7672 -999.0000   58.8446 
8797.5000    7.5723   85.4919   75.2250    0.0197    2.7746 -999.0000   56.6135 
8798.0000    7.5714   74.4269   77.9550    0.0173    2.7728 -999.0000   55.0199 
8798.5000    7.5705   57.6111   85.5677    0.0125    2.7692 -999.0000   52.2311 
8799.0000    7.5696   50.0779   99.2261    0.0087    2.7686 -999.0000   51.1952 
8799.5000    7.5687   44.5991  115.1070    0.0064    2.7741 -999.0000   50.2390 
8800.0000    7.5678   43.3796  129.7460    0.0064    2.7844 -999.0000   49.4083 
8800.5000    7.5669   42.1059   80.2715    0.0057    2.7865 -999.0000   48.4064 
8801.0000    7.5660   43.0787   83.9443    0.0053    2.7921 -999.0000   48.1673 
8801.5000    7.5651   48.5282  190.7482    0.0077    2.8023 -999.0000   48.4861 
8802.0000    7.5642   60.6338  172.4442    0.0124    2.8046 -999.0000   49.9203 
8802.5000    7.5633   74.6780  108.8266    0.0184    2.8194 -999.0000   52.5498 
8803.0000    7.5624   91.4237   76.8659    0.0221    2.7917 -999.0000   54.5205 
8803.5000    7.5615  102.7644   78.2307    0.0234    2.7750 -999.0000   57.6232 
8804.0000    7.5606  115.9858   81.0609    0.0248    2.7699 -999.0000   58.6663 
8804.5000    7.5597  118.7215   82.4480    0.0234    2.7647 -999.0000   58.3894 
8805.0000    7.5588  105.9166   92.4931    0.0221    2.7472 -999.0000   56.7789 
8805.5000    7.5579   80.0810  102.9855    0.0185    2.7377 -999.0000   53.7381 
8806.0000    7.5570   69.2720  124.2497    0.0089    2.7356 -999.0000   51.6596 
8806.5000    7.5561   54.4530  155.3954    0.0077    2.7439 -999.0000   50.1594 
8807.0000    7.5552   56.2635  198.1809    0.0090    2.7484 -999.0000   50.1594 
8807.5000    7.5543   63.1267  165.1814    0.0115    2.7681 -999.0000   51.0359 
8808.0000    7.5534   72.6258  110.2099    0.0151    2.7937 -999.0000   52.6295 
8808.5000    7.5525   81.7401   72.5360    0.0188    2.7925 -999.0000   53.7450 
8809.0000    7.5516   85.3376   66.4849    0.0224    2.7815 -999.0000   54.7809 
8809.5000    7.5507   88.8272   61.5729    0.0224    2.7651 -999.0000   53.9841 
8810.0000    7.5498   78.9608   60.4211    0.0176    2.7357 -999.0000   53.0279 
8810.5000    7.5489   77.3844   66.9890    0.0139    2.7287 -999.0000   53.2167 
8811.0000    7.5480   81.1558   78.0369    0.0149    2.7341 -999.0000   53.7450 
8811.5000    7.5471   90.3383   74.2290    0.0173    2.7527 -999.0000   54.4622 
8812.0000    7.5463   91.7705   68.0885    0.0185    2.7665 -999.0000   55.2590 
8812.5000    7.5454   94.7745   62.4559    0.0179    2.7607 -999.0000   55.4980 
8813.0000    7.5445   98.4166   58.2527    0.0149    2.7543 -999.0000   54.8606 
8813.5000    7.5436  100.1289   63.8319    0.0101    2.7446 -999.0000   54.3825 
8814.0000    7.5427  103.5400   74.1375    0.0077    2.7357 -999.0000   54.1434 
8814.5000    7.5418  105.3545   86.1069    0.0065    2.7288 -999.0000   53.4263 
8815.0000    7.5409  103.9933   95.4117    0.0065    2.7131 -999.0000   53.2669 
8815.5000    7.5400  100.2667   87.2941    0.0077    2.6997 -999.0000   52.8685 
