~VERSION INFORMATION
 VERS.                 2.0:   CWLS LOG ASCII STANDARD - VERSION 2.0
 WRAP.                  NO:   SINGLE LINE PER DEPTH STEP
 CREA.                 07/23/2021 12:08:25
#CREATED USING DSPetro VERSION 10ep.4.05.01 BY H227404 ON 07/23/2021 12:08:25
~WELL INFORMATION
#MNEM.UNIT       DATA                          DESCRIPTION MNEMONIC
#---------      ---------------------------   --------------------------
 STRT    .FT        500.0000                  : START DEPTH
 STOP    .FT        9050.0000                 : STOP DEPTH
 STEP    .FT        0.5000                    : STEP VALUE
 NULL    .      -999.0000                     : NULL VALUE
 DATE    .      07/23/2021                    : LAS file Creation Date
 WELL   .      3402920607                           : Well Name
 COMP   .      TRI-STATE PRODUCING COMPANY          : Company
 FLD    .      WILDCAT                              : Field
 STATE  .      OHIO                                 : State
 COUNT  .      USA                                  : Country
 API    .      34029206070000                       : API Number
 UWI    .      34029206070000                       : Unique Well Identifier (UWI)
 LOC    .      197' FSL & 245' FEL - SW/Q SECTION 7 : Location
 EPDAT  .      1299.7                               : Elevation of Permanent Datum
 GL     .      1299.7                               : GL Elevation
 RWS    .      0                                    : Def_Rw
 WST    .      0                                    : Def_Rwt
 CNTY   .      COLUMBIANA                           : County
 PROV   .                                           : Province
 MDEC   .      0                                    : Magnetic Declination
 SRVC   .      SCH                                  : Contractor
 GDAT   .      (Undefined)                          : Geodatum
 LONG   .      -80.8510498333639                    : Longitude
 LATI   .      40.7851609999604                     : Latitude
 COORDIN.                                           : Grid System
 XCOORD .                                           : X or East-West Coordinate
 YCOORD .                                           : Y or North-South Coordinate
~CURVE INFORMATION
#MNEM              UNIT       API CODE   Curve Type Comments
#----------  --------------- ----------  ---------- -----------
 DEPTH      .FT                        : Depth       
 CALI       .IN                        : Caliper     Caliper
 GR         .GAPI                      : GammaRay    Gamma Ray
 RT         .OHMM                      :             Latero-Log 8
 NPHI       .dec                       : Neutron     
 RHOB       .G/C3                      : Density     Bulk Density
 TOC        .%                         :             TOTAL ORGANIC CARBON
 DT         .US/F                      : Time        Transit Time
~A  DEPTH    CALI       GR        RT       NPHI      RHOB      TOC        DT    
# ...
7331.0000    7.7258  136.5062 -999.0000 -999.0000    2.7130 -999.0000 -999.0000 
7331.5000    7.7263  135.2784 -999.0000 -999.0000    2.7024 -999.0000 -999.0000 
7332.0000    7.7262  132.5889 -999.0000 -999.0000    2.7037 -999.0000 -999.0000 
7332.5000    7.7262  127.7812 -999.0000 -999.0000    2.7112 -999.0000 -999.0000 
7333.0000    7.7262  121.4069 -999.0000 -999.0000    2.7194 -999.0000 -999.0000 
7333.5000    7.7262  116.5140 -999.0000 -999.0000    2.7283 -999.0000 -999.0000 
7334.0000    7.7262  109.7087 -999.0000 -999.0000    2.7238 -999.0000 -999.0000 
7334.5000    7.7262  109.9883 -999.0000 -999.0000    2.7279 -999.0000 -999.0000 
7335.0000    7.7262  111.2640 -999.0000 -999.0000    2.7339 -999.0000 -999.0000 
7335.5000    7.7262  114.5940 -999.0000 -999.0000    2.7305 -999.0000 -999.0000 
7336.0000    7.7262  115.9507 -999.0000 -999.0000    2.7322 -999.0000 -999.0000 
7336.5000    7.7262  114.1639 -999.0000 -999.0000    2.7262 -999.0000 -999.0000 
7337.0000    7.7262  112.3983 -999.0000 -999.0000    2.7179 -999.0000 -999.0000 
7337.5000    7.7262  104.6600 -999.0000 -999.0000    2.7126 -999.0000 -999.0000 
7338.0000    7.7262  100.9946 -999.0000 -999.0000    2.7102 -999.0000 -999.0000 
7338.5000    7.7261  108.6070 -999.0000 -999.0000    2.7124 -999.0000 -999.0000 
7339.0000    7.7263  115.6770 -999.0000 -999.0000    2.7192 -999.0000 -999.0000 
7339.5000    7.7263  121.5135 -999.0000 -999.0000    2.7342 -999.0000 -999.0000 
7340.0000    7.7254  124.1937 -999.0000 -999.0000    2.7447 -999.0000 -999.0000 
7340.5000    7.7278  124.6111 -999.0000 -999.0000    2.7460 -999.0000 -999.0000 
7341.0000    7.7243  121.5520 -999.0000 -999.0000    2.7437 -999.0000 -999.0000 
7341.5000    7.7250  121.0609 -999.0000 -999.0000    2.7279 -999.0000 -999.0000 
7342.0000    7.7449  121.0743 -999.0000 -999.0000    2.7214 -999.0000 -999.0000 
7342.5000    7.7815  121.0000 -999.0000 -999.0000    2.7277 -999.0000 -999.0000 
7343.0000    7.7637  120.8037 -999.0000 -999.0000    2.7405 -999.0000 -999.0000 
7343.5000    7.7621  118.6493 -999.0000 -999.0000    2.7463 -999.0000 -999.0000 
7344.0000    7.8012  118.7976 -999.0000 -999.0000    2.7465 -999.0000 -999.0000 
7344.5000    7.8425  120.2055 -999.0000 -999.0000    2.7474 -999.0000 -999.0000 
7345.0000    7.8452  121.8564 -999.0000 -999.0000    2.7297 -999.0000 -999.0000 
7345.5000    7.8469  122.7262 -999.0000 -999.0000    2.7038 -999.0000 -999.0000 
7346.0000    7.8423  122.6320 -999.0000 -999.0000    2.7006 -999.0000 -999.0000 
7346.5000    7.8475  124.3558 -999.0000 -999.0000    2.7005 -999.0000 -999.0000 
7347.0000    7.8580  125.1497 -999.0000 -999.0000    2.6941 -999.0000 -999.0000 
7347.5000    7.9589  125.7155 -999.0000 -999.0000    2.7043 -999.0000 -999.0000 
7348.0000    7.9994  125.8426 -999.0000 -999.0000    2.7095 -999.0000 -999.0000 
7348.5000    7.9706  129.1194 -999.0000 -999.0000    2.7058 -999.0000 -999.0000 
7349.0000    7.9588  129.2837 -999.0000 -999.0000    2.6965 -999.0000 -999.0000 
7349.5000    7.8028  132.3693 -999.0000    0.0972    2.7061 -999.0000 -999.0000 
7350.0000    7.7641  132.8313 -999.0000    0.0972    2.7071 -999.0000 -999.0000 
7350.5000    7.7332  131.1120 -999.0000    0.0972    2.6972 -999.0000 -999.0000 
7351.0000    7.7291  129.6889 -999.0000    0.0972    2.7047 -999.0000 -999.0000 
7351.5000    7.7191  127.4433 -999.0000    0.0972    2.7167 -999.0000 -999.0000 
7352.0000    7.7626  129.2011 -999.0000    0.0972    2.7157 -999.0000 -999.0000 
7352.5000    7.7408  131.3522 -999.0000    0.0972    2.7139 -999.0000 -999.0000 
7353.0000    7.7709  132.8793 -999.0000    0.1014    2.7266 -999.0000 -999.0000 
7353.5000    7.7627  132.8284 -999.0000    0.0995    2.7326 -999.0000 -999.0000 
7354.0000    7.7671  133.4803 -999.0000    0.0986    2.7208 -999.0000 -999.0000 
7354.5000    7.7649  132.1840 -999.0000    0.0972    2.7225 -999.0000 -999.0000 
7355.0000    7.7682  130.7250 -999.0000    0.1014    2.7152 -999.0000 -999.0000 
7355.5000    7.7618  134.2287 -999.0000    0.1041    2.7079 -999.0000 -999.0000 
7356.0000    7.7906  137.8322 -999.0000    0.1083    2.7224 -999.0000 -999.0000 
7356.5000    7.7616  141.8909 -999.0000    0.1083    2.7351 -999.0000 -999.0000 
7357.0000    7.7686  140.7002 -999.0000    0.1069    2.7324 -999.0000 -999.0000 
7357.5000    7.7649  138.4220 -999.0000    0.1069    2.7202 -999.0000 -999.0000 
7358.0000    7.7659  137.1879 -999.0000    0.1055    2.7181 -999.0000 -999.0000 
7358.5000    7.7661  135.0712 -999.0000    0.1069    2.7163 -999.0000 -999.0000 
7359.0000    7.7657  135.6290 -999.0000    0.1097    2.7065 -999.0000 -999.0000 
7359.5000    7.7659  135.9651 -999.0000    0.1111    2.6996 -999.0000 -999.0000 
7360.0000    7.7659  134.9614 -999.0000    0.1097    2.6966 -999.0000 -999.0000 
7360.5000    7.7659  131.4216 -999.0000    0.1041    2.6806 -999.0000 -999.0000 
7361.0000    7.7657  128.1572 -999.0000    0.1041    2.7089 -999.0000 -999.0000 
7361.5000    7.7661  128.1635 -999.0000    0.1041    2.7215 -999.0000 -999.0000 
7362.0000    7.7659  130.8490 -999.0000    0.1041    2.7273 -999.0000 -999.0000 
7362.5000    7.7647  132.3188 -999.0000    0.1041    2.7219 -999.0000 -999.0000 
7363.0000    7.7686  132.0314 -999.0000    0.1000    2.7047 -999.0000 -999.0000 
7363.5000    7.7618  132.5847 -999.0000    0.1055    2.6929 -999.0000 -999.0000 
7364.0000    7.7897  132.0604 -999.0000    0.1055    2.6990 -999.0000 -999.0000 
7364.5000    7.7634  130.0518 -999.0000    0.1069    2.7171 -999.0000 -999.0000 
7365.0000    7.7672  129.7549 -999.0000    0.1055    2.7184 -999.0000 -999.0000 
7365.5000    7.7621  129.6279 -999.0000    0.1041    2.7072 -999.0000 -999.0000 
7366.0000    7.7880  128.3220 -999.0000    0.1014    2.7097 -999.0000 -999.0000 
7366.5000    7.7912  127.6521 -999.0000    0.0958    2.7038 -999.0000 -999.0000 
7367.0000    7.7613  129.8979 -999.0000    0.0944    2.6997 -999.0000 -999.0000 
7367.5000    7.7615  134.5995 -999.0000    0.0972    2.6968 -999.0000 -999.0000 
7368.0000    7.7910  133.4037 -999.0000    0.0986    2.6997 -999.0000 -999.0000 
7368.5000    7.7880  130.9315 -999.0000    0.0986    2.7023 -999.0000 -999.0000 
7369.0000    7.7631  128.9532 -999.0000    0.0986    2.7045 -999.0000 -999.0000 
7369.5000    7.7645  127.4440 -999.0000    0.0972    2.7158 -999.0000 -999.0000 
7370.0000    7.7677  126.6193 -999.0000    0.0930    2.7234 -999.0000 -999.0000 
7370.5000    7.7648  121.8165 -999.0000    0.0860    2.7222 -999.0000 -999.0000 
7371.0000    7.7661  119.5018 -999.0000    0.0888    2.7308 -999.0000 -999.0000 
7371.5000    7.7660  120.1120 -999.0000    0.0817    2.7265 -999.0000 -999.0000 
7372.0000    7.7657  121.6126 -999.0000    0.0916    2.7187 -999.0000 -999.0000 
7372.5000    7.7659  123.5903 -999.0000    0.0958    2.7300 -999.0000 -999.0000 
7373.0000    7.7658  129.4872 -999.0000    0.1014    2.7321 -999.0000 -999.0000 
7373.5000    7.7656  138.5261 -999.0000    0.1041    2.7304 -999.0000 -999.0000 
7374.0000    7.7666  141.6136 -999.0000    0.1083    2.7205 -999.0000 -999.0000 
7374.5000    7.7648  141.8246 -999.0000    0.1069    2.7072 -999.0000 -999.0000 
7375.0000    7.7662  141.3357 -999.0000    0.1028    2.6890 -999.0000 -999.0000 
7375.5000    7.7730  138.3182 -999.0000    0.0972    2.6864 -999.0000 -999.0000 
7376.0000    7.8100  133.1930 -999.0000    0.0916    2.6926 -999.0000 -999.0000 
7376.5000    7.8042  130.1272 -999.0000    0.0930    2.7048 -999.0000 -999.0000 
7377.0000    7.8040  127.8079 -999.0000    0.0958    2.7038 -999.0000 -999.0000 
7377.5000    7.8107  130.2558 -999.0000    0.0986    2.7034 -999.0000 -999.0000 
7378.0000    7.7721  134.5190 -999.0000    0.0986    2.7320 -999.0000 -999.0000 
7378.5000    7.7660  134.2597 -999.0000    0.1014    2.7569 -999.0000 -999.0000 
7379.0000    7.7727  133.6966 -999.0000    0.1000    2.7588 -999.0000 -999.0000 
7379.5000    7.8107  133.5350 -999.0000    0.1014    2.7407 -999.0000 -999.0000 
7380.0000    7.8013  131.2051 -999.0000    0.1028    2.7216 -999.0000 -999.0000 
