~VERSION INFORMATION
 VERS.                 2.0:   CWLS LOG ASCII STANDARD - VERSION 2.0
 WRAP.                  NO:   SINGLE LINE PER DEPTH STEP
 CREA.                 07/23/2021 12:08:25
#CREATED USING DSPetro VERSION 10ep.4.05.01 BY H227404 ON 07/23/2021 12:08:25
~WELL INFORMATION
#MNEM.UNIT       DATA                          DESCRIPTION MNEMONIC
#---------      ---------------------------   --------------------------
 STRT    .FT        500.0000                  : START DEPTH
 STOP    .FT        9050.0000                 : STOP DEPTH
 STEP    .FT        0.5000                    : STEP VALUE
 NULL    .      -999.0000                     : NULL VALUE
 DATE    .      07/23/2021                    : LAS file Creation Date
 WELL   .      3402920607                           : Well Name
 COMP   .      TRI-STATE PRODUCING COMPANY          : Company
 FLD    .      WILDCAT                              : Field
 STATE  .      OHIO                                 : State
 COUNT  .      USA                                  : Country
 API    .      34029206070000                       : API Number
 UWI    .      34029206070000                       : Unique Well Identifier (UWI)
 LOC    .      197' FSL & 245' FEL - SW/Q SECTION 7 : Location
 EPDAT  .      1299.7                               : Elevation of Permanent Datum
 GL     .      1299.7                               : GL Elevation
 RWS    .      0                                    : Def_Rw
 WST    .      0                                    : Def_Rwt
 CNTY   .      COLUMBIANA                           : County
 PROV   .                                           : Province
 MDEC   .      0                                    : Magnetic Declination
 SRVC   .      SCH                                  : Contractor
 GDAT   .      (Undefined)                          : Geodatum
 LONG   .      -80.8510498333639                    : Longitude
 LATI   .      40.7851609999604                     : Latitude
 COORDIN.                                           : Grid System
 XCOORD .                                           : X or East-West Coordinate
 YCOORD .                                           : Y or North-South Coordinate
~CURVE INFORMATION
#MNEM              UNIT       API CODE   Curve Type Comments
#----------  --------------- ----------  ---------- -----------
 DEPTH      .FT                        : Depth       
 CALI       .IN                        : Caliper     Caliper
 GR         .GAPI                      : GammaRay    Gamma Ray
 RT         .OHMM                      :             Latero-Log 8
 NPHI       .dec                       : Neutron     
 RHOB       .G/C3                      : Density     Bulk Density
 TOC        .%                         :             TOTAL ORGANIC CARBON
 DT         .US/F                      : Time        Transit Time
~A  DEPTH    CALI       GR        RT       NPHI      RHOB      TOC        DT    
# ...
8865.5000    7.5675   22.4425   89.3269    0.0077    2.8415 -999.0000   40.6773 
8866.0000    7.5675   24.0103   93.9006    0.0047    2.8375 -999.0000   47.4900 
8866.5000    7.5675   24.8792  107.7495    0.0029    2.8385 -999.0000   47.5299 
8867.0000    7.5675   24.9976  123.7859    0.0035    2.8527 -999.0000   47.2510 
8867.5000    7.5675   25.1420  105.6699    0.0053    2.8634 -999.0000   47.0518 
8868.0000    7.5675   26.0246   85.3333    0.0065    2.8736 -999.0000   46.8526 
8868.5000    7.5675   24.2529   49.3534    0.0077    2.8779 -999.0000   46.6534 
8869.0000    7.5675   21.7085   60.7503    0.0088    2.8831 -999.0000   46.4940 
8869.5000    7.5675   20.4071   77.5231    0.0088    2.8744 -999.0000   46.5737 
8870.0000    7.5675   19.7339   88.8144    0.0082    2.8608 -999.0000   46.5737 
8870.5000    7.5675   18.5250   88.5253    0.0063    2.8537 -999.0000   46.8127 
8871.0000    7.5675   17.9158  119.7363    0.0051    2.8414 -999.0000   47.2112 
8871.5000    7.5675   17.4405  162.0915    0.0063    2.8084 -999.0000   47.1315 
8872.0000    7.5675   19.3141  150.0063    0.0075    2.8168 -999.0000   46.4542 
8872.5000    7.5675   18.4916  120.9974    0.0063    2.8170 -999.0000   46.2582 
8873.0000    7.5675   18.6731  118.8063    0.0053    2.8209 -999.0000   46.7343 
8873.5000    7.5675   19.2732  116.6549    0.0077    2.8027 -999.0000   47.0522 
8874.0000    7.5675   19.3037  110.4316    0.0077    2.7732 -999.0000   47.5316 
8874.5000    7.5675   18.4797   91.9874    0.0077    2.7570 -999.0000   47.6935 
8875.0000    7.5675   17.4668  106.4683    0.0065    2.7721 -999.0000   47.6569 
8875.5000    7.5675   15.9347  153.2201    0.0077    2.7767 -999.0000   47.7797 
8876.0000    7.5675   13.7516  124.7128    0.0113    2.7705 -999.0000   47.3834 
8876.5000    7.5675   13.0687   93.6839    0.0173    2.7531 -999.0000   47.3046 
8877.0000    7.5675   13.2399  108.4319    0.0191    2.7504 -999.0000   47.6231 
8877.5000    7.5675   13.9449   86.1830    0.0209    2.7389 -999.0000   48.5792 
8878.0000    7.5675   13.8897   67.4230    0.0203    2.7229 -999.0000   49.0956 
8878.5000    7.5675   13.9401   69.9328    0.0173    2.6895 -999.0000   49.3720 
8879.0000    7.5675   15.4335  159.1562    0.0089    2.6598 -999.0000   48.9691 
8879.5000    7.5675   15.5049  229.3791    0.0053    2.7213 -999.0000   48.5649 
8880.0000    7.5675   17.1351  156.6172    0.0059    2.7633 -999.0000   47.8021 
8880.5000    7.5675   18.6168  118.8063    0.0065    2.7812 -999.0000   47.4502 
8881.0000    7.5675   20.1367  125.5015    0.0041    2.7646 -999.0000   47.3307 
8881.5000    7.5675   20.2992  148.4349    0.0029    2.7994 -999.0000   46.7995 
8882.0000    7.5675   19.6351  177.0571    0.0041    2.7936 -999.0000   46.3679 
8882.5000    7.5675   19.4280  211.1984    0.0053    2.7883 -999.0000   45.9363 
8883.0000    7.5675   19.3304  165.2418    0.0065    2.7917 -999.0000   45.6175 
8883.5000    7.5675   17.8886  137.5091    0.0077    2.7924 -999.0000   46.0956 
8884.0000    7.5675   16.2268  162.0915    0.0107    2.7965 -999.0000   46.6534 
8884.5000    7.5675   15.2290  118.9367    0.0136    2.8040 -999.0000   47.1315 
8885.0000    7.5675   14.6246   85.1913    0.0184    2.8236 -999.0000   47.8884 
8885.5000    7.5675   14.8411   72.5360    0.0208    2.8216 -999.0000   48.0080 
8886.0000    7.5675   15.5461   92.3327    0.0166    2.8175 -999.0000   48.7251 
8886.5000    7.5675   15.5506  114.6105    0.0088    2.8126 -999.0000   48.2470 
8887.0000    7.5675   16.4091  145.2583    0.0022    2.8116 -999.0000   47.6892 
8887.5000    7.5675   16.2420  229.3791    0.0004    2.7986 -999.0000   47.4502 
8888.0000    7.5675   18.3153  205.5582    0.0016    2.8048 -999.0000   46.2550 
8888.5000    7.5675   18.0564  229.3791    0.0029    2.8147 -999.0000   46.4940 
8889.0000    7.5675   21.6279  205.5582    0.0059    2.8199 -999.0000   46.6932 
8889.5000    7.5675   26.2417  140.6864    0.0089    2.8270 -999.0000   47.4502 
8890.0000    7.5675   29.9672   91.9874    0.0101    2.8357 -999.0000   48.0478 
8890.5000    7.5675   29.5455   95.4117    0.0101    2.8453 -999.0000   48.4064 
8891.0000    7.5675   29.9062  110.4316    0.0089    2.8402 -999.0000   48.4462 
8891.5000    7.5675   26.2903  145.2583    0.0077    2.8260 -999.0000   47.6892 
8892.0000    7.5675   19.3242  201.8358    0.0095    2.8189 -999.0000   46.9934 
8892.5000    7.5675   16.0549  103.4949    0.0125    2.8080 -999.0000   46.7179 
8893.0000    7.5675   15.7657   55.4974    0.0179    2.8053 -999.0000   47.3605 
8893.5000    7.5675   15.2226   45.9623    0.0185    2.8103 -999.0000   48.1625 
8894.0000    7.5675   17.5393   37.8745    0.0209    2.7965 -999.0000   49.1232 
8894.5000    7.5675   18.7910   33.5546    0.0234    2.7676 -999.0000   50.1629 
8895.0000    7.5675   20.2252   32.9710    0.0248    2.7567 -999.0000   50.3651 
8895.5000    7.5675   20.2002   32.9745    0.0234    2.7638 -999.0000   50.6474 
8896.0000    7.5675   21.8662   35.0634    0.0215    2.7786 -999.0000   50.5976 
8896.5000    7.5675   21.1576   37.5425    0.0185    2.7951 -999.0000   49.8406 
8897.0000    7.5675   21.0675   40.1820    0.0185    2.7826 -999.0000   49.3227 
8897.5000    7.5675   20.7751   42.9974    0.0173    2.7989 -999.0000   48.8048 
8898.0000    7.5675   20.9411   48.5766    0.0143    2.7995 -999.0000   48.5259 
8898.5000    7.5675   22.2704   62.6703    0.0113    2.7871 -999.0000   48.3267 
8899.0000    7.5675   23.2833   66.2020    0.0113    2.7783 -999.0000   48.0876 
8899.5000    7.5675   24.2010   69.9328    0.0089    2.7776 -999.0000   48.0876 
8900.0000    7.5675   25.1416   91.9791    0.0089    2.7762 -999.0000   47.6892 
8900.5000    7.5675   27.0962   83.9140    0.0089    2.7826 -999.0000   47.7697 
8901.0000    7.5675   30.1798   69.8434    0.0101    2.7879 -999.0000   48.0080 
8901.5000    7.5675   33.5529   58.1321    0.0113    2.7831 -999.0000   48.6454 
8902.0000    7.5675   36.4857   48.3846    0.0113    2.7932 -999.0000   49.0438 
8902.5000    7.5675   31.5781   40.4190    0.0113    2.8048 -999.0000   49.2829 
8903.0000    7.5675   22.9833   44.7679    0.0185    2.7871 -999.0000   48.9641 
8903.5000    7.5675   17.9018   65.2102    0.0159    2.7798 -999.0000   48.2470 
8904.0000    7.5675   15.8322   91.9874    0.0149    2.7817 -999.0000   47.7689 
8904.5000    7.5675   15.7037  100.7885    0.0149    2.7903 -999.0000   47.7689 
8905.0000    7.5675   16.6831  108.4319    0.0149    2.7901 -999.0000   47.7689 
8905.5000    7.5675   19.2838   90.9083    0.0209    2.7768 -999.0000   47.7689 
8906.0000    7.5675   21.5680   73.7120    0.0173    2.7775 -999.0000   47.6096 
8906.5000    7.5675   24.3160   58.2527    0.0173    2.8099 -999.0000   47.6892 
8907.0000    7.5675   25.9877   62.6805    0.0173    2.8037 -999.0000   48.5657 
8907.5000    7.5675   27.2668   70.1176    0.0173    2.7963 -999.0000   48.8845 
8908.0000    7.5675   26.9669   78.4372    0.0161    2.7978 -999.0000   49.7610 
8908.5000    7.5675   24.2849   87.0801    0.0137    2.7790 -999.0000   49.6813 
8909.0000    7.5675   20.6580  116.6549    0.0149    2.7799 -999.0000   49.3625 
8909.5000    7.5675   19.3475  100.1652    0.0173    2.7681 -999.0000   48.4861 
8910.0000    7.5675   19.8246   84.4393    0.0197    2.7634 -999.0000   48.6454 
8910.5000    7.5675   22.8193   67.2797    0.0197    2.7832 -999.0000   48.5657 
8911.0000    7.5675   26.3949   71.6814    0.0185    2.7994 -999.0000   48.8845 
8911.5000    7.5675   27.1708   80.5375    0.0185    2.7970 -999.0000   48.9641 
8912.0000    7.5675   27.6940   69.1403    0.0185    2.7931 -999.0000   49.1235 
8912.5000    7.5675   29.2037   74.0107    0.0143    2.7911 -999.0000   49.1633 
8913.0000    7.5675   29.9472   79.7525    0.0101    2.7828 -999.0000   49.1235 
8913.5000    7.5675   26.0395   90.2411    0.0089    2.7809 -999.0000   48.8845 
8914.0000    7.5675   23.6193   83.6293    0.0101    2.7687 -999.0000   49.1235 
8914.5000    7.5675   24.9490   65.1346    0.0113    2.7563 -999.0000   50.0797 
