~VERSION INFORMATION
 VERS.                 2.0:   CWLS LOG ASCII STANDARD - VERSION 2.0
 WRAP.                  NO:   SINGLE LINE PER DEPTH STEP
 CREA.                 07/23/2021 12:08:25
#CREATED USING DSPetro VERSION 10ep.4.05.01 BY H227404 ON 07/23/2021 12:08:25
~WELL INFORMATION
#MNEM.UNIT       DATA                          DESCRIPTION MNEMONIC
#---------      ---------------------------   --------------------------
 STRT    .FT        500.0000                  : START DEPTH
 STOP    .FT        9050.0000                 : STOP DEPTH
 STEP    .FT        0.5000                    : STEP VALUE
 NULL    .      -999.0000                     : NULL VALUE
 DATE    .      07/23/2021                    : LAS file Creation Date
 WELL   .      3402920607                           : Well Name
 COMP   .      TRI-STATE PRODUCING COMPANY          : Company
 FLD    .      WILDCAT                              : Field
 STATE  .      OHIO                                 : State
 COUNT  .      USA                                  : Country
 API    .      34029206070000                       : API Number
 UWI    .      34029206070000                       : Unique Well Identifier (UWI)
 LOC    .      197' FSL & 245' FEL - SW/Q SECTION 7 : Location
 EPDAT  .      1299.7                               : Elevation of Permanent Datum
 GL     .      1299.7                               : GL Elevation
 RWS    .      0                                    : Def_Rw
 WST    .      0                                    : Def_Rwt
 CNTY   .      COLUMBIANA                           : County
 PROV   .                                           : Province
 MDEC   .      0                                    : Magnetic Declination
 SRVC   .      SCH                                  : Contractor
 GDAT   .      (Undefined)                          : Geodatum
 LONG   .      -80.8510498333639                    : Longitude
 LATI   .      40.7851609999604                     : Latitude
 COORDIN.                                           : Grid System
 XCOORD .                                           : X or East-West Coordinate
 YCOORD .                                           : Y or North-South Coordinate
~CURVE INFORMATION
#MNEM              UNIT       API CODE   Curve Type Comments
#----------  --------------- ----------  ---------- -----------
 DEPTH      .FT                        : Depth       
 CALI       .IN                        : Caliper     Caliper
 GR         .GAPI                      : GammaRay    Gamma Ray
 RT         .OHMM                      :             Latero-Log 8
 NPHI       .dec                       : Neutron     
 RHOB       .G/C3                      : Density     Bulk Density
 TOC        .%                         :             TOTAL ORGANIC CARBON
 DT         .US/F                      : Time        Transit Time
~A  DEPTH    CALI       GR        RT       NPHI      RHOB      TOC        DT    
# ...
8222.0000    7.6539    9.7326  237.7449   -0.0078    2.7323 -999.0000   48.5569 
8222.5000    7.6548   11.2078  238.0260   -0.0078    2.7371 -999.0000   48.4785 
8223.0000    7.6556   11.8794  260.7464   -0.0078    2.7283 -999.0000   48.4802 
8223.5000    7.6565   12.3115  260.6804   -0.0090    2.7325 -999.0000   48.4816 
8224.0000    7.6573   13.3754  243.4151   -0.0090    2.7286 -999.0000   48.4829 
8224.5000    7.6581   15.4225  217.1422   -0.0078    2.7294 -999.0000   48.5645 
8225.0000    7.6590   15.5712  213.2101   -0.0078    2.7410 -999.0000   48.8064 
8225.5000    7.6598   14.6940  221.1469   -0.0079    2.7406 -999.0000   48.9641 
8226.0000    7.6606   13.6315  260.6810   -0.0056    2.7311 -999.0000   49.2032 
8226.5000    7.6615   13.1064  233.6094   -0.0044    2.7227 -999.0000   48.5657 
8227.0000    7.6623   12.5027  256.7412   -0.0055    2.7246 -999.0000   48.3267 
8227.5000    7.6631   12.1926  299.5304   -0.0067    2.7152 -999.0000   48.4064 
8228.0000    7.6640   10.8271  350.7266   -0.0079    2.7027 -999.0000   48.5657 
8228.5000    7.6648    9.8717  410.4776   -0.0090    2.6928 -999.0000   48.4064 
8229.0000    7.6656   10.0605  360.9023   -0.0090    2.6928 -999.0000   48.6454 
8229.5000    7.6665   10.7804  413.9680   -0.0090    2.6897 -999.0000   48.5630 
8230.0000    7.6673   10.9792  409.4782   -0.0078    2.6930 -999.0000   48.6427 
8230.5000    7.6681   11.9906  290.5172   -0.0078    2.6838 -999.0000   48.7231 
8231.0000    7.6690   10.1925  259.1755   -0.0078    2.6822 -999.0000   48.7238 
8231.5000    7.6698   10.3357  276.3797   -0.0078    2.7060 -999.0000   48.7246 
8232.0000    7.6706   12.4735  301.7181   -0.0078    2.7183 -999.0000   48.7259 
8232.5000    7.6715   14.7247  307.2826   -0.0078    2.7200 -999.0000   48.7275 
8233.0000    7.6723   16.1496  307.2826   -0.0078    2.7185 -999.0000   48.7251 
8233.5000    7.6731   14.6750  284.3203   -0.0078    2.7149 -999.0000   49.1235 
8234.0000    7.6740   12.6753  237.9177   -0.0054    2.7076 -999.0000   49.3625 
8234.5000    7.6748   10.8588  233.6094   -0.0066    2.7165 -999.0000   49.3625 
8235.0000    7.6757   10.0663  257.4264   -0.0090    2.7142 -999.0000   49.1235 
8235.5000    7.6765    9.9366  283.6715   -0.0102    2.7034 -999.0000   48.7251 
8236.0000    7.6773    9.8625  318.7212   -0.0114    2.6999 -999.0000   48.5657 
8236.5000    7.6782    9.9160  318.7212   -0.0126    2.7056 -999.0000   48.3267 
8237.0000    7.6790   10.3816  408.4329   -0.0126    2.7095 -999.0000   48.1673 
8237.5000    7.6798   10.3755  523.3961   -0.0114    2.7234 -999.0000   48.2470 
8238.0000    7.6806   14.4704  638.2609   -0.0090    2.7250 -999.0000   48.1673 
8238.5000    7.6815   18.7834  476.4465   -0.0054    2.7368 -999.0000   48.4064 
8239.0000    7.6823   18.8678  480.8198   -0.0054    2.7357 -999.0000   48.7251 
8239.5000    7.6829   18.5813  485.2333   -0.0042    2.7225 -999.0000   48.8845 
8240.0000    7.6847   18.7878  426.9677   -0.0054    2.7108 -999.0000   48.9641 
8240.5000    7.6839   17.7612  382.6274   -0.0066    2.7051 -999.0000   49.2829 
8241.0000    7.6858   15.3245  375.6985   -0.0054    2.7146 -999.0000   49.6813 
8241.5000    7.6935   14.7066  401.4296   -0.0066    2.7334 -999.0000   49.7610 
8242.0000    7.7316   13.9512  452.5772   -0.0054    2.7333 -999.0000   49.6813 
8242.5000    7.7227   12.4579  510.2418   -0.0066    2.7225 -999.0000   49.1235 
8243.0000    7.7269   11.6448  561.6202   -0.0078    2.7240 -999.0000   48.8048 
8243.5000    7.7320   11.5394  541.4641   -0.0078    2.7191 -999.0000   48.4064 
8244.0000    7.6988   10.9368  522.0314   -0.0078    2.7312 -999.0000   48.3267 
8244.5000    7.7271   10.0724  455.1692   -0.0078    2.7419 -999.0000   48.6454 
8245.0000    7.7420    9.8670  396.8707   -0.0080    2.7339 -999.0000   48.4251 
8245.5000    7.7763   10.1096  296.2545   -0.0068    2.7379 -999.0000   43.8275 
8246.0000    7.7378   10.2360  307.2826   -0.0080    2.7395 -999.0000   49.4293 
8246.5000    7.7710    9.2252  476.4465   -0.0104    2.7342 -999.0000   49.3544 
8247.0000    7.7635    9.4396  434.8421   -0.0128    2.7328 -999.0000   49.3445 
8247.5000    7.7665   10.6295  396.8707   -0.0115    2.7287 -999.0000   49.0152 
8248.0000    7.7661   12.8064  389.6840   -0.0115    2.7265 -999.0000   48.6700 
8248.5000    7.7656   13.8931  389.6840   -0.0090    2.7453 -999.0000   48.6454 
8249.0000    7.7661   14.4501  358.9205   -0.0090    2.7544 -999.0000   48.7251 
8249.5000    7.7659   15.6220  336.6824   -0.0054    2.7445 -999.0000   49.0438 
8250.0000    7.7654   17.8640  330.5856   -0.0042    2.7383 -999.0000   49.2829 
8250.5000    7.7669   17.9934  301.7181   -0.0030    2.7299 -999.0000   49.5210 
8251.0000    7.7652   18.0653  373.0796   -0.0019    2.7132 -999.0000   49.7195 
8251.5000    7.7642   16.2234  460.7166   -0.0030    2.7063 -999.0000   49.5219 
8252.0000    7.7777   17.0790  592.0431   -0.0019    2.7007 -999.0000   49.3625 
8252.5000    7.7774   18.5360  426.7107   -0.0054    2.6967 -999.0000   49.2829 
8253.0000    7.7634   20.8169  312.7505   -0.0031    2.7124 -999.0000   49.6016 
8253.5000    7.7678   21.6673  353.1101   -0.0031    2.7241 -999.0000   49.8406 
8254.0000    7.7626   23.7565  441.9298   -0.0031    2.7220 -999.0000   50.0797 
8254.5000    7.7901   24.0894  418.3551   -0.0043    2.7206 -999.0000   50.1594 
8255.0000    7.7617   22.8697  364.6110   -0.0031    2.7112 -999.0000   50.0797 
8255.5000    7.7687   21.1574  329.5198   -0.0030    2.7057 -999.0000   50.3984 
8256.0000    7.7643   20.6067  338.4462   -0.0054    2.7139 -999.0000   50.2390 
8256.5000    7.7669   20.4767  396.0001   -0.0054    2.7090 -999.0000   49.9203 
8257.0000    7.7653   20.2016  445.1214   -0.0054    2.7061 -999.0000   49.7610 
8257.5000    7.7645   20.3278  492.6195   -0.0042    2.7100 -999.0000   49.2032 
8258.0000    7.7772   21.9485  408.5037   -0.0030    2.7287 -999.0000   49.1235 
8258.5000    7.7770   24.5441  195.5904   -0.0019    2.7390 -999.0000   49.6813 
8259.0000    7.7664   25.3396  153.4443   -0.0030    2.7393 -999.0000   50.5578 
8259.5000    7.7605   21.6234  234.5248   -0.0042    2.7343 -999.0000   51.0359 
8260.0000    7.7979   17.6415  404.1900   -0.0054    2.7402 -999.0000   51.1155 
8260.5000    7.7730   15.8715  404.1900   -0.0078    2.7466 -999.0000   50.4781 
8261.0000    7.7669   14.5491  322.0333   -0.0078    2.7323 -999.0000   49.2829 
8261.5000    7.7649   14.9299  261.1169   -0.0078    2.7183 -999.0000   48.7251 
8262.0000    7.7667   17.3485  225.2254   -0.0054    2.7228 -999.0000   48.7251 
8262.5000    7.7649   16.4293  229.3791   -0.0054    2.7210 -999.0000   48.8845 
8263.0000    7.7666   14.7104  252.4485   -0.0054    2.7085 -999.0000   48.8845 
8263.5000    7.7674   14.4022  275.4369   -0.0066    2.7038 -999.0000   48.8845 
8264.0000    7.7543   18.5750  300.5185   -0.0066    2.6961 -999.0000   48.9641 
8264.5000    7.7543   17.1301  324.5992   -0.0066    2.6920 -999.0000   49.0438 
8265.0000    7.7673   18.7347  294.6347   -0.0042    2.7027 -999.0000   49.0438 
8265.5000    7.7666   20.6997  255.9604   -0.0019    2.7108 -999.0000   49.2829 
8266.0000    7.7649   21.1841  180.8753    0.0005    2.7191 -999.0000   49.8406 
8266.5000    7.7664   21.8658  180.8753    0.0005    2.7161 -999.0000   50.6375 
8267.0000    7.7658   20.1506  250.1798    0.0005    2.7122 -999.0000   51.1952 
8267.5000    7.7658   18.8179  368.8952   -0.0019    2.7122 -999.0000   51.1155 
8268.0000    7.7659   18.0947  344.6087   -0.0030    2.7142 -999.0000   50.6375 
8268.5000    7.7659   17.2313  290.8897   -0.0031    2.7201 -999.0000   49.9203 
8269.0000    7.7659   16.9086  280.4500   -0.0007    2.7206 -999.0000   49.9203 
8269.5000    7.7659   15.4757  275.3714   -0.0031    2.7225 -999.0000   49.9203 
8270.0000    7.7659   16.4071  365.3173   -0.0068    2.7261 -999.0000   49.8406 
8270.5000    7.7659   18.6838  482.3159   -0.0068    2.7360 -999.0000   49.2032 
8271.0000    7.7659   18.7375  460.6923   -0.0055    2.7491 -999.0000   48.8845 
