~VERSION INFORMATION
 VERS.                 2.0:   CWLS LOG ASCII STANDARD - VERSION 2.0
 WRAP.                  NO:   SINGLE LINE PER DEPTH STEP
 CREA.                 07/23/2021 11:30:29
#CREATED USING DSPetro VERSION 10ep.4.05.01 BY H227404 ON 07/23/2021 11:30:29
~WELL INFORMATION
#MNEM.UNIT       DATA                          DESCRIPTION MNEMONIC
#---------      ---------------------------   --------------------------
 STRT    .FT        156.0000                  : START DEPTH
 STOP    .FT        9462.0000                 : STOP DEPTH
 STEP    .FT        0.5000                    : STEP VALUE
 NULL    .      -999.0000                     : NULL VALUE
 DATE    .      07/23/2021                    : LAS file Creation Date
 WELL   .      SNRG-0004         : Well Name
 COMP   .                        : Company
 FLD    .                        : Field
 API    .      SNRG-0004         : API Number
 UWI    .      SNRG-0004         : Unique Well Identifier (UWI)
 LOC    .                        : Location
 KB     .      1230.0            : KB Elevation
 RWS    .      0                 : Def_Rw
 WST    .      0                 : Def_Rwt
 PROV   .                        : Province
 MDEC   .      0                 : Magnetic Declination
 SRVC   .      UNKNOWN           : Contractor
 GDAT   .      WGS 84            : Geodatum
 LONG   .      -80.4115240001679 : Longitude
 LATI   .      40.7475300004747  : Latitude
 COORDIN.                        : Grid System
 XCOORD .                        : X or East-West Coordinate
 YCOORD .                        : Y or North-South Coordinate
~CURVE INFORMATION
#MNEM              UNIT       API CODE   Curve Type Comments
#----------  --------------- ----------  ---------- -----------
 DEPTH      .FT                        : Depth       
 AT10       .OHMM                      : ShalRes     12 Array Induction Two Foot Resistivity
 AT20       .OHMM                      : MedRes      13 Array Induction Two Foot Resistivity
 AT30       .OHMM                      : MedRes      14 Array Induction Two Foot Resistivity
 AT60       .OHMM                      : MedRes      15 Array Induction Two Foot Resistivity
 AT90       .OHMM                      : DeepRes     16 Array Induction Two Foot Resistivity
 GR         .API                       : GammaRay    
 PEFZ       .B/E                       : PEF         
 NPHI       .DECP                      : Neutron     neutron porosity
 RHOZ       .gm/cc                     : Density     
 DCAL       .in                        :             
 HCAL       .inch                      : Caliper     
~A  DEPTH    AT10      AT20      AT30      AT60      AT90       GR       PEFZ      NPHI      RHOZ      DCAL      HCAL   
# ...
1395.5000 1950.0000    0.4830    6.5620   23.0610   11.4070   58.2590   10.0000    0.4160    2.4310   -4.7700    3.9800 
1396.0000 1950.0000    0.4880    6.5410   21.5250   10.0610   61.3670   10.0000    0.3890    2.3960   -4.7480    4.0020 
1396.5000 1950.0000    0.4710    6.7390   35.9920   11.3510   60.3970   10.0000    0.3780    2.3680   -4.7700    3.9800 
1397.0000 1950.0000    0.4650    6.6880   63.5640   11.1950   67.2810   10.0000    0.3600    2.3690   -4.7700    3.9800 
1397.5000 1950.0000    0.4600    7.0910  152.1820    8.5750   67.5670   10.0000    0.3480    2.3770   -4.7700    3.9800 
1398.0000 1950.0000    0.4580    7.3800  336.1930   13.7940   68.9440   10.0000    0.3440    2.3780   -4.7700    3.9800 
1398.5000 1950.0000    0.4590    8.3170  777.8350   17.6060   64.1250   10.0000    0.3550    2.3790   -4.7700    3.9800 
1399.0000 1950.0000    0.4630    8.7520 1374.4830   23.1570   67.4640   10.0000    0.3690    2.3820   -4.7480    4.0020 
1399.5000 1950.0000    0.4670    9.0500 1665.0300   31.5600   67.4640   10.0000    0.3290    2.3800   -4.7700    3.9800 
1400.0000 1950.0000    0.4710    8.0800 1861.5260   26.9220   68.5420   10.0000    0.3080    2.3810   -4.7480    4.0020 
1400.5000 1950.0000    0.4760    7.7960 1950.0000   25.3080   67.5100   10.0000    0.3000    2.3840   -4.7480    4.0020 
1401.0000 1950.0000    0.4820    7.8960 1950.0000   27.1520   65.4450   10.0000    0.3100    2.3880   -4.7480    4.0020 
1401.5000 1950.0000    0.4870    8.0120 1950.0000   29.1840   64.2980   10.0000    0.3060    2.3850   -4.7700    3.9800 
1402.0000 1950.0000    0.4930    7.8350 1950.0000   33.6490   60.8560   10.0000    0.3140    2.3830   -4.7700    3.9800 
1402.5000 1950.0000    0.4960    7.9840 1950.0000   35.4850   61.8880   10.0000    0.3370    2.3870   -4.7700    3.9800 
1403.0000 1950.0000    0.4960    7.7610 1950.0000   33.1750   64.1820   10.0000    0.3650    2.3970   -4.7480    4.0020 
1403.5000 1950.0000    0.4950    7.5410 1950.0000   33.7980   63.1490   10.0000    0.3790    2.3950   -4.7700    3.9800 
1404.0000 1950.0000    0.4940    7.6000 1950.0000   36.3000   66.9360   10.0000    0.3700    2.3920   -4.7480    4.0020 
1404.5000 1950.0000    0.4920    7.5090 1950.0000   36.2230   67.5090   10.0000    0.3690    2.3820   -4.7480    4.0020 
1405.0000 1950.0000    0.4910    7.1890 1950.0000   35.7640   69.5740   10.0000    0.3800    2.3850   -4.7700    3.9800 
1405.5000 1950.0000    0.4910    7.1280 1950.0000   33.6890   69.9180   10.0000    0.3430    2.3860   -4.7480    4.0020 
1406.0000 1950.0000    0.4930    7.3590 1950.0000   32.8370   72.2040   10.0000    0.3060    2.3860   -4.7700    3.9800 
1406.5000 1950.0000    0.4950    7.6150 1950.0000   35.5410   71.5000   10.0000    0.2870    2.3810   -4.7700    3.9800 
1407.0000 1950.0000    0.4960    7.5420 1950.0000   31.1260   74.2540   10.0000    0.3120    2.3750   -4.7700    3.9800 
1407.5000 1950.0000    0.4960    7.4620 1950.0000   26.8500   67.4480   10.0000    0.3900    2.3670   -4.7700    3.9800 
1408.0000 1950.0000    0.4980    7.5780 1950.0000   26.5680   66.8220   10.0000    0.3970    2.3640   -4.7480    4.0020 
1408.5000 1950.0000    0.4990    8.0880 1950.0000   28.8780   59.5340   10.0000    0.4010    2.3720   -4.7700    3.9800 
1409.0000 1950.0000    0.5000    8.2450 1950.0000   31.2470   61.6000   10.0000    0.3280    2.3810   -4.7700    3.9800 
1409.5000 1950.0000    0.4980    7.8680 1950.0000   22.8740   64.2370   10.0000    0.3330    2.3810   -4.7480    4.0020 
1410.0000 1950.0000    0.4960    6.9950 1950.0000   17.2060   66.3620   10.0000    0.3580    2.3770   -4.7700    3.9800 
1410.5000 1950.0000    0.4960    7.1000 1950.0000   16.5440   66.7060   10.0000    0.3870    2.3810   -4.7700    3.9800 
1411.0000 1950.0000    0.4970    7.8700 1950.0000   20.9470   70.2170   10.0000    0.3790    2.3830   -4.7700    3.9800 
1411.5000 1950.0000    0.4990    9.2820 1950.0000   30.9720   72.2100   10.0000    0.3770    2.3810   -4.7700    3.9800 
1412.0000 1950.0000    0.4970    8.8260 1950.0000   26.7070   67.3920   10.0000    0.3760    2.3690   -4.7700    3.9800 
1412.5000 1950.0000    0.4930    8.0440 1950.0000   23.5140   63.9500   10.0000    0.4000    2.3730   -4.7700    3.9800 
1413.0000 1950.0000    0.4900    7.5890 1950.0000   20.8210   64.0220   10.0000    0.4000    2.3750   -4.7700    3.9800 
1413.5000 1950.0000    0.4880    7.3340 1950.0000   20.4470   72.1600   10.0000    0.3980    2.3760   -4.7700    3.9800 
1414.0000 1950.0000    0.4880    7.6340 1950.0000   26.5970   71.4720   10.0000    0.3930    2.3670   -4.7700    3.9800 
1414.5000 1950.0000    0.4880    7.8480 1950.0000   36.1260   72.8490   10.0000    0.3460    2.3600   -4.7700    3.9800 
1415.0000 1950.0000    0.4870    7.7760 1950.0000   33.1640   72.6260   10.0000    0.3410    2.3560   -4.7480    4.0020 
1415.5000 1950.0000    0.4860    7.4760 1950.0000   29.2110   75.7060   10.0000    0.3600    2.3650   -4.7480    4.0020 
1416.0000 1950.0000    0.4850    7.2910 1950.0000   27.3420   71.9190   10.0000    0.3550    2.3660   -4.7480    4.0020 
1416.5000 1950.0000    0.4850    7.3480 1950.0000   30.5110   70.1980   10.0000    0.3780    2.3720   -4.7700    3.9800 
1417.0000 1950.0000    0.4850    7.3390 1950.0000   32.6130   69.1760   10.0000    0.3400    2.3720   -4.7700    3.9800 
1417.5000 1950.0000    0.4860    7.2760 1950.0000   32.0400   66.7670   10.0000    0.3630    2.3770   -4.7700    3.9800 
1418.0000 1950.0000    0.4870    7.3380 1950.0000   32.9050   71.9300   10.0000    0.3470    2.3690   -4.7700    3.9800 
1418.5000 1950.0000    0.4870    7.5400 1950.0000   33.6310   66.7180   10.0000    0.3370    2.3620   -4.7480    4.0020 
1419.0000 1950.0000    0.4860    7.4980 1950.0000   33.7950   70.9510   10.0000    0.3620    2.3500   -4.7700    3.9800 
1419.5000 1950.0000    0.4850    7.2160 1950.0000   31.7920   68.8860   10.0000    0.4040    2.3510   -4.7480    4.0020 
1420.0000 1950.0000    0.4830    7.1470 1950.0000   27.1930   75.4830   10.0000    0.4260    2.3460   -4.7480    4.0020 
1420.5000 1950.0000    0.4820    6.7570 1950.0000   23.3340   76.4040   10.0000    0.4080    2.3450   -4.7480    4.0020 
1421.0000 1950.0000    0.4790    6.9340 1950.0000   25.0980   76.6690   10.0000    0.3760    2.3460   -4.7480    4.0020 
1421.5000 1950.0000    0.4790    7.2800 1950.0000   28.5190   72.8830   10.0000    0.3830    2.3530   -4.7700    3.9800 
1422.0000 1950.0000    0.4780    7.5100 1950.0000   29.0380   71.9620   10.0000    0.4140    2.3570   -4.7480    4.0020 
1422.5000 1950.0000    0.4770    7.7070 1950.0000   29.4400   67.2220   10.0000    0.4000    2.3570   -4.7700    3.9800 
1423.0000 1950.0000    0.4730    7.8420 1950.0000   31.6700   73.4180   10.0000    0.3780    2.3480   -4.7700    3.9800 
1423.5000 1950.0000    0.4690    7.4040 1950.0000   32.2250   71.9380   10.0000    0.3330    2.3460   -4.7700    3.9800 
1424.0000 1950.0000    0.4650    7.2080 1950.0000   31.3860   74.3480   10.0000    0.3400    2.3430   -4.7480    4.0020 
1424.5000 1950.0000    0.4630    7.1720 1950.0000   33.3930   68.4850   10.0000    0.3490    2.3410   -4.7480    4.0020 
1425.0000 1950.0000    0.4620    7.2640 1950.0000   33.7730   70.5500   10.0000    0.3830    2.3390   -4.7480    4.0020 
1425.5000 1950.0000    0.4630    7.1800 1950.0000   37.2120   71.2390   10.0000    0.4020    2.3400   -4.7480    4.0020 
1426.0000 1950.0000    0.4640    6.9800 1950.0000   29.6560   77.4450   10.0000    0.4090    2.3430   -4.7700    3.9800 
1426.5000 1950.0000    0.4620    7.0500 1950.0000   28.9150   79.1530   10.0000    0.3900    2.3480   -4.7480    4.0020 
1427.0000 1950.0000    0.4600    7.5130 1950.0000   34.3370   78.1210   10.0000    0.3720    2.3530   -4.7480    4.0020 
1427.5000 1950.0000    0.4540    7.5240 1950.0000   31.1890   74.6790   10.0000    0.3720    2.3560   -4.7480    4.0020 
1428.0000 1950.0000    0.4480    7.1830 1950.0000   28.0940   71.5940   10.0000    0.3790    2.3490   -4.7480    4.0020 
1428.5000 1950.0000    0.4420    6.6170 1950.0000   18.9080   68.7720   10.0000    0.3370    2.3420   -4.7700    3.9800 
