~VERSION INFORMATION
 VERS.                 2.0:   CWLS LOG ASCII STANDARD - VERSION 2.0
 WRAP.                  NO:   SINGLE LINE PER DEPTH STEP
 CREA.                 07/23/2021 12:08:25
#CREATED USING DSPetro VERSION 10ep.4.05.01 BY H227404 ON 07/23/2021 12:08:25
~WELL INFORMATION
#MNEM.UNIT       DATA                          DESCRIPTION MNEMONIC
#---------      ---------------------------   --------------------------
 STRT    .FT        500.0000                  : START DEPTH
 STOP    .FT        9050.0000                 : STOP DEPTH
 STEP    .FT        0.5000                    : STEP VALUE
 NULL    .      -999.0000                     : NULL VALUE
 DATE    .      07/23/2021                    : LAS file Creation Date
 WELL   .      3402920607                           : Well Name
 COMP   .      TRI-STATE PRODUCING COMPANY          : Company
 FLD    .      WILDCAT                              : Field
 STATE  .      OHIO                                 : State
 COUNT  .      USA                                  : Country
 API    .      34029206070000                       : API Number
 UWI    .      34029206070000                       : Unique Well Identifier (UWI)
 LOC    .      197' FSL & 245' FEL - SW/Q SECTION 7 : Location
 EPDAT  .      1299.7                               : Elevation of Permanent Datum
 GL     .      1299.7                               : GL Elevation
 RWS    .      0                                    : Def_Rw
 WST    .      0                                    : Def_Rwt
 CNTY   .      COLUMBIANA                           : County
 PROV   .                                           : Province
 MDEC   .      0                                    : Magnetic Declination
 SRVC   .      SCH                                  : Contractor
 GDAT   .      (Undefined)                          : Geodatum
 LONG   .      -80.8510498333639                    : Longitude
 LATI   .      40.7851609999604                     : Latitude
 COORDIN.                                           : Grid System
 XCOORD .                                           : X or East-West Coordinate
 YCOORD .                                           : Y or North-South Coordinate
~CURVE INFORMATION
#MNEM              UNIT       API CODE   Curve Type Comments
#----------  --------------- ----------  ---------- -----------
 DEPTH      .FT                        : Depth       
 CALI       .IN                        : Caliper     Caliper
 GR         .GAPI                      : GammaRay    Gamma Ray
 RT         .OHMM                      :             Latero-Log 8
 NPHI       .dec                       : Neutron     
 RHOB       .G/C3                      : Density     Bulk Density
 TOC        .%                         :             TOTAL ORGANIC CARBON
 DT         .US/F                      : Time        Transit Time
~A  DEPTH    CALI       GR        RT       NPHI      RHOB      TOC        DT    
# ...
8519.0000    7.8409   12.2684  434.8421   -0.0126    2.7332 -999.0000   48.4861 
8519.5000    7.8478   12.1523  382.6274   -0.0126    2.7343 -999.0000   48.4064 
8520.0000    7.8445   12.3742  327.5787   -0.0114    2.7361 -999.0000   48.3271 
8520.5000    7.8450   12.4486  318.7212   -0.0125    2.7171 -999.0000   48.1688 
8521.0000    7.8453   13.1582  304.4876   -0.0101    2.7093 -999.0000   48.0901 
8521.5000    7.8465   13.0523  296.2545   -0.0101    2.7170 -999.0000   48.1702 
8522.0000    7.8414   13.2208  265.4886   -0.0089    2.7196 -999.0000   48.3291 
8522.5000    7.8775   12.2154  255.9604   -0.0089    2.7095 -999.0000   48.4077 
8523.0000    7.8838   12.0709  280.4500   -0.0102    2.7120 -999.0000   48.4866 
8523.5000    7.8885   12.3542  275.3714   -0.0102    2.7123 -999.0000   48.6463 
8524.0000    7.8802   12.1248  263.0738   -0.0090    2.7111 -999.0000   48.7277 
8524.5000    7.9100   11.7428  260.6810   -0.0090    2.7236 -999.0000   48.8901 
8525.0000    7.8796   11.5524  270.3849   -0.0090    2.7262 -999.0000   49.0529 
8525.5000    7.8902   10.9129  308.4077   -0.0102    2.7226 -999.0000   48.9758 
8526.0000    7.8797   10.6960  330.5856   -0.0102    2.7092 -999.0000   48.9768 
8526.5000    7.9098   10.5395  318.7212   -0.0126    2.7047 -999.0000   48.7364 
8527.0000    7.8808    9.8624  368.8952   -0.0102    2.6946 -999.0000   48.5738 
8527.5000    7.8876    9.9775  362.2151   -0.0065    2.6728 -999.0000   48.3267 
8528.0000    7.8839   10.3767  346.0392   -0.0115    2.6810 -999.0000   48.3267 
8528.5000    7.8844   11.5799  324.5992   -0.0103    2.6905 -999.0000   48.4861 
8529.0000    7.8869   13.1512  349.6146   -0.0102    2.6945 -999.0000   48.4064 
8529.5000    7.8741   13.9303  376.5577   -0.0127    2.6962 -999.0000   48.4861 
8530.0000    7.8579   11.6496  411.6443   -0.0115    2.6969 -999.0000   48.6454 
8530.5000    7.8527   10.0189  419.2360   -0.0127    2.7088 -999.0000   48.4064 
8531.0000    7.8883    9.8796  393.2609   -0.0128    2.7197 -999.0000   48.3267 
8531.5000    7.8858   10.0388  375.6985   -0.0104    2.7150 -999.0000   48.4064 
8532.0000    7.8809    9.6678  390.0402   -0.0102    2.7037 -999.0000   48.3267 
8532.5000    7.9100   11.7079  402.7154   -0.0102    2.6937 -999.0000   48.1673 
8533.0000    7.8804   11.4374  415.8026   -0.0126    2.6943 -999.0000   48.4861 
8533.5000    7.8875   11.5125  429.3150   -0.0138    2.6870 -999.0000   48.7251 
8534.0000    7.8839   12.1584  455.6508   -0.0126    2.6928 -999.0000   48.4861 
8534.5000    7.8856   12.1683  494.5937   -0.0102    2.7077 -999.0000   48.4861 
8535.0000    7.8829   12.9910  493.9903   -0.0102    2.7203 -999.0000   48.4064 
8535.5000    7.8882   10.7738  494.3393   -0.0102    2.7370 -999.0000   48.3391 
8536.0000    7.8871    9.8196  485.5378   -0.0102    2.7489 -999.0000   48.4227 
8536.5000    7.9540   10.5877  485.6754   -0.0102    2.7398 -999.0000   48.1049 
8537.0000    7.9254   10.5615  468.2234   -0.0102    2.7145 -999.0000   48.2623 
8537.5000    7.9725   12.1513  476.4465   -0.0126    2.7130 -999.0000   48.0984 
8538.0000    7.9618   13.2985  494.1823   -0.0126    2.7157 -999.0000   48.0130 
8538.5000    7.9570   14.1457  494.1823   -0.0150    2.7290 -999.0000   48.1657 
8539.0000    7.9212   14.7202  503.2962   -0.0150    2.7376 -999.0000   48.3200 
8539.5000    7.9258   14.5925  503.2962   -0.0151    2.7437 -999.0000   48.3174 
8540.0000    7.9247   15.4973  480.8198   -0.0151    2.7479 -999.0000   48.3178 
8540.5000    7.9218   16.2076  467.8187   -0.0151    2.7395 -999.0000   48.2413 
8541.0000    7.9137   15.6415  476.4465   -0.0139    2.7317 -999.0000   48.3254 
8541.5000    7.9055   15.2053  467.0487   -0.0127    2.7277 -999.0000   48.0903 
8542.0000    7.8967   14.7454  411.6148   -0.0138    2.7178 -999.0000   47.9332 
8542.5000    7.8886   14.2671  381.7252   -0.0138    2.7228 -999.0000   48.5714 
8543.0000    7.8864   13.9573  383.5253   -0.0126    2.7357 -999.0000   48.4901 
8543.5000    7.8524   13.2325  342.7068   -0.0102    2.7306 -999.0000   48.4875 
8544.0000    7.8634   13.4006  307.5137   -0.0114    2.7246 -999.0000   48.4052 
8544.5000    7.8940   14.9662  296.8010   -0.0102    2.7323 -999.0000   48.3232 
8545.0000    7.8387   15.5088  291.6276   -0.0102    2.7377 -999.0000   48.2419 
8545.5000    7.9575   15.4831  290.8897   -0.0102    2.7357 -999.0000   48.0818 
8546.0000    7.9431   15.3156  258.3099   -0.0102    2.7426 -999.0000   48.0816 
8546.5000    7.9031   14.4524  218.4690   -0.0102    2.7428 -999.0000   48.0823 
8547.0000    7.8906   13.9918  189.3305   -0.0126    2.7264 -999.0000   48.0876 
8547.5000    7.9311   14.7682  187.6084   -0.0126    2.7182 -999.0000   48.0876 
8548.0000    7.9216   14.6884  198.1809   -0.0126    2.7108 -999.0000   48.0876 
8548.5000    7.9253   14.0891  219.4216   -0.0102    2.6990 -999.0000   48.1673 
8549.0000    7.9249   13.9466  238.8512   -0.0102    2.6928 -999.0000   48.0876 
8549.5000    7.9246   15.3859  268.4156   -0.0126    2.7103 -999.0000   48.1673 
8550.0000    7.9234   15.5308  316.3999   -0.0138    2.7185 -999.0000   48.2869 
8550.5000    7.8976   15.8405  349.2155   -0.0145    2.7315 -999.0000   48.3267 
8551.0000    7.8697   17.7275  365.5399   -0.0150    2.7250 -999.0000   48.4064 
8551.5000    7.8185   18.9170  394.4605   -0.0150    2.7077 -999.0000   48.4064 
8552.0000    7.9030   19.3223  419.2360   -0.0162    2.7091 -999.0000   48.1673 
8552.5000    7.9241   18.3979  419.2360   -0.0138    2.7179 -999.0000   48.1673 
8553.0000    7.9272   15.5099  455.1692   -0.0126    2.7127 -999.0000   48.1673 
8553.5000    7.9241   14.5883  434.8421   -0.0150    2.7016 -999.0000   48.1673 
8554.0000    7.9212   15.4902  415.4228   -0.0162    2.6938 -999.0000   48.3267 
8554.5000    7.9569   16.2037  446.9268   -0.0150    2.6945 -999.0000   48.4861 
8555.0000    7.9640   17.6879  480.8198   -0.0138    2.6894 -999.0000   48.4861 
8555.5000    7.9655   18.7240  451.0291   -0.0138    2.6924 -999.0000   48.4861 
8556.0000    7.9636   18.6355  430.8869   -0.0162    2.6966 -999.0000   48.4861 
8556.5000    7.9646   18.6694  419.2360   -0.0173    2.7052 -999.0000   48.4861 
8557.0000    7.9645   18.7090  423.0842   -0.0161    2.7014 -999.0000   48.4064 
8557.5000    7.9640   20.1747  426.9677   -0.0149    2.6941 -999.0000   48.4861 
8558.0000    7.9646   20.3465  382.6274   -0.0138    2.6986 -999.0000   48.5657 
8558.5000    7.9646   21.1317  368.8952   -0.0114    2.7051 -999.0000   48.6454 
8559.0000    7.9627   21.0954  382.6274   -0.0114    2.7007 -999.0000   48.8845 
8559.5000    7.9684   22.7743  404.1900   -0.0126    2.6937 -999.0000   49.1235 
8560.0000    7.9320   25.0138  411.6443   -0.0126    2.7025 -999.0000   49.2829 
8560.5000    7.9248   25.5579  381.7543   -0.0114    2.7333 -999.0000   49.4422 
8561.0000    7.9235   25.7581  330.9634   -0.0114    2.7282 -999.0000   49.6813 
8561.5000    7.9253   26.5951  286.9301   -0.0114    2.7180 -999.0000   49.7610 
8562.0000    7.9243   27.4090  253.6323   -0.0102    2.7171 -999.0000   50.0797 
8562.5000    7.9246   25.5509  260.6810   -0.0108    2.7147 -999.0000   50.3187 
8563.0000    7.9246   24.0663  290.8897   -0.0102    2.6931 -999.0000   50.6375 
8563.5000    7.9245   24.3607  209.3492   -0.0102    2.6846 -999.0000   50.7171 
8564.0000    7.9246   23.2802  150.6656   -0.0102    2.6815 -999.0000   51.1952 
8564.5000    7.9246   20.7116  150.6656   -0.0102    2.6764 -999.0000   51.4343 
8565.0000    7.9246   14.4952  240.7529   -0.0138    2.6742 -999.0000   50.7968 
8565.5000    7.9246    9.9803  389.1292   -0.0162    2.6997 -999.0000   50.3187 
8566.0000    7.9246    8.5353  386.6942   -0.0174    2.7268 -999.0000   47.8417 
8566.5000    7.9246    9.1879  376.0136   -0.0186    2.7342 -999.0000   41.8725 
8567.0000    7.9246   10.2909  349.4163   -0.0186    2.7253 -999.0000   41.7928 
8567.5000    7.9246   11.9179  336.8667   -0.0174    2.7154 -999.0000   44.0398 
8568.0000    7.9246   11.4552  327.6849   -0.0174    2.7139 -999.0000   47.5299 
