~VERSION INFORMATION
 VERS.                 2.0:   CWLS LOG ASCII STANDARD - VERSION 2.0
 WRAP.                  NO:   SINGLE LINE PER DEPTH STEP
 CREA.                 07/23/2021 12:08:25
#CREATED USING DSPetro VERSION 10ep.4.05.01 BY H227404 ON 07/23/2021 12:08:25
~WELL INFORMATION
#MNEM.UNIT       DATA                          DESCRIPTION MNEMONIC
#---------      ---------------------------   --------------------------
 STRT    .FT        500.0000                  : START DEPTH
 STOP    .FT        9050.0000                 : STOP DEPTH
 STEP    .FT        0.5000                    : STEP VALUE
 NULL    .      -999.0000                     : NULL VALUE
 DATE    .      07/23/2021                    : LAS file Creation Date
 WELL   .      3402920607                           : Well Name
 COMP   .      TRI-STATE PRODUCING COMPANY          : Company
 FLD    .      WILDCAT                              : Field
 STATE  .      OHIO                                 : State
 COUNT  .      USA                                  : Country
 API    .      34029206070000                       : API Number
 UWI    .      34029206070000                       : Unique Well Identifier (UWI)
 LOC    .      197' FSL & 245' FEL - SW/Q SECTION 7 : Location
 EPDAT  .      1299.7                               : Elevation of Permanent Datum
 GL     .      1299.7                               : GL Elevation
 RWS    .      0                                    : Def_Rw
 WST    .      0                                    : Def_Rwt
 CNTY   .      COLUMBIANA                           : County
 PROV   .                                           : Province
 MDEC   .      0                                    : Magnetic Declination
 SRVC   .      SCH                                  : Contractor
 GDAT   .      (Undefined)                          : Geodatum
 LONG   .      -80.8510498333639                    : Longitude
 LATI   .      40.7851609999604                     : Latitude
 COORDIN.                                           : Grid System
 XCOORD .                                           : X or East-West Coordinate
 YCOORD .                                           : Y or North-South Coordinate
~CURVE INFORMATION
#MNEM              UNIT       API CODE   Curve Type Comments
#----------  --------------- ----------  ---------- -----------
 DEPTH      .FT                        : Depth       
 CALI       .IN                        : Caliper     Caliper
 GR         .GAPI                      : GammaRay    Gamma Ray
 RT         .OHMM                      :             Latero-Log 8
 NPHI       .dec                       : Neutron     
 RHOB       .G/C3                      : Density     Bulk Density
 TOC        .%                         :             TOTAL ORGANIC CARBON
 DT         .US/F                      : Time        Transit Time
~A  DEPTH    CALI       GR        RT       NPHI      RHOB      TOC        DT    
# ...
8964.5000    7.6375   21.2862   76.4105    0.0185    2.7462 -999.0000   49.0037 
8965.0000    7.6673   28.3404  149.4902    0.0149    2.7830 -999.0000   47.4658 
8965.5000    7.6888   28.9395  252.5092    0.0185    2.8281 -999.0000   45.7769 
8966.0000    7.6859   28.2099  442.8617    0.0185    2.8353 -999.0000   45.9363 
8966.5000    7.6864   24.8641  396.8707    0.0185    2.8162 -999.0000   45.8566 
8967.0000    7.6864   23.3212  443.5559    0.0161    2.8144 -999.0000   45.7769 
8967.5000    7.6875   23.3637  522.0314    0.0149    2.8335 -999.0000   45.7769 
8968.0000    7.6838   24.0894  349.2155    0.0161    2.8374 -999.0000   45.7769 
8968.5000    7.7161   24.7124  369.7823    0.0209    2.8412 -999.0000   45.9363 
8969.0000    7.7545   24.9147  410.6568    0.0234    2.8351 -999.0000   46.0956 
8969.5000    7.7990   23.4671  456.0494    0.0248    2.8427 -999.0000   45.8566 
8970.0000    7.8050   21.4894  421.5407    0.0248    2.8544 -999.0000   45.7769 
8970.5000    7.8094   21.6411  367.3479    0.0221    2.8500 -999.0000   45.7769 
8971.0000    7.8003   22.8737  320.1221    0.0209    2.8451 -999.0000   45.7769 
8971.5000    7.8364   26.6291  280.4500    0.0197    2.8409 -999.0000   45.6972 
8972.0000    7.8588   30.0133  285.6222    0.0137    2.8424 -999.0000   45.6972 
8972.5000    7.8507   30.9248  367.0125    0.0113    2.8378 -999.0000   46.2550 
8973.0000    7.7651   32.6425  476.4465    0.0113    2.8343 -999.0000   46.4940 
8973.5000    7.5553   31.2243  382.6274    0.0113    2.8170 -999.0000   46.4940 
8974.0000    7.4634   30.4926  396.5807    0.0101    2.8139 -999.0000   46.1753 
8974.5000    7.3900   31.3424  434.6832    0.0101    2.8229 -999.0000   46.0159 
8975.0000    7.5078   32.0145  459.3472    0.0131    2.8251 -999.0000   45.9363 
8975.5000    7.5252   31.2351  486.3530    0.0137    2.8275 -999.0000   45.6972 
8976.0000    7.5344   29.7341  483.9301    0.0125    2.8325 -999.0000   45.7769 
8976.5000    7.4935   29.8671  487.1887    0.0113    2.8379 -999.0000   45.8566 
8977.0000    7.4888   32.7619  439.9468    0.0101    2.8427 -999.0000   46.1733 
8977.5000    7.4871   40.7775  366.1767    0.0088    2.8465 -999.0000   46.5718 
8978.0000    7.4887   48.2411  391.9608    0.0100    2.8331 -999.0000   46.5705 
8978.5000    7.4880   55.2363  479.3537    0.0100    2.8219 -999.0000   46.6492 
8979.0000    7.4881   60.9150  465.3982    0.0088    2.8275 -999.0000   46.5690 
8979.5000    7.4881   65.4602  459.3472    0.0077    2.8296 -999.0000   46.0919 
8980.0000    7.4880   66.7926  451.0291    0.0053    2.8236 -999.0000   46.1751 
8980.5000    7.4881   53.1372  604.2111    0.0066    2.8126 -999.0000   46.3264 
8981.0000    7.4881   41.3531  495.4029    0.0090    2.8093 -999.0000   46.0159 
8981.5000    7.4881   35.2315  391.6204    0.0113    2.8065 -999.0000   45.7769 
8982.0000    7.4880   36.4996  309.5794    0.0137    2.8007 -999.0000   46.4143 
8982.5000    7.4881   35.0647  285.6222    0.0137    2.8071 -999.0000   46.4143 
8983.0000    7.4881   30.0001  339.7977    0.0161    2.8218 -999.0000   46.4940 
8983.5000    7.4879   21.2390  426.9677    0.0197    2.8447 -999.0000   46.5737 
8984.0000    7.4889   22.2605  434.8421    0.0234    2.8428 -999.0000   46.5737 
8984.5000    7.4869   24.2437  459.3472    0.0234    2.8265 -999.0000   46.5737 
8985.0000    7.4885   23.0986  434.1615    0.0209    2.8132 -999.0000   45.7769 
8985.5000    7.4952   21.9800  385.8574    0.0185    2.8069 -999.0000   45.7769 
8986.0000    7.5319   19.6945  330.5856    0.0185    2.7999 -999.0000   45.3785 
8986.5000    7.5279   18.5034  341.2274    0.0197    2.8116 -999.0000   44.9801 
8987.0000    7.5079   18.7594  380.5006    0.0161    2.8269 -999.0000   45.2191 
8987.5000    7.4880   18.5019  424.2940    0.0149    2.8341 -999.0000   44.9801 
8988.0000    7.4840   21.6328  467.8187    0.0149    2.8322 -999.0000   45.2988 
8988.5000    7.5207   24.9732  476.4465    0.0113    2.8491 -999.0000   45.0598 
8989.0000    7.5274   33.5607  512.5782    0.0089    2.8613 -999.0000   44.8207 
8989.5000    7.5289   40.3365  493.2199    0.0089    2.8691 -999.0000   45.3785 
8990.0000    7.5269   43.4720  436.4343    0.0065    2.8475 -999.0000   45.4582 
8990.5000    7.5282   48.7160  375.6985    0.0077    2.8209 -999.0000   45.3785 
8991.0000    7.5273   55.7493  376.0593    0.0089    2.7849 -999.0000   45.6175 
8991.5000    7.5282   63.0485  362.3802    0.0089    2.7894 -999.0000   46.3347 
8992.0000    7.5286   66.9210  349.1769    0.0077    2.8175 -999.0000   46.8924 
8992.5000    7.5238   65.1654  386.2893    0.0089    2.8117 -999.0000   46.8127 
8993.0000    7.5674   59.1665  459.9308    0.0113    2.8064 -999.0000   46.2550 
8993.5000    7.6118   53.9537  441.4036    0.0125    2.8137 -999.0000   45.7769 
8994.0000    7.6056   56.1022  369.8385    0.0113    2.8128 -999.0000   45.6175 
8994.5000    7.6044   59.5155  387.6742    0.0125    2.8196 -999.0000   45.6972 
8995.0000    7.5074   58.6229  451.4414    0.0137    2.8316 -999.0000   46.0159 
8995.5000    7.4117   51.7845  524.0147    0.0161    2.8426 -999.0000   45.8566 
8996.0000    7.4170   40.6147  593.2698    0.0149    2.8326 -999.0000   45.6972 
8996.5000    7.4519   37.5975  505.2314    0.0149    2.8209 -999.0000   45.3005 
8997.0000    7.4466   42.7202  451.0291    0.0137    2.7867 -999.0000   45.3013 
8997.5000    7.4493   52.3256  434.8421    0.0101    2.7964 -999.0000   45.3008 
8998.0000    7.4474   54.1710  512.8593    0.0053    2.8086 -999.0000   45.6185 
8998.5000    7.4483   47.5613  662.0203    0.0053    2.7977 -999.0000   45.6176 
8999.0000    7.4559   43.4998  597.8408    0.0053    2.8026 -999.0000   45.6175 
8999.5000    7.4922   42.8823  561.6202    0.0053    2.8045 -999.0000   45.5384 
9000.0000    7.4865   43.9067  551.4501    0.0053    2.8182 -999.0000   45.6984 
9000.5000 -999.0000 -999.0000  609.5790    0.0099    2.7914 -999.0000 -999.0000 
9001.0000 -999.0000 -999.0000  609.5790    0.0099    2.7914 -999.0000 -999.0000 
9001.5000 -999.0000 -999.0000  586.7188    0.0087    2.7854 -999.0000 -999.0000 
9002.0000 -999.0000 -999.0000  497.7715    0.0099    2.7754 -999.0000 -999.0000 
9002.5000 -999.0000 -999.0000  539.6721    0.0110    2.7754 -999.0000 -999.0000 
9003.0000 -999.0000 -999.0000  661.1957    0.0110    2.7914 -999.0000 -999.0000 
9003.5000 -999.0000 -999.0000  818.5213    0.0087    2.8073 -999.0000 -999.0000 
9004.0000 -999.0000 -999.0000  791.3404    0.0063    2.8022 -999.0000 -999.0000 
9004.5000 -999.0000 -999.0000  734.0010    0.0063    2.7970 -999.0000 -999.0000 
9005.0000 -999.0000 -999.0000  680.8164    0.0075    2.8097 -999.0000 -999.0000 
9005.5000 -999.0000 -999.0000  746.5003    0.0087    2.8073 -999.0000 -999.0000 
9006.0000 -999.0000 -999.0000  760.3788    0.0063    2.8112 -999.0000 -999.0000 
9006.5000 -999.0000 -999.0000  693.4737    0.0087    2.8178 -999.0000 -999.0000 
9007.0000 -999.0000 -999.0000  706.3663    0.0087    2.8107 -999.0000 -999.0000 
9007.5000 -999.0000 -999.0000  609.5790    0.0087    2.8063 -999.0000 -999.0000 
9008.0000 -999.0000 -999.0000  632.4555    0.0099    2.8099 -999.0000 -999.0000 
9008.5000 -999.0000 -999.0000  680.8164    0.0087    2.8115 -999.0000 -999.0000 
9009.0000 -999.0000 -999.0000  746.5003    0.0087    2.8141 -999.0000 -999.0000 
9009.5000 -999.0000 -999.0000  732.8751    0.0075    2.8046 -999.0000 -999.0000 
9010.0000 -999.0000 -999.0000  706.3663    0.0075    2.8115 -999.0000 -999.0000 
9010.5000 -999.0000 -999.0000  693.4737    0.0087    2.8226 -999.0000 -999.0000 
9011.0000 -999.0000 -999.0000  680.8164    0.0087    2.8198 -999.0000 -999.0000 
9011.5000 -999.0000 -999.0000  668.3901    0.0087    2.8017 -999.0000 -999.0000 
9012.0000 -999.0000 -999.0000  680.8164    0.0087    2.8061 -999.0000 -999.0000 
9012.5000 -999.0000 -999.0000  732.8751    0.0087    2.8335 -999.0000 -999.0000 
9013.0000 -999.0000 -999.0000  719.4987    0.0075    2.8358 -999.0000 -999.0000 
9013.5000 -999.0000 -999.0000  620.9119    0.0075    2.8259 -999.0000 -999.0000 
