~VERSION INFORMATION
 VERS.                 2.0:   CWLS LOG ASCII STANDARD - VERSION 2.0
 WRAP.                  NO:   SINGLE LINE PER DEPTH STEP
 CREA.                 07/23/2021 11:30:29
#CREATED USING DSPetro VERSION 10ep.4.05.01 BY H227404 ON 07/23/2021 11:30:29
~WELL INFORMATION
#MNEM.UNIT       DATA                          DESCRIPTION MNEMONIC
#---------      ---------------------------   --------------------------
 STRT    .FT        156.0000                  : START DEPTH
 STOP    .FT        9462.0000                 : STOP DEPTH
 STEP    .FT        0.5000                    : STEP VALUE
 NULL    .      -999.0000                     : NULL VALUE
 DATE    .      07/23/2021                    : LAS file Creation Date
 WELL   .      SNRG-0004         : Well Name
 COMP   .                        : Company
 FLD    .                        : Field
 API    .      SNRG-0004         : API Number
 UWI    .      SNRG-0004         : Unique Well Identifier (UWI)
 LOC    .                        : Location
 KB     .      1230.0            : KB Elevation
 RWS    .      0                 : Def_Rw
 WST    .      0                 : Def_Rwt
 PROV   .                        : Province
 MDEC   .      0                 : Magnetic Declination
 SRVC   .      UNKNOWN           : Contractor
 GDAT   .      WGS 84            : Geodatum
 LONG   .      -80.4115240001679 : Longitude
 LATI   .      40.7475300004747  : Latitude
 COORDIN.                        : Grid System
 XCOORD .                        : X or East-West Coordinate
 YCOORD .                        : Y or North-South Coordinate
~CURVE INFORMATION
#MNEM              UNIT       API CODE   Curve Type Comments
#----------  --------------- ----------  ---------- -----------
 DEPTH      .FT                        : Depth       
 AT10       .OHMM                      : ShalRes     12 Array Induction Two Foot Resistivity
 AT20       .OHMM                      : MedRes      13 Array Induction Two Foot Resistivity
 AT30       .OHMM                      : MedRes      14 Array Induction Two Foot Resistivity
 AT60       .OHMM                      : MedRes      15 Array Induction Two Foot Resistivity
 AT90       .OHMM                      : DeepRes     16 Array Induction Two Foot Resistivity
 GR         .API                       : GammaRay    
 PEFZ       .B/E                       : PEF         
 NPHI       .DECP                      : Neutron     neutron porosity
 RHOZ       .gm/cc                     : Density     
 DCAL       .in                        :             
 HCAL       .inch                      : Caliper     
~A  DEPTH    AT10      AT20      AT30      AT60      AT90       GR       PEFZ      NPHI      RHOZ      DCAL      HCAL   
# ...
7593.0000   21.6680   22.1120   22.7210   22.8560   22.7720  110.2580    3.9330    0.1190    2.7160   -0.2980    8.4520 
7593.5000   20.6900   21.1380   21.6370   21.9600   21.9310  112.3650    3.8910    0.1330    2.7260   -0.3130    8.4370 
7594.0000   19.7700   20.2880   20.6500   20.7970   20.7850  115.5160    3.8550    0.1330    2.7300   -0.3200    8.4300 
7594.5000   19.7180   20.4970   20.5390   20.6410   20.5400  112.5360    3.8390    0.1300    2.7280   -0.3200    8.4300 
7595.0000   19.4400   19.9080   20.3380   20.4120   20.2640  115.4040    3.8690    0.1260    2.7170   -0.3200    8.4300 
7595.5000   19.9740   20.4180   20.7180   20.8420   20.6770  115.5000    3.8650    0.1300    2.7170   -0.3270    8.4230 
7596.0000   21.2790   21.7200   22.3890   22.4720   22.3150  111.2730    3.8590    0.1210    2.7160   -0.3350    8.4150 
7596.5000   24.1920   24.6610   25.4220   25.6470   25.4370  102.9960    3.8510    0.1130    2.7240   -0.3310    8.4190 
7597.0000   22.9790   23.3100   23.9390   24.3180   24.2100  100.4910    3.9420    0.1210    2.7160   -0.3420    8.4080 
7597.5000   20.3860   20.5350   21.0460   21.6350   21.5600  102.9010    3.9860    0.1300    2.7120   -0.3640    8.3860 
7598.0000   19.8530   20.0980   20.7610   21.0700   21.1960  109.4370    3.9560    0.1260    2.7050   -0.3310    8.4190 
7598.5000   21.2780   21.2580   21.7880   22.1600   22.4220  111.0440    3.8140    0.1080    2.7120   -0.3310    8.4190 
7599.0000   22.0200   22.2980   22.8340   23.0790   23.2960  109.5350    3.7200    0.1020    2.7220   -0.3310    8.4190 
7599.5000   22.8800   23.7170   24.1920   24.1720   24.5780  107.2600    3.6620    0.0990    2.7330   -0.3350    8.4150 
7600.0000   23.7000   24.2390   24.8880   24.6790   25.1140  103.2440    3.7260    0.1020    2.7230   -0.3270    8.4230 
7600.5000   23.2940   23.9190   24.3990   24.5110   24.5050  102.9000    3.8150    0.1080    2.7090   -0.3050    8.4450 
7601.0000   21.4210   21.9220   22.2740   22.5620   22.3510  105.1950    3.8940    0.1210    2.7030   -0.3200    8.4300 
7601.5000   20.1200   20.4870   20.9940   21.3180   21.1470  108.9880    3.8810    0.1280    2.7160   -0.3570    8.3930 
7602.0000   20.9330   21.3150   21.7510   22.1420   21.8690  113.1170    3.8380    0.1260    2.7270   -0.3530    8.3970 
7602.5000   21.5730   21.9770   22.6740   22.9100   22.7180  110.8220    3.8230    0.1140    2.7290   -0.3310    8.4190 
7603.0000   22.2780   22.7490   23.4230   23.5850   23.4350  106.3230    3.8150    0.1050    2.7300   -0.3420    8.4080 
7603.5000   23.6940   24.1580   24.8210   24.8180   24.5050  103.1290    3.8290    0.1010    2.7230   -0.3420    8.4080 
7604.0000   24.5440   24.8930   25.0230   24.8570   24.8490  105.4240    3.7820    0.1050    2.7310   -0.3200    8.4300 
7604.5000   23.2160   23.7680   24.1440   24.0250   24.1710  105.1950    3.8140    0.1170    2.7240   -0.3350    8.4150 
7605.0000   22.0930   22.6490   22.9100   22.8890   22.9840  108.5220    3.8440    0.1270    2.7220   -0.3350    8.4150 
7605.5000   22.3320   23.2900   23.8760   23.9230   23.8090  102.6540    3.9200    0.1290    2.7060   -0.3420    8.4080 
7606.0000   24.9610   25.3890   26.0250   26.1100   25.8120  101.4090    3.9430    0.1150    2.7040   -0.3420    8.4080 
7606.5000   28.1760   28.0890   29.8450   29.8990   29.4090   93.0420    4.0360    0.1010    2.7030   -0.3530    8.3970 
7607.0000   32.0780   32.0620   33.4820   33.9330   32.9640   87.7670    4.3110    0.0800    2.6970   -0.3420    8.4080 
7607.5000   37.7720   37.9710   40.2000   40.3830   38.8710   81.5710    4.5920    0.0660    2.7020   -0.3420    8.4080 
7608.0000   42.9940   43.5090   44.0310   43.9850   43.2500   78.9240    4.6720    0.0500    2.7200   -0.3130    8.4370 
7608.5000   40.3590   41.5300   43.3800   43.4020   42.4450   81.7910    4.4380    0.0510    2.7450   -0.3270    8.4230 
7609.0000   31.2910   31.6450   33.2610   32.6230   32.7780   90.1660    4.1700    0.0710    2.7460   -0.3130    8.4370 
7609.5000   23.5230   24.0450   24.4480   24.5070   24.6900  106.0930    4.0160    0.0990    2.7390   -0.2980    8.4520 
7610.0000   19.4600   19.9620   20.0290   19.9880   20.1350  113.5660    3.9720    0.1240    2.7370   -0.3310    8.4190 
7610.5000   19.1640   19.6500   19.9820   19.9730   19.9710  115.0400    3.9230    0.1280    2.7440   -0.3350    8.4150 
7611.0000   19.8200   20.8610   20.7590   20.6890   20.6820  110.8160    3.8900    0.1220    2.7380   -0.3090    8.4410 
7611.5000   20.4520   20.9070   21.2910   21.2130   21.2430  111.3750    3.8720    0.1130    2.7300   -0.3200    8.4300 
7612.0000   21.0750   21.6840   22.0110   22.1740   22.0440  113.8020    3.8830    0.1110    2.7200   -0.3130    8.4370 
7612.5000   20.9470   20.9150   21.3280   21.5790   21.4820  112.2920    3.8910    0.1100    2.7170   -0.2980    8.4520 
7613.0000   19.9120   19.9540   20.6070   20.8660   20.7040  107.4880    3.9310    0.1150    2.7140   -0.3130    8.4370 
7613.5000   18.6660   18.8250   19.4050   19.7920   19.6250  111.2530    4.0000    0.1290    2.7160   -0.3200    8.4300 
7614.0000   17.5140   17.6900   18.0330   18.6610   18.7380  114.8280    4.0810    0.1420    2.7170   -0.3200    8.4300 
7614.5000   17.0180   17.2600   17.7330   18.0640   18.2810  122.1510    4.1270    0.1510    2.7150   -0.3310    8.4190 
7615.0000   17.1220   17.5530   17.8650   18.2090   18.4190  123.3320    4.1020    0.1490    2.7110   -0.3310    8.4190 
7615.5000   18.2850   18.8800   18.9600   19.5120   19.6800  120.5790    4.0250    0.1480    2.7140   -0.3310    8.4190 
7616.0000   19.6810   20.3270   20.6820   20.8880   21.0930  114.1570    3.9510    0.1370    2.7290   -0.3090    8.4410 
7616.5000   21.2720   21.8900   22.2710   22.1450   22.3340  104.8500    3.8680    0.1250    2.7370   -0.2760    8.4740 
7617.0000   22.8600   23.1220   23.6110   23.7120   23.8890   98.4250    3.8060    0.1080    2.7350   -0.2980    8.4520 
7617.5000   24.2530   24.6560   24.8520   24.9120   24.9780   96.8200    3.7350    0.1010    2.7230   -0.3310    8.4190 
7618.0000   25.3930   25.7390   26.0950   26.0810   26.1040   94.6190    3.7290    0.0910    2.7120   -0.3270    8.4230 
7618.5000   23.8750   24.5210   24.8800   24.8080   24.7090  103.6830    3.7500    0.0950    2.7030   -0.3420    8.4080 
7619.0000   21.3610   21.7840   22.1720   22.2920   22.1910  110.3350    3.7700    0.1060    2.7010   -0.3130    8.4370 
7619.5000   19.5050   19.8040   20.0850   20.2040   20.0220  120.1070    3.7610    0.1250    2.7050   -0.3090    8.4410 
7620.0000   19.9480   20.0770   20.2990   20.6800   20.5190  112.7480    3.7280    0.1220    2.7100   -0.3130    8.4370 
7620.5000   21.6570   22.0450   22.2830   22.3870   22.1940  109.8990    3.6700    0.1190    2.7150   -0.2910    8.4590 
7621.0000   22.2340   22.2230   22.2210   22.1650   22.0290  107.5470    3.6800    0.1130    2.7080   -0.3200    8.4300 
7621.5000   21.2800   21.2470   21.4100   21.4830   21.1270  106.7600    3.7560    0.1150    2.6980   -0.3200    8.4300 
7622.0000   21.3140   21.4140   21.7750   21.8760   21.5100  104.6780    3.8580    0.1080    2.6830   -0.3640    8.3860 
7622.5000   23.1110   23.2180   23.2740   23.5070   22.8550  101.1780    3.9070    0.1030    2.6740   -0.3490    8.4010 
7623.0000   25.2260   25.5200   25.8060   26.0100   25.2960   98.4270    3.9360    0.0980    2.6670   -0.3530    8.3970 
7623.5000   27.5080   28.0610   28.5590   28.4570   27.9550   94.8720    4.0040    0.0970    2.6680   -0.3530    8.3970 
7624.0000   30.5250   30.3110   30.4690   30.6560   29.9330   85.5780    4.0930    0.0910    2.6790   -0.3750    8.3750 
7624.5000   33.3560   33.0090   33.4750   33.0180   32.6570   92.5570    4.1620    0.0880    2.6970   -0.4000    8.3500 
7625.0000   30.5460   30.3730   31.1090   31.1490   30.7060  111.3010    4.1790    0.0940    2.7220   -0.3750    8.3750 
7625.5000   23.7840   23.2860   23.6050   23.5870   23.3930  127.9370    4.1290    0.1060    2.7340   -0.3710    8.3790 
7626.0000   18.8300   18.8390   19.1810   19.2580   19.2110  135.2980    4.0500    0.1290    2.7450   -0.3310    8.4190 
