~VERSION INFORMATION
 VERS.                 2.0:   CWLS LOG ASCII STANDARD - VERSION 2.0
 WRAP.                  NO:   SINGLE LINE PER DEPTH STEP
 CREA.                 07/23/2021 12:08:25
#CREATED USING DSPetro VERSION 10ep.4.05.01 BY H227404 ON 07/23/2021 12:08:25
~WELL INFORMATION
#MNEM.UNIT       DATA                          DESCRIPTION MNEMONIC
#---------      ---------------------------   --------------------------
 STRT    .FT        500.0000                  : START DEPTH
 STOP    .FT        9050.0000                 : STOP DEPTH
 STEP    .FT        0.5000                    : STEP VALUE
 NULL    .      -999.0000                     : NULL VALUE
 DATE    .      07/23/2021                    : LAS file Creation Date
 WELL   .      3402920607                           : Well Name
 COMP   .      TRI-STATE PRODUCING COMPANY          : Company
 FLD    .      WILDCAT                              : Field
 STATE  .      OHIO                                 : State
 COUNT  .      USA                                  : Country
 API    .      34029206070000                       : API Number
 UWI    .      34029206070000                       : Unique Well Identifier (UWI)
 LOC    .      197' FSL & 245' FEL - SW/Q SECTION 7 : Location
 EPDAT  .      1299.7                               : Elevation of Permanent Datum
 GL     .      1299.7                               : GL Elevation
 RWS    .      0                                    : Def_Rw
 WST    .      0                                    : Def_Rwt
 CNTY   .      COLUMBIANA                           : County
 PROV   .                                           : Province
 MDEC   .      0                                    : Magnetic Declination
 SRVC   .      SCH                                  : Contractor
 GDAT   .      (Undefined)                          : Geodatum
 LONG   .      -80.8510498333639                    : Longitude
 LATI   .      40.7851609999604                     : Latitude
 COORDIN.                                           : Grid System
 XCOORD .                                           : X or East-West Coordinate
 YCOORD .                                           : Y or North-South Coordinate
~CURVE INFORMATION
#MNEM              UNIT       API CODE   Curve Type Comments
#----------  --------------- ----------  ---------- -----------
 DEPTH      .FT                        : Depth       
 CALI       .IN                        : Caliper     Caliper
 GR         .GAPI                      : GammaRay    Gamma Ray
 RT         .OHMM                      :             Latero-Log 8
 NPHI       .dec                       : Neutron     
 RHOB       .G/C3                      : Density     Bulk Density
 TOC        .%                         :             TOTAL ORGANIC CARBON
 DT         .US/F                      : Time        Transit Time
~A  DEPTH    CALI       GR        RT       NPHI      RHOB      TOC        DT    
# ...
8420.0000    7.6427   11.1266  416.0534   -0.0073    2.7201 -999.0000   48.8446 
8420.5000    7.6421   10.1128  513.2001   -0.0066    2.7153 -999.0000   48.6454 
8421.0000    7.6416   11.0709  481.9460   -0.0066    2.7117 -999.0000   48.4861 
8421.5000    7.6410   11.3446  467.7007   -0.0066    2.7247 -999.0000   48.4861 
8422.0000    7.6405   12.3803  512.0686   -0.0055    2.7267 -999.0000   48.4462 
8422.5000    7.6399   13.3186  504.3148   -0.0055    2.7256 -999.0000   48.3267 
8423.0000    7.6394   13.3569  441.8127   -0.0067    2.7221 -999.0000   48.4490 
8423.5000    7.6389   10.3615  383.5473   -0.0078    2.7150 -999.0000   48.7263 
8424.0000    7.6383   10.7991  419.6058   -0.0090    2.7222 -999.0000   48.8035 
8424.5000    7.6378   11.3935  460.0082   -0.0090    2.7331 -999.0000   48.7211 
8425.0000    7.6372   13.4829  513.6973   -0.0078    2.7591 -999.0000   48.7191 
8425.5000    7.6367   14.9055  531.6590   -0.0078    2.7516 -999.0000   48.7977 
8426.0000    7.6361   14.1800  504.3089   -0.0072    2.7363 -999.0000   48.7975 
8426.5000    7.6356   14.6592  429.2365   -0.0066    2.6927 -999.0000   48.7981 
8427.0000    7.6351   15.3875  365.3395   -0.0054    2.6840 -999.0000   48.8845 
8427.5000    7.6345   14.6913  310.9544   -0.0042    2.6933 -999.0000   48.9641 
8428.0000    7.6340   13.6900  265.4886   -0.0042    2.7038 -999.0000   49.1633 
8428.5000    7.6334   13.0046  251.3254   -0.0042    2.7151 -999.0000   49.2829 
8429.0000    7.6329   13.1418  267.5928   -0.0042    2.7257 -999.0000   48.9243 
8429.5000    7.6323   13.1054  339.9965   -0.0042    2.7345 -999.0000   48.5657 
8430.0000    7.6318   12.8834  419.2360   -0.0042    2.7459 -999.0000   48.5657 
8430.5000    7.6313   12.3200  442.8617   -0.0066    2.7512 -999.0000   48.6454 
8431.0000    7.6307   12.4956  451.0291   -0.0084    2.7525 -999.0000   48.5259 
8431.5000    7.6302   13.0036  451.0291   -0.0102    2.7470 -999.0000   48.3267 
8432.0000    7.6296   11.9134  459.3472   -0.0090    2.7349 -999.0000   48.3267 
8432.5000    7.6291   10.5606  459.3472   -0.0102    2.7278 -999.0000   48.4861 
8433.0000    7.6285   10.7541  367.4151   -0.0102    2.7459 -999.0000   48.3267 
8433.5000    7.6280   10.9361  300.9472   -0.0102    2.7620 -999.0000   48.1673 
8434.0000    7.6275   10.8535  237.9177   -0.0102    2.7661 -999.0000   48.1275 
8434.5000    7.6269   11.4783  229.3791   -0.0102    2.7548 -999.0000   47.8474 
8435.0000    7.6264   12.6643  242.3055   -0.0108    2.7333 -999.0000   48.0079 
8435.5000    7.6258   13.7410  290.8897   -0.0114    2.7158 -999.0000   48.0089 
8436.0000    7.6253   13.9240  280.4500   -0.0108    2.7115 -999.0000   48.2886 
8436.5000    7.6247   13.4348  265.4886   -0.0114    2.6918 -999.0000   48.2485 
8437.0000    7.6242   14.0449  275.3714   -0.0114    2.6958 -999.0000   48.4072 
8437.5000    7.6236   15.1356  368.8952   -0.0102    2.7091 -999.0000   48.5655 
8438.0000    7.6231   16.1898  362.2151   -0.0090    2.7136 -999.0000   48.2455 
8438.5000    7.6226   20.0520  345.2811   -0.0078    2.7120 -999.0000   48.1673 
8439.0000    7.6220   21.9585  300.7273   -0.0060    2.7112 -999.0000   48.2072 
8439.5000    7.6215   24.1988  261.9225   -0.0042    2.7035 -999.0000   48.3267 
8440.0000    7.6209   24.0800  237.9177   -0.0042    2.7032 -999.0000   48.5657 
8440.5000    7.6204   21.9985  362.2151   -0.0042    2.7125 -999.0000   49.4157 
8441.0000    7.6198   21.2548  436.1552   -0.0060    2.7234 -999.0000   50.1594 
8441.5000    7.6193   18.8475  512.5782   -0.0078    2.7228 -999.0000   50.3984 
8442.0000    7.6188   18.5493  512.5782   -0.0078    2.7209 -999.0000   50.1195 
8442.5000    7.6182   17.5582  522.0314   -0.0090    2.7284 -999.0000   49.7789 
8443.0000    7.6177   17.1065  541.4641   -0.0102    2.7336 -999.0000   49.0585 
8443.5000    7.6171   16.4432  571.9778   -0.0102    2.7385 -999.0000   49.2146 
8444.0000    7.6166   16.2534  593.2698   -0.0102    2.7311 -999.0000   49.2907 
8444.5000    7.6160   16.1686  615.3543   -0.0102    2.7174 -999.0000   49.2874 
8445.0000    7.6155   14.5860  615.3543   -0.0102    2.7088 -999.0000   49.0855 
8445.5000    7.6150   14.0152  615.3543   -0.0126    2.6911 -999.0000   48.9645 
8446.0000    7.6144   14.8463  615.3543   -0.0126    2.6877 -999.0000   49.0043 
8446.5000    7.6139   16.1464  650.0320   -0.0126    2.6535 -999.0000   49.0438 
8447.0000    7.6133   16.8316  650.0320   -0.0102    2.6596 -999.0000   48.9641 
8447.5000    7.6128   16.9606  626.7029   -0.0102    2.6935 -999.0000   48.9641 
8448.0000    7.6122   16.4868  604.2111   -0.0102    2.7022 -999.0000   48.9243 
8448.5000    7.6117   18.5830  571.9778   -0.0090    2.7043 -999.0000   48.8845 
8449.0000    7.6112   18.4483  582.5266   -0.0078    2.7120 -999.0000   49.0837 
8449.5000    7.6106   16.3357  638.2609   -0.0066    2.7161 -999.0000   49.2032 
8450.0000    7.6101   14.9542  571.9778   -0.0081    2.7119 -999.0000   49.2950 
8450.5000    7.6095   11.0724  541.4641   -0.0093    2.7010 -999.0000   49.2663 
8451.0000    7.6090   11.5558  579.8713   -0.0105    2.6915 -999.0000   48.9728 
8451.5000    7.6084   12.2903  650.0320   -0.0117    2.6851 -999.0000   48.4804 
8452.0000    7.6079   13.1425  655.9988   -0.0126    2.6919 -999.0000   48.6478 
8452.5000    7.6073   12.9790  674.2296   -0.0126    2.6938 -999.0000   48.8061 
8453.0000    7.6072   14.5118  668.0970   -0.0102    2.6995 -999.0000   49.0454 
8453.5000    7.6070   16.0214  582.5266   -0.0114    2.7023 -999.0000   49.0461 
8454.0000    7.6071   19.6271  377.7639   -0.0102    2.7024 -999.0000   48.7251 
8454.5000    7.6075   22.9393  201.0995   -0.0078    2.7003 -999.0000   48.7251 
8455.0000    7.6058   29.7948  156.2742   -0.0054    2.6883 -999.0000   48.9641 
8455.5000    7.6089   31.8026  162.0915   -0.0054    2.6712 -999.0000   50.7171 
8456.0000    7.6097   26.2922  296.2545   -0.0078    2.6754 -999.0000   51.9124 
8456.5000    7.6841   18.9102  686.6640   -0.0090    2.6861 -999.0000   52.2311 
8457.0000    7.6836   12.8692  680.4184   -0.0102    2.6979 -999.0000   51.3546 
8457.5000    7.6861   12.3361  604.2111   -0.0102    2.6991 -999.0000   50.0797 
8458.0000    7.6973   11.4302  609.7573   -0.0102    2.6969 -999.0000   48.9719 
8458.5000    7.7274   11.2025  638.2609   -0.0102    2.7179 -999.0000   48.8103 
8459.0000    7.8382   16.7741  482.5804   -0.0102    2.7421 -999.0000   48.7221 
8459.5000    7.9375   20.5793  302.8229   -0.0102    2.7519 -999.0000   48.6272 
8460.0000    8.0875   21.7085  112.0846   -0.0070    2.7542 -999.0000   48.5290 
8460.5000    8.0799   26.3273  120.9027   -0.0040    2.7361 -999.0000   49.3945 
8461.0000    8.0860   31.9739  208.1912   -0.0019    2.7181 -999.0000   51.2093 
8461.5000    8.2259   24.7766  351.4043   -0.0030    2.7231 -999.0000   51.8402 
8462.0000    8.3712   17.3161  576.9834   -0.0066    2.7152 -999.0000   52.0717 
8462.5000    8.4859   10.8116  761.4024   -0.0078    2.7077 -999.0000   51.3546 
8463.0000    8.9918   10.2303  732.0619   -0.0066    2.6968 -999.0000   49.6016 
8463.5000    9.0044    9.2193  735.2997   -0.0066    2.6964 -999.0000   48.4861 
8464.0000    9.0000    9.2375  733.2031   -0.0078    2.6958 -999.0000   48.4861 
8464.5000    9.0185   10.3094  699.1093   -0.0090    2.7143 -999.0000   48.4861 
8465.0000    9.1306   11.7218  679.2142   -0.0090    2.7406 -999.0000   48.4861 
8465.5000    9.0782   12.5990  606.4337   -0.0090    2.7164 -999.0000   48.4064 
8466.0000    9.0781   14.5780  617.9286   -0.0078    2.6954 -999.0000   48.3267 
8466.5000    9.0756   15.6812  612.6697   -0.0078    2.6907 -999.0000   48.3267 
8467.0000    9.0685   14.3708  618.2794   -0.0066    2.6770 -999.0000   48.2470 
8467.5000    9.1296   13.8102  548.9324   -0.0066    2.6843 -999.0000   48.3267 
8468.0000    9.1415   14.0556  524.7410   -0.0078    2.7009 -999.0000   48.4064 
8468.5000    9.0811   13.0703  436.2119   -0.0078    2.7043 -999.0000   48.4861 
8469.0000    9.0740   11.9275  437.7185   -0.0054    2.7126 -999.0000   48.8845 
