~VERSION INFORMATION
 VERS.                 2.0:   CWLS LOG ASCII STANDARD - VERSION 2.0
 WRAP.                  NO:   SINGLE LINE PER DEPTH STEP
 CREA.                 07/23/2021 12:08:25
#CREATED USING DSPetro VERSION 10ep.4.05.01 BY H227404 ON 07/23/2021 12:08:25
~WELL INFORMATION
#MNEM.UNIT       DATA                          DESCRIPTION MNEMONIC
#---------      ---------------------------   --------------------------
 STRT    .FT        500.0000                  : START DEPTH
 STOP    .FT        9050.0000                 : STOP DEPTH
 STEP    .FT        0.5000                    : STEP VALUE
 NULL    .      -999.0000                     : NULL VALUE
 DATE    .      07/23/2021                    : LAS file Creation Date
 WELL   .      3402920607                           : Well Name
 COMP   .      TRI-STATE PRODUCING COMPANY          : Company
 FLD    .      WILDCAT                              : Field
 STATE  .      OHIO                                 : State
 COUNT  .      USA                                  : Country
 API    .      34029206070000                       : API Number
 UWI    .      34029206070000                       : Unique Well Identifier (UWI)
 LOC    .      197' FSL & 245' FEL - SW/Q SECTION 7 : Location
 EPDAT  .      1299.7                               : Elevation of Permanent Datum
 GL     .      1299.7                               : GL Elevation
 RWS    .      0                                    : Def_Rw
 WST    .      0                                    : Def_Rwt
 CNTY   .      COLUMBIANA                           : County
 PROV   .                                           : Province
 MDEC   .      0                                    : Magnetic Declination
 SRVC   .      SCH                                  : Contractor
 GDAT   .      (Undefined)                          : Geodatum
 LONG   .      -80.8510498333639                    : Longitude
 LATI   .      40.7851609999604                     : Latitude
 COORDIN.                                           : Grid System
 XCOORD .                                           : X or East-West Coordinate
 YCOORD .                                           : Y or North-South Coordinate
~CURVE INFORMATION
#MNEM              UNIT       API CODE   Curve Type Comments
#----------  --------------- ----------  ---------- -----------
 DEPTH      .FT                        : Depth       
 CALI       .IN                        : Caliper     Caliper
 GR         .GAPI                      : GammaRay    Gamma Ray
 RT         .OHMM                      :             Latero-Log 8
 NPHI       .dec                       : Neutron     
 RHOB       .G/C3                      : Density     Bulk Density
 TOC        .%                         :             TOTAL ORGANIC CARBON
 DT         .US/F                      : Time        Transit Time
~A  DEPTH    CALI       GR        RT       NPHI      RHOB      TOC        DT    
# ...
8321.0000    7.8642   20.4007  251.0806   -0.0066    2.7366 -999.0000   49.2773 
8321.5000    7.8657   21.1030  243.5782   -0.0078    2.7380 -999.0000   49.2808 
8322.0000    7.8671   20.9814  236.3001   -0.0078    2.7574 -999.0000   49.2849 
8322.5000    7.8686   21.1399  229.2394   -0.0078    2.7648 -999.0000   49.2032 
8323.0000    7.8700   20.2149  222.3897   -0.0066    2.7533 -999.0000   49.2829 
8323.5000    7.8715   19.3760  213.2101   -0.0054    2.7359 -999.0000   49.3625 
8324.0000    7.8730   19.0793  223.6784   -0.0054    2.7215 -999.0000   49.4422 
8324.5000    7.8744   19.0178  251.4435   -0.0030    2.7219 -999.0000   49.3625 
8325.0000    7.8759   19.3315  282.6551   -0.0036    2.7334 -999.0000   49.2430 
8325.5000    7.8773   18.5628  301.7181   -0.0042    2.7406 -999.0000   49.1235 
8326.0000    7.8788   18.4712  301.7181   -0.0030    2.7400 -999.0000   49.3539 
8326.5000    7.8803   18.4070  296.2545   -0.0031    2.7386 -999.0000   49.4335 
8327.0000    7.8817   18.6464  324.1250   -0.0031    2.7356 -999.0000   49.3548 
8327.5000    7.8832   18.7132  349.2155   -0.0032    2.7338 -999.0000   49.1973 
8328.0000    7.8846   18.6390  349.2155   -0.0032    2.7347 -999.0000   48.9602 
8328.5000    7.8861   20.9006  339.0286   -0.0019    2.7261 -999.0000   49.0419 
8329.0000    7.8875   22.5064  328.8984   -0.0019    2.7152 -999.0000   49.2029 
8329.5000    7.8890   22.6048  318.7212   -0.0019    2.7081 -999.0000   49.5229 
8330.0000    7.8905   23.0925  312.9496   -0.0031    2.7209 -999.0000   49.7628 
8330.5000    7.8919   25.1295  307.2826   -0.0019    2.7355 -999.0000   49.9229 
8331.0000    7.8934   25.8259  301.7181   -0.0030    2.7434 -999.0000   50.1628 
8331.5000    7.8948   25.8174  296.2545   -0.0019    2.7522 -999.0000   50.2427 
8332.0000    7.8963   25.8018  280.4500   -0.0019    2.7504 -999.0000   50.3222 
8332.5000    7.8978   25.6316  270.3849   -0.0019    2.7584 -999.0000   50.4006 
8333.0000    7.8992   24.9841  265.4886   -0.0007    2.7653 -999.0000   50.6377 
8333.5000    7.9007   24.3247  265.4886   -0.0007    2.7556 -999.0000   50.7944 
8334.0000    7.9021   22.2107  274.5925   -0.0019    2.7555 -999.0000   50.7171 
8334.5000    7.9036   20.2122  304.1956   -0.0030    2.7557 -999.0000   50.5578 
8335.0000    7.9051   18.1125  336.9902   -0.0066    2.7401 -999.0000   49.8406 
8335.5000    7.9065   15.9379  373.3203   -0.0066    2.7319 -999.0000   49.2829 
8336.0000    7.9080   17.7956  432.3697   -0.0042    2.7540 -999.0000   48.8048 
8336.5000    7.9094   20.7286  382.1578   -0.0030    2.7468 -999.0000   48.6454 
8337.0000    7.9109   25.0097  292.9219   -0.0007    2.7320 -999.0000   48.9641 
8337.5000    7.9123   29.0120  224.3150    0.0023    2.7376 -999.0000   49.5219 
8338.0000    7.9138   30.1637  129.4052    0.0053    2.7442 -999.0000   50.4948 
8338.5000    7.9153   30.5392  130.6689    0.0041    2.7390 -999.0000   51.4535 
8339.0000    7.9167   28.6118  180.2214    0.0005    2.7204 -999.0000   51.6117 
8339.5000    7.9182   25.9521  241.9634   -0.0007    2.7081 -999.0000   50.9701 
8340.0000    7.9197   24.3078  336.6824   -0.0019    2.7195 -999.0000   50.2948 
8340.5000    7.9211   24.6085  312.0074   -0.0007    2.7377 -999.0000   49.6833 
8341.0000    7.9225   25.0138  260.6810   -0.0007    2.7336 -999.0000   49.7572 
8341.5000    7.9245   24.9481  255.9604   -0.0007    2.7234 -999.0000   50.1594 
8342.0000    7.9199   25.0824  251.3254    0.0005    2.7283 -999.0000   50.4781 
8342.5000    7.9104   24.5473  258.9664    0.0017    2.7362 -999.0000   50.6375 
8343.0000    7.9015   24.3885  265.5964    0.0005    2.7301 -999.0000   50.7968 
8343.5000    7.8928   22.5596  272.3962   -0.0019    2.7267 -999.0000   50.8765 
8344.0000    7.8838   20.4646  280.4500   -0.0042    2.7303 -999.0000   50.7171 
8344.5000    7.8750   16.1082  352.9446   -0.0066    2.7271 -999.0000   50.0797 
8345.0000    7.8661   15.5689  348.7372   -0.0066    2.7335 -999.0000   49.7610 
8345.5000    7.8572   14.8332  276.1967   -0.0066    2.7328 -999.0000   48.9641 
8346.0000    7.8483   14.2745  218.7453   -0.0054    2.7173 -999.0000   48.7251 
8346.5000    7.8395   14.0195  171.2260   -0.0054    2.7046 -999.0000   48.7251 
8347.0000    7.8306   14.3768  174.3838   -0.0054    2.7091 -999.0000   48.7251 
8347.5000    7.8217   13.7790  222.4642   -0.0066    2.7184 -999.0000   48.7251 
8348.0000    7.8129   14.2947  286.0400   -0.0066    2.7150 -999.0000   48.7251 
8348.5000    7.8040   14.6721  307.2826   -0.0066    2.7219 -999.0000   48.7251 
8349.0000    7.7951   15.4374  301.7181   -0.0066    2.7206 -999.0000   48.8048 
8349.5000    7.7863   16.3509  285.6222   -0.0066    2.7229 -999.0000   48.9641 
8350.0000    7.7774   16.4084  270.3849   -0.0066    2.7257 -999.0000   49.0438 
8350.5000    7.7685   17.3693  260.6810   -0.0066    2.7400 -999.0000   48.6454 
8351.0000    7.7596   18.4913  265.4886   -0.0066    2.7335 -999.0000   48.7251 
8351.5000    7.7508   17.1069  270.3849   -0.0066    2.7203 -999.0000   48.7251 
8352.0000    7.7418   16.9007  285.6222   -0.0066    2.7238 -999.0000   48.6454 
8352.5000    7.7328   14.4780  290.8897   -0.0078    2.7229 -999.0000   48.5657 
8353.0000    7.7286   13.8906  290.8897   -0.0072    2.7406 -999.0000   48.5657 
8353.5000    7.7385   13.9445  290.8897   -0.0078    2.7537 -999.0000   48.4861 
8354.0000    7.7482   15.7120  296.2545   -0.0090    2.7556 -999.0000   48.4064 
8354.5000    7.7583   17.2289  301.7181   -0.0090    2.7529 -999.0000   48.3267 
8355.0000    7.7682   16.8168  257.8383   -0.0090    2.7337 -999.0000   48.3267 
8355.5000    7.7782   16.2234  201.4919   -0.0090    2.7256 -999.0000   48.4064 
8356.0000    7.7882   16.6208  168.1253   -0.0096    2.7258 -999.0000   48.3267 
8356.5000    7.7981   17.8308  168.1253   -0.0114    2.7268 -999.0000   48.1673 
8357.0000    7.8081   16.9997  174.3838   -0.0090    2.7203 -999.0000   48.1609 
8357.5000    7.8181   16.5147  180.8753   -0.0103    2.7117 -999.0000   48.3221 
8358.0000    7.8280   15.5854  187.5398   -0.0121    2.7144 -999.0000   48.2049 
8358.5000    7.8379   13.3015  196.4142   -0.0127    2.7213 -999.0000   48.3269 
8359.0000    7.8491   10.8766  205.7085   -0.0156    2.7187 -999.0000   48.4487 
8359.5000    7.8634    9.0455  215.3402   -0.0162    2.7102 -999.0000   48.4106 
8360.0000    7.8775    7.8056  225.5303   -0.0156    2.7198 -999.0000   48.1729 
8360.5000    7.8918    6.7501  236.1871   -0.0149    2.7259 -999.0000   48.0944 
8361.0000    7.9060    7.6850  247.4370   -0.0149    2.7161 -999.0000   48.1357 
8361.5000    7.9202    6.6256  259.1820   -0.0138    2.7053 -999.0000   48.3365 
8362.0000    7.9348    6.7630  271.4136   -0.0120    2.7015 -999.0000   48.3780 
8362.5000    7.9484    7.1743  284.0180   -0.0114    2.6981 -999.0000   48.4986 
8363.0000    7.9632    6.8487  295.4242   -0.0090    2.7362 -999.0000   48.6977 
8363.5000    7.9617    7.1158  302.4026   -0.0078    2.7400 -999.0000   48.9754 
8364.0000    7.9593    6.0861  307.2826   -0.0096    2.7332 -999.0000   49.0926 
8364.5000    7.9562    5.8279  411.6443   -0.0114    2.7271 -999.0000   49.2093 
8365.0000    7.9535    6.6458  312.9496   -0.0127    2.6797 -999.0000   49.2032 
8365.5000    7.9508    6.8238  330.5856   -0.0139    2.6898 -999.0000   49.2032 
8366.0000    7.9480    7.6397  330.5856   -0.0133    2.6692 -999.0000   49.0438 
8366.5000    7.9452    6.9530  285.6222   -0.0127    2.7008 -999.0000   48.8048 
8367.0000    7.9424    9.1302  265.7347   -0.0127    2.7038 -999.0000   48.9641 
8367.5000    7.9397    9.1337  285.9610   -0.0127    2.7052 -999.0000   49.0438 
8368.0000    7.9369    8.5674  285.3172   -0.0114    2.6971 -999.0000   49.2829 
8368.5000    7.9341    7.5633  285.4698   -0.0090    2.7004 -999.0000   49.3625 
8369.0000    7.9314    6.6744  320.0348   -0.0090    2.7095 -999.0000   49.3625 
8369.5000    7.9285    6.5916  346.5107   -0.0090    2.7088 -999.0000   49.2829 
8370.0000    7.9260    8.0159  355.7800   -0.0114    2.6997 -999.0000   49.2430 
