~VERSION INFORMATION
 VERS.                 2.0:   CWLS LOG ASCII STANDARD - VERSION 2.0
 WRAP.                  NO:   SINGLE LINE PER DEPTH STEP
 CREA.                 07/23/2021 12:08:25
#CREATED USING DSPetro VERSION 10ep.4.05.01 BY H227404 ON 07/23/2021 12:08:25
~WELL INFORMATION
#MNEM.UNIT       DATA                          DESCRIPTION MNEMONIC
#---------      ---------------------------   --------------------------
 STRT    .FT        500.0000                  : START DEPTH
 STOP    .FT        9050.0000                 : STOP DEPTH
 STEP    .FT        0.5000                    : STEP VALUE
 NULL    .      -999.0000                     : NULL VALUE
 DATE    .      07/23/2021                    : LAS file Creation Date
 WELL   .      3402920607                           : Well Name
 COMP   .      TRI-STATE PRODUCING COMPANY          : Company
 FLD    .      WILDCAT                              : Field
 STATE  .      OHIO                                 : State
 COUNT  .      USA                                  : Country
 API    .      34029206070000                       : API Number
 UWI    .      34029206070000                       : Unique Well Identifier (UWI)
 LOC    .      197' FSL & 245' FEL - SW/Q SECTION 7 : Location
 EPDAT  .      1299.7                               : Elevation of Permanent Datum
 GL     .      1299.7                               : GL Elevation
 RWS    .      0                                    : Def_Rw
 WST    .      0                                    : Def_Rwt
 CNTY   .      COLUMBIANA                           : County
 PROV   .                                           : Province
 MDEC   .      0                                    : Magnetic Declination
 SRVC   .      SCH                                  : Contractor
 GDAT   .      (Undefined)                          : Geodatum
 LONG   .      -80.8510498333639                    : Longitude
 LATI   .      40.7851609999604                     : Latitude
 COORDIN.                                           : Grid System
 XCOORD .                                           : X or East-West Coordinate
 YCOORD .                                           : Y or North-South Coordinate
~CURVE INFORMATION
#MNEM              UNIT       API CODE   Curve Type Comments
#----------  --------------- ----------  ---------- -----------
 DEPTH      .FT                        : Depth       
 CALI       .IN                        : Caliper     Caliper
 GR         .GAPI                      : GammaRay    Gamma Ray
 RT         .OHMM                      :             Latero-Log 8
 NPHI       .dec                       : Neutron     
 RHOB       .G/C3                      : Density     Bulk Density
 TOC        .%                         :             TOTAL ORGANIC CARBON
 DT         .US/F                      : Time        Transit Time
~A  DEPTH    CALI       GR        RT       NPHI      RHOB      TOC        DT    
# ...
7974.5000    7.4881   31.3752  551.4501    0.0065    2.6835 -999.0000   53.6653 
7975.0000    7.4897   31.1979  459.3472    0.0065    2.6932 -999.0000   53.5060 
7975.5000    7.4917   32.2501  382.6274    0.0101    2.6960 -999.0000   53.7450 
7976.0000    7.4937   32.5222  382.6274    0.0101    2.6969 -999.0000   54.7012 
7976.5000    7.4957   32.9099  396.8707    0.0101    2.6907 -999.0000   55.2590 
7977.0000    7.4976   31.2393  455.8907    0.0065    2.6716 -999.0000   54.7809 
7977.5000    7.4996   29.4434  582.5266    0.0053    2.6603 -999.0000   54.1434 
7978.0000    7.5016   24.7567  738.7378    0.0041    2.6547 -999.0000   53.1873 
7978.5000    7.5036   24.0052  561.7057    0.0041    2.6675 -999.0000   52.7888 
7979.0000    7.5056   28.2452  389.6840    0.0053    2.6696 -999.0000   53.5060 
7979.5000    7.5076   30.9264  405.9814    0.0065    2.6702 -999.0000   53.9044 
7980.0000    7.5096   30.7663  527.2952    0.0077    2.6745 -999.0000   53.9841 
7980.5000    7.5116   35.2935  495.1163    0.0089    2.6805 -999.0000   54.0637 
7981.0000    7.5136   41.2747  317.7906    0.0113    2.6850 -999.0000   54.4622 
7981.5000    7.5156   54.6827  191.0683    0.0185    2.6902 -999.0000   55.6574 
7982.0000    7.5176   57.9854  187.6084    0.0234    2.6768 -999.0000   58.2072 
7982.5000    7.5196   59.2088  216.9439    0.0248    2.6599 -999.0000   59.5618 
7983.0000    7.5215   54.8902  260.6810    0.0248    2.6496 -999.0000   59.3227 
7983.5000    7.5236   52.9567  245.8275    0.0221    2.6464 -999.0000   59.2430 
7984.0000    7.5255   51.9555  223.7006    0.0209    2.6339 -999.0000   58.3665 
7984.5000    7.5276   49.2882  208.7180    0.0197    2.6348 -999.0000   58.0478 
7985.0000    7.5278   47.2264  297.8801    0.0185    2.6449 -999.0000   58.1275 
7985.5000    7.5278   41.6424  289.1183    0.0185    2.6543 -999.0000   57.8088 
7986.0000    7.5278   40.1378  185.2386    0.0137    2.6830 -999.0000   56.3745 
7986.5000    7.5278   39.1518  246.5674    0.0125    2.7002 -999.0000   56.1355 
7987.0000    7.5278   39.3784  434.8421    0.0125    2.7009 -999.0000   55.8964 
7987.5000    7.5278   38.3614  427.9442    0.0113    2.7015 -999.0000   55.6574 
7988.0000    7.5278   33.9628  419.2360    0.0077    2.6955 -999.0000   55.5777 
7988.5000    7.5278   31.0637  674.6979    0.0065    2.6877 -999.0000   54.7809 
7989.0000    7.5278   30.8419  989.6336    0.0065    2.6899 -999.0000   53.9841 
7989.5000    7.5278   25.9284  796.8329    0.0056    2.7115 -999.0000   53.6653 
7990.0000    7.5278   26.3479  686.6640    0.0056    2.7048 -999.0000   53.1873 
7990.5000    7.5278   29.6558  604.2111    0.0080    2.6903 -999.0000   53.1076 
7991.0000    7.5278   31.7295  410.4424    0.0092    2.6879 -999.0000   53.3466 
7991.5000    7.5278   36.2810  172.1096    0.0104    2.6785 -999.0000   54.5418 
7992.0000    7.5278   38.2453  212.1541    0.0176    2.6717 -999.0000   53.9841 
7992.5000    7.5278   37.6984  321.2928    0.0200    2.6659 -999.0000   58.4462 
7993.0000    7.5278   35.1246  459.0809    0.0185    2.6600 -999.0000   58.6056 
7993.5000    7.5278   32.5156  593.5903    0.0137    2.6646 -999.0000   57.4900 
7994.0000    7.5278   32.1271  742.6871    0.0113    2.6676 -999.0000   55.3402 
7994.5000    7.5278   30.6192  932.5068    0.0101    2.6568 -999.0000   53.9841 
7995.0000    7.5278   30.1941  803.2596    0.0077    2.6612 -999.0000   53.8247 
7995.5000    7.5278   27.3170  531.5453    0.0065    2.6701 -999.0000   53.4263 
7996.0000    7.5277   26.7262  563.9312    0.0065    2.6587 -999.0000   53.5060 
7996.5000    7.5278   25.6340  625.0013    0.0053    2.6571 -999.0000   53.4263 
7997.0000    7.5283   25.6553  693.4466    0.0041    2.6677 -999.0000   52.9482 
7997.5000    7.5348   24.3662  727.8681    0.0041    2.6624 -999.0000   52.7888 
7998.0000    7.5404   22.2861  724.0729    0.0041    2.6614 -999.0000   51.9920 
7998.5000    7.5465   22.3567  541.4945    0.0053    2.6602 -999.0000   52.2311 
7999.0000    7.5523   24.6102  551.4501    0.0077    2.6600 -999.0000   53.0279 
7999.5000    7.5582   33.6528  626.7029    0.0101    2.6530 -999.0000   53.6653 
8000.0000    7.5641   35.5867  621.0027    0.0106    2.6507 -999.0000   54.7012 
8000.5000    7.5700   35.9919  582.5266    0.0113    2.6527 -999.0000   54.4920 
8001.0000    7.5759   39.5686  401.3766    0.0089    2.6544 -999.0000   53.9720 
8001.5000    7.5817   47.5644  244.8228    0.0089    2.6452 -999.0000   53.3466 
8002.0000    7.5878   49.4327  149.3316    0.0161    2.6446 -999.0000   53.7450 
8002.5000    7.5936   61.3017   89.2025    0.0197    2.6500 -999.0000   55.3386 
8003.0000    7.5992   67.8997   89.5404    0.0278    2.6595 -999.0000   58.9243 
8003.5000    7.6063   71.8877   87.6211    0.0278    2.6790 -999.0000   60.3586 
8004.0000    7.5981   64.7166  164.8896    0.0234    2.6701 -999.0000   60.9163 
8004.5000    7.5817   49.3168  359.8337    0.0197    2.6458 -999.0000   59.9602 
8005.0000    7.5666   34.3862  759.5362    0.0125    2.6511 -999.0000   57.1713 
8005.5000    7.5518   24.4805  667.0643    0.0077    2.6588 -999.0000   55.0199 
8006.0000    7.5365   20.9657  586.5059    0.0065    2.6666 -999.0000   52.7092 
8006.5000    7.5214   20.1447  516.0131    0.0065    2.6762 -999.0000   53.1873 
8007.0000    7.5066   22.8776  452.2702    0.0065    2.6943 -999.0000   52.9482 
8007.5000    7.4915   24.4197  436.1449    0.0077    2.6879 -999.0000   53.1315 
8008.0000    7.4879   29.3114  354.9886    0.0053    2.6657 -999.0000   53.6653 
8008.5000    7.4880   30.5563  453.7376    0.0053    2.6710 -999.0000   53.5896 
8009.0000    7.4881   30.4185  646.2379    0.0029    2.6697 -999.0000   52.8753 
8009.5000    7.4880   27.3573  571.8406    0.0017    2.6681 -999.0000   52.8000 
8010.0000    7.4881   26.5030  613.3368    0.0029    2.6685 -999.0000   52.2455 
8010.5000    7.4881   24.9550  888.1377    0.0041    2.6695 -999.0000   52.1664 
8011.0000    7.4881   23.4324  837.2903    0.0029    2.6719 -999.0000   52.1661 
8011.5000    7.4881   21.8489  561.1409    0.0029    2.6673 -999.0000   52.1646 
8012.0000    7.4881   20.1277  562.1737    0.0029    2.6706 -999.0000   52.0029 
8012.5000    7.4881   19.3633  541.5211    0.0030    2.6775 -999.0000   52.0717 
8013.0000    7.4881   19.7622  456.2882    0.0030    2.6758 -999.0000   52.7888 
8013.5000    7.4900   21.3238  381.7937    0.0042    2.6841 -999.0000   53.3466 
8014.0000    7.4928   24.4054  413.2151    0.0066    2.6871 -999.0000   53.3466 
8014.5000    7.4955   27.5455  476.4465    0.0067    2.6965 -999.0000   53.2669 
8015.0000    7.4983   30.5192  494.1823    0.0055    2.7149 -999.0000   53.6653 
8015.5000    7.5010   31.3732  522.0314    0.0068    2.7131 -999.0000   53.7450 
8016.0000    7.5037   31.3420  561.6202    0.0092    2.7051 -999.0000   54.2286 
8016.5000    7.5065   31.8866  458.6483    0.0116    2.6662 -999.0000   54.7973 
8017.0000    7.5092   33.9504  312.9496    0.0152    2.6568 -999.0000   55.2060 
8017.5000    7.5120   39.9540  225.2254    0.0187    2.6754 -999.0000   56.1701 
8018.0000    7.5147   46.3553  185.4850    0.0210    2.6675 -999.0000   57.8481 
8018.5000    7.5174   52.7624  156.4293    0.0235    2.6709 -999.0000   58.9377 
8019.0000    7.5202   50.7070  140.0452    0.0249    2.6561 -999.0000   60.2314 
8019.5000    7.5229   46.0088  123.2289    0.0249    2.6504 -999.0000   60.7757 
8020.0000    7.5256   41.1145  285.1007    0.0240    2.6449 -999.0000   60.9163 
8020.5000    7.5284   36.3368  434.8421    0.0221    2.6583 -999.0000   60.4108 
8021.0000    7.5311   31.5357  552.8627    0.0137    2.6718 -999.0000   59.4821 
8021.5000    7.5339   26.3140  738.7378    0.0101    2.6673 -999.0000   57.5697 
8022.0000    7.5366   23.0764  705.6610    0.0053    2.6732 -999.0000   55.0996 
8022.5000    7.5393   23.4770  624.4166    0.0041    2.6840 -999.0000   53.1076 
8023.0000    7.5421   23.4212  551.4501    0.0041    2.6960 -999.0000   53.3827 
8023.5000    7.5448   23.0844  597.7316    0.0053    2.6925 -999.0000   53.6161 
