~VERSION INFORMATION
 VERS.                 2.0:   CWLS LOG ASCII STANDARD - VERSION 2.0
 WRAP.                  NO:   SINGLE LINE PER DEPTH STEP
 CREA.                 07/23/2021 12:08:25
#CREATED USING DSPetro VERSION 10ep.4.05.01 BY H227404 ON 07/23/2021 12:08:25
~WELL INFORMATION
#MNEM.UNIT       DATA                          DESCRIPTION MNEMONIC
#---------      ---------------------------   --------------------------
 STRT    .FT        500.0000                  : START DEPTH
 STOP    .FT        9050.0000                 : STOP DEPTH
 STEP    .FT        0.5000                    : STEP VALUE
 NULL    .      -999.0000                     : NULL VALUE
 DATE    .      07/23/2021                    : LAS file Creation Date
 WELL   .      3402920607                           : Well Name
 COMP   .      TRI-STATE PRODUCING COMPANY          : Company
 FLD    .      WILDCAT                              : Field
 STATE  .      OHIO                                 : State
 COUNT  .      USA                                  : Country
 API    .      34029206070000                       : API Number
 UWI    .      34029206070000                       : Unique Well Identifier (UWI)
 LOC    .      197' FSL & 245' FEL - SW/Q SECTION 7 : Location
 EPDAT  .      1299.7                               : Elevation of Permanent Datum
 GL     .      1299.7                               : GL Elevation
 RWS    .      0                                    : Def_Rw
 WST    .      0                                    : Def_Rwt
 CNTY   .      COLUMBIANA                           : County
 PROV   .                                           : Province
 MDEC   .      0                                    : Magnetic Declination
 SRVC   .      SCH                                  : Contractor
 GDAT   .      (Undefined)                          : Geodatum
 LONG   .      -80.8510498333639                    : Longitude
 LATI   .      40.7851609999604                     : Latitude
 COORDIN.                                           : Grid System
 XCOORD .                                           : X or East-West Coordinate
 YCOORD .                                           : Y or North-South Coordinate
~CURVE INFORMATION
#MNEM              UNIT       API CODE   Curve Type Comments
#----------  --------------- ----------  ---------- -----------
 DEPTH      .FT                        : Depth       
 CALI       .IN                        : Caliper     Caliper
 GR         .GAPI                      : GammaRay    Gamma Ray
 RT         .OHMM                      :             Latero-Log 8
 NPHI       .dec                       : Neutron     
 RHOB       .G/C3                      : Density     Bulk Density
 TOC        .%                         :             TOTAL ORGANIC CARBON
 DT         .US/F                      : Time        Transit Time
~A  DEPTH    CALI       GR        RT       NPHI      RHOB      TOC        DT    
# ...
7430.0000    7.7260  137.9818 -999.0000    0.0986    2.7069 -999.0000 -999.0000 
7430.5000    7.7272  137.5157 -999.0000    0.0972    2.6994 -999.0000 -999.0000 
7431.0000    7.7255  135.9390 -999.0000    0.0930    2.7052 -999.0000 -999.0000 
7431.5000    7.7265  133.3998 -999.0000    0.0932    2.7216 -999.0000 -999.0000 
7432.0000    7.7262  130.4200 -999.0000    0.0959    2.7417 -999.0000 -999.0000 
7432.5000    7.7262  129.2903 -999.0000    0.0959    2.7554 -999.0000 -999.0000 
7433.0000    7.7263  129.2744 -999.0000    0.0986    2.7730 -999.0000 -999.0000 
7433.5000    7.7262  133.1747 -999.0000    0.1042    2.7660 -999.0000 -999.0000 
7434.0000    7.7262  138.7742 -999.0000    0.1014    2.7472 -999.0000 -999.0000 
7434.5000    7.7262  139.3700 -999.0000    0.1000    2.7298 -999.0000 -999.0000 
7435.0000    7.7262  140.0555 -999.0000    0.1014    2.7139 -999.0000 -999.0000 
7435.5000    7.7261  138.6141 -999.0000    0.1000    2.7142 -999.0000 -999.0000 
7436.0000    7.7262  138.0389 -999.0000    0.1001    2.7138 -999.0000 -999.0000 
7436.5000    7.7262  135.9109 -999.0000    0.1001    2.7195 -999.0000 -999.0000 
7437.0000    7.7259  131.0582 -999.0000    0.1044    2.7328 -999.0000 -999.0000 
7437.5000    7.7269  129.6125 -999.0000    0.1059    2.7312 -999.0000 -999.0000 
7438.0000    7.7251  131.2753 -999.0000    0.1018    2.7308 -999.0000 -999.0000 
7438.5000    7.7263  134.1404 -999.0000    0.0948    2.7268 -999.0000 -999.0000 
7439.0000    7.7336  136.1097 -999.0000    0.0933    2.7145 -999.0000 -999.0000 
7439.5000    7.7701  135.4368 -999.0000    0.0933    2.7048 -999.0000 -999.0000 
7440.0000    7.7640  135.5244 -999.0000    0.0932    2.7062 -999.0000 -999.0000 
7440.5000    7.7666  133.2545 -999.0000    0.0917    2.7072 -999.0000 -999.0000 
7441.0000    7.7662  130.4605 -999.0000    0.0888    2.7039 -999.0000 -999.0000 
7441.5000    7.7643  129.2378 -999.0000    0.0873    2.6945 -999.0000 -999.0000 
7442.0000    7.7705  129.9536 -999.0000    0.0831    2.6709 -999.0000 -999.0000 
7442.5000    7.7319  131.2250 -999.0000    0.0845    2.6764 -999.0000 -999.0000 
7443.0000    7.7305  131.9080 -999.0000    0.0888    2.6883 -999.0000 -999.0000 
7443.5000    7.6930  134.9703 -999.0000    0.0902    2.6999 -999.0000 -999.0000 
7444.0000    7.6869  134.4021 -999.0000    0.0888    2.7054 -999.0000 -999.0000 
7444.5000    7.6862  126.6968 -999.0000    0.0930    2.6947 -999.0000 -999.0000 
7445.0000    7.6864  120.8188 -999.0000    0.0916    2.6913 -999.0000 -999.0000 
7445.5000    7.6848  120.4010 -999.0000    0.0803    2.7022 -999.0000 -999.0000 
7446.0000    7.6980  121.2299 -999.0000    0.0803    2.7129 -999.0000 -999.0000 
7446.5000    7.6981  123.3873 -999.0000    0.0832    2.7115 -999.0000 -999.0000 
7447.0000    7.6849  124.3607 -999.0000    0.0874    2.7019 -999.0000 -999.0000 
7447.5000    7.6859  125.1361 -999.0000    0.0916    2.7012 -999.0000 -999.0000 
7448.0000    7.6872  126.9652 -999.0000    0.0917    2.7135 -999.0000 -999.0000 
7448.5000    7.6862  128.5445 -999.0000    0.0918    2.7286 -999.0000 -999.0000 
7449.0000    7.6869  128.3143 -999.0000    0.0932    2.7246 -999.0000 -999.0000 
7449.5000    7.6845  128.3306 -999.0000    0.0960    2.7116 -999.0000 -999.0000 
7450.0000    7.7063  129.1940 -999.0000    0.0960    2.7105 -999.0000 -999.0000 
7450.5000    7.7266  134.3757 -999.0000    0.0963    2.7117 -999.0000 -999.0000 
7451.0000    7.7224  141.1310 -999.0000    0.0972    2.7124 -999.0000 -999.0000 
7451.5000    7.7205  141.6881 -999.0000    0.0930    2.7143 -999.0000 -999.0000 
7452.0000    7.7190  140.9161 -999.0000    0.0944    2.7023 -999.0000 -999.0000 
7452.5000    7.7167  137.5089 -999.0000    0.0972    2.6959 -999.0000 -999.0000 
7453.0000    7.7149  133.8309 -999.0000    0.1000    2.7047 -999.0000 -999.0000 
7453.5000    7.7129  133.8237 -999.0000    0.0986    2.7022 -999.0000 -999.0000 
7454.0000    7.7109  133.7381 -999.0000    0.1000    2.6977 -999.0000 -999.0000 
7454.5000    7.7089  136.0394 -999.0000    0.0986    2.6952 -999.0000 -999.0000 
7455.0000    7.7070  139.1479 -999.0000    0.0986    2.7032 -999.0000 -999.0000 
7455.5000    7.7050  139.2056 -999.0000    0.0986    2.7063 -999.0000 -999.0000 
7456.0000    7.7031  139.9056 -999.0000    0.0930    2.7059 -999.0000 -999.0000 
7456.5000    7.7011  140.0686 -999.0000    0.0916    2.7026 -999.0000 -999.0000 
7457.0000    7.6991  138.5128 -999.0000    0.0958    2.6988 -999.0000 -999.0000 
7457.5000    7.6972  138.2894 -999.0000    0.0958    2.6962 -999.0000 -999.0000 
7458.0000    7.6952  134.2914 -999.0000    0.0958    2.7066 -999.0000 -999.0000 
7458.5000    7.6932  131.7336 -999.0000    0.0972    2.7174 -999.0000 -999.0000 
7459.0000    7.6913  128.5281 -999.0000    0.0944    2.7181 -999.0000 -999.0000 
7459.5000    7.6893  129.4655 -999.0000    0.0902    2.7183 -999.0000 -999.0000 
7460.0000    7.6873  127.3680 -999.0000    0.0874    2.7181 -999.0000 -999.0000 
7460.5000    7.6864  125.0251 -999.0000    0.0916    2.7241 -999.0000 -999.0000 
7461.0000    7.6865  123.1520 -999.0000    0.0930    2.7234 -999.0000 -999.0000 
7461.5000    7.6865  124.3981 -999.0000    0.0916    2.7126 -999.0000 -999.0000 
7462.0000    7.6865  126.0137 -999.0000    0.0930    2.7009 -999.0000 -999.0000 
7462.5000    7.6864  127.6424 -999.0000    0.0916    2.6907 -999.0000 -999.0000 
7463.0000    7.6865  128.0287 -999.0000    0.0888    2.6972 -999.0000 -999.0000 
7463.5000    7.6866  127.3465 -999.0000    0.0902    2.7058 -999.0000 -999.0000 
7464.0000    7.6860  126.8197 -999.0000    0.0888    2.7000 -999.0000 -999.0000 
7464.5000    7.6873  126.0466 -999.0000    0.0902    2.6845 -999.0000 -999.0000 
7465.0000    7.6859  125.4323 -999.0000    0.0930    2.6647 -999.0000 -999.0000 
7465.5000    7.6850  128.5757 -999.0000    0.0916    2.6531 -999.0000 -999.0000 
7466.0000    7.6975  129.6978 -999.0000    0.0916    2.6787 -999.0000 -999.0000 
7466.5000    7.6994  131.0453 -999.0000    0.0930    2.6861 -999.0000 -999.0000 
7467.0000    7.6825  132.4773 -999.0000    0.0874    2.7023 -999.0000 -999.0000 
7467.5000    7.7139  136.4325 -999.0000    0.0846    2.7014 -999.0000 -999.0000 
7468.0000    7.7593  138.5588 -999.0000    0.0902    2.6948 -999.0000 -999.0000 
7468.5000    7.7663  137.3968 -999.0000    0.0958    2.6824 -999.0000 -999.0000 
7469.0000    7.7663  135.1299 -999.0000    0.0930    2.6773 -999.0000 -999.0000 
7469.5000    7.7655  130.2641 -999.0000    0.0916    2.6921 -999.0000 -999.0000 
7470.0000    7.7662  128.4718 -999.0000    0.0883    2.6988 -999.0000 -999.0000 
7470.5000    7.7657  128.0591 -999.0000    0.0869    2.6988 -999.0000 -999.0000 
7471.0000    7.7661  127.1960 -999.0000    0.0846    2.6948 -999.0000 -999.0000 
7471.5000    7.7660  125.8729 -999.0000    0.0803    2.7080 -999.0000 -999.0000 
7472.0000    7.7650  125.9033 -999.0000    0.0788    2.7167 -999.0000 -999.0000 
7472.5000    7.7692  125.0013 -999.0000    0.0817    2.7112 -999.0000 -999.0000 
7473.0000    7.7335  123.4984 -999.0000    0.0846    2.7016 -999.0000 -999.0000 
7473.5000    7.7341  123.6302 -999.0000    0.0860    2.7101 -999.0000 -999.0000 
7474.0000    7.7695  123.4952 -999.0000    0.0873    2.7590 -999.0000 -999.0000 
7474.5000    7.7627  122.0203 -999.0000    0.0859    2.7508 -999.0000 -999.0000 
7475.0000    7.7711  120.2311 -999.0000    0.0844    2.7174 -999.0000 -999.0000 
7475.5000    7.7336  119.3780 -999.0000    0.0844    2.6794 -999.0000 -999.0000 
7476.0000    7.7192  122.0370 -999.0000    0.0858    2.6864 -999.0000 -999.0000 
7476.5000    7.6804  123.8381 -999.0000    0.0845    2.6983 -999.0000 -999.0000 
7477.0000    7.6896  125.0282 -999.0000    0.0859    2.7027 -999.0000 -999.0000 
7477.5000    7.6874  126.3066 -999.0000    0.0874    2.7020 -999.0000 -999.0000 
7478.0000    7.6746  128.5608 -999.0000    0.0902    2.6840 -999.0000 -999.0000 
7478.5000    7.6752  130.4907 -999.0000    0.0958    2.6746 -999.0000 -999.0000 
7479.0000    7.6877  130.6360 -999.0000    0.0930    2.6718 -999.0000 -999.0000 
