~VERSION INFORMATION
 VERS.                 2.0:   CWLS LOG ASCII STANDARD - VERSION 2.0
 WRAP.                  NO:   SINGLE LINE PER DEPTH STEP
 CREA.                 07/23/2021 11:30:29
#CREATED USING DSPetro VERSION 10ep.4.05.01 BY H227404 ON 07/23/2021 11:30:29
~WELL INFORMATION
#MNEM.UNIT       DATA                          DESCRIPTION MNEMONIC
#---------      ---------------------------   --------------------------
 STRT    .FT        156.0000                  : START DEPTH
 STOP    .FT        9462.0000                 : STOP DEPTH
 STEP    .FT        0.5000                    : STEP VALUE
 NULL    .      -999.0000                     : NULL VALUE
 DATE    .      07/23/2021                    : LAS file Creation Date
 WELL   .      SNRG-0004         : Well Name
 COMP   .                        : Company
 FLD    .                        : Field
 API    .      SNRG-0004         : API Number
 UWI    .      SNRG-0004         : Unique Well Identifier (UWI)
 LOC    .                        : Location
 KB     .      1230.0            : KB Elevation
 RWS    .      0                 : Def_Rw
 WST    .      0                 : Def_Rwt
 PROV   .                        : Province
 MDEC   .      0                 : Magnetic Declination
 SRVC   .      UNKNOWN           : Contractor
 GDAT   .      WGS 84            : Geodatum
 LONG   .      -80.4115240001679 : Longitude
 LATI   .      40.7475300004747  : Latitude
 COORDIN.                        : Grid System
 XCOORD .                        : X or East-West Coordinate
 YCOORD .                        : Y or North-South Coordinate
~CURVE INFORMATION
#MNEM              UNIT       API CODE   Curve Type Comments
#----------  --------------- ----------  ---------- -----------
 DEPTH      .FT                        : Depth       
 AT10       .OHMM                      : ShalRes     12 Array Induction Two Foot Resistivity
 AT20       .OHMM                      : MedRes      13 Array Induction Two Foot Resistivity
 AT30       .OHMM                      : MedRes      14 Array Induction Two Foot Resistivity
 AT60       .OHMM                      : MedRes      15 Array Induction Two Foot Resistivity
 AT90       .OHMM                      : DeepRes     16 Array Induction Two Foot Resistivity
 GR         .API                       : GammaRay    
 PEFZ       .B/E                       : PEF         
 NPHI       .DECP                      : Neutron     neutron porosity
 RHOZ       .gm/cc                     : Density     
 DCAL       .in                        :             
 HCAL       .inch                      : Caliper     
~A  DEPTH    AT10      AT20      AT30      AT60      AT90       GR       PEFZ      NPHI      RHOZ      DCAL      HCAL   
# ...
3238.0000   20.7770   37.6990   21.6640   33.0720   26.9310  130.6660    4.2590    0.2050    2.7350   -0.1670    8.5830 
3238.5000   21.6520   32.5430   24.9300   35.5710   28.1350  132.8890    4.2240    0.1920    2.7350   -0.2320    8.5180 
3239.0000   22.1240   26.8380   23.2990   26.8790   22.9580  133.7080    4.2530    0.2120    2.7260   -0.2760    8.4740 
3239.5000   20.3490   22.5480   21.8910   24.9320   21.2840  129.8070    4.3470    0.2280    2.7190   -0.2320    8.5180 
3240.0000   19.2630   19.2830   21.1460   23.1310   21.1510  129.6920    4.4150    0.2390    2.7210   -0.2470    8.5030 
3240.5000   18.8280   17.5140   20.6980   21.8530   21.4310  130.4530    4.4380    0.2270    2.7190   -0.1300    8.6200 
3241.0000   18.1120   16.4450   20.1820   21.0760   21.1060  136.9920    4.4150    0.2360    2.7210   -0.2210    8.5290 
3241.5000   18.2020   16.2280   20.2010   21.1410   21.4890  139.0580    4.3870    0.2440    2.7210   -0.2320    8.5180 
3242.0000   18.4920   16.4220   20.4940   21.5560   22.0570  140.4340    4.2780    0.2470    2.7320   -0.2320    8.5180 
3242.5000   18.9120   16.7790   20.9400   22.2030   22.7510  139.2290    4.1730    0.2330    2.7380   -0.2100    8.5400 
3243.0000   19.8090   17.5400   22.0860   23.7650   24.0030  134.8700    4.1250    0.2150    2.7410   -0.2180    8.5320 
3243.5000   20.8280   18.4030   23.2320   25.1250   25.1320  132.6900    4.1640    0.2100    2.7290   -0.2030    8.5470 
3244.0000   21.2870   18.7850   23.6680   25.7130   25.6960  131.1410    4.2470    0.2060    2.7290   -0.1890    8.5620 
3244.5000   21.2150   18.7690   23.8200   26.1090   25.7960  130.1080    4.3040    0.2190    2.7220   -0.1450    8.6050 
3245.0000   20.9030   18.5390   23.3760   25.5470   25.5460  129.4900    4.3180    0.2110    2.7200   -0.2250    8.5250 
3245.5000   21.5550   19.2430   24.3750   26.8700   26.5400  126.3490    4.2570    0.2060    2.7170   -0.2100    8.5400 
3246.0000   22.9840   20.4930   26.0070   28.6060   28.1570  127.3830    4.1950    0.1930    2.7130   -0.2400    8.5100 
3246.5000   23.2170   20.7210   26.4700   29.4780   28.9440  126.4720    4.1590    0.1960    2.7180   -0.2100    8.5400 
3247.0000   25.0090   22.5430   28.5990   31.7360   30.9190  130.3020    4.2020    0.1940    2.7180   -0.2540    8.4960 
3247.5000   27.4930   24.9130   31.7030   35.0870   34.1930  125.2530    4.2260    0.1840    2.7250   -0.3200    8.4300 
3248.0000   28.1640   25.0050   31.6260   34.6160   33.9280  124.2150    4.2210    0.1790    2.7320   -0.2910    8.4590 
3248.5000   25.2060   22.5390   28.2920   31.4680   30.8820  120.1700    4.1680    0.1890    2.7350   -0.3200    8.4300 
3249.0000   22.7570   20.8110   25.7190   28.1760   27.9320  127.1690    4.1070    0.2180    2.7360   -0.2910    8.4590 
3249.5000   21.5280   20.0990   24.6690   27.1360   27.0460  129.6200    4.0980    0.2280    2.7240   -0.2760    8.4740 
3250.0000   20.7580   19.4280   23.5320   25.8150   25.9180  136.4190    4.0970    0.2360    2.7150   -0.2760    8.4740 
3250.5000   20.0000   18.7690   22.4770   24.5780   24.8910  133.8520    4.1370    0.2230    2.7070   -0.2760    8.4740 
3251.0000   19.4040   18.1670   21.5360   23.5630   23.7440  136.3760    4.1720    0.2260    2.7070   -0.2470    8.5030 
3251.5000   18.7860   17.8000   20.9110   22.8910   22.9230  136.7880    4.2080    0.2250    2.7110   -0.2540    8.4960 
3252.0000   18.1430   17.3930   20.3480   22.0940   22.3760  140.3500    4.2110    0.2320    2.7220   -0.2760    8.4740 
3252.5000   17.8940   17.1800   19.9310   21.6350   22.0050  141.3830    4.1980    0.2350    2.7360   -0.2430    8.5070 
3253.0000   18.0340   17.4260   20.2080   21.8120   22.3560  137.9880    4.2280    0.2370    2.7390   -0.2540    8.4960 
3253.5000   18.4490   17.8810   20.7430   22.0960   22.7600  140.2660    4.2980    0.2290    2.7340   -0.2540    8.4960 
3254.0000   18.7520   18.1580   21.0280   22.6940   23.3810  135.9060    4.3610    0.2300    2.7340   -0.2690    8.4810 
3254.5000   18.9570   18.3900   21.4020   23.1700   23.9040  137.1680    4.3530    0.2410    2.7450   -0.2400    8.5100 
3255.0000   19.2370   18.7360   21.5420   23.4630   24.1740  134.4680    4.3290    0.2610    2.7490   -0.2690    8.4810 
3255.5000   19.3870   18.8980   21.9560   23.5940   24.4410  141.5530    4.3130    0.2730    2.7430   -0.2690    8.4810 
3256.0000   19.5210   19.0430   21.9910   23.9790   24.6590  142.0120    4.3080    0.2610    2.7370   -0.2320    8.5180 
3256.5000   18.9200   18.6580   21.4730   23.3990   24.2000  142.9300    4.2720    0.2360    2.7430   -0.2250    8.5250 
3257.0000   18.6770   18.4980   21.0810   22.9170   23.6920  140.3200    4.2680    0.2190    2.7450   -0.2320    8.5180 
3257.5000   18.1050   17.9940   20.4060   22.0220   22.7690  140.5490    4.2650    0.2250    2.7400   -0.2320    8.5180 
3258.0000   17.5150   17.5400   19.6550   21.3670   21.9650  145.2320    4.2880    0.2560    2.7310   -0.2320    8.5180 
3258.5000   16.7530   16.8630   18.8490   20.3250   20.9970  140.4130    4.2940    0.2690    2.7300   -0.2250    8.5250 
3259.0000   16.6510   16.6790   18.4480   19.7560   20.5940  141.3310    4.3470    0.2520    2.7290   -0.2100    8.5400 
3259.5000   17.7660   17.7770   19.6540   21.1360   21.7530  131.9440    4.4490    0.2230    2.7260   -0.2000    8.5510 
3260.0000   18.9830   18.9720   20.9660   22.4120   23.0170  135.0120    4.5420    0.2050    2.7220   -0.2430    8.5070 
3260.5000   18.6530   18.7120   20.8110   22.3530   22.7040  131.5270    4.5180    0.2210    2.7290   -0.2620    8.4880 
3261.0000   18.7110   18.7990   20.8180   22.4070   22.8860  133.1330    4.4080    0.2310    2.7400   -0.2540    8.4960 
3261.5000   18.3230   18.4790   20.5520   21.9940   22.5910  133.9660    4.2710    0.2660    2.7530   -0.2250    8.5250 
3262.0000   17.7830   17.9510   19.8230   21.2810   21.8880  139.5160    4.2600    0.2640    2.7490   -0.2320    8.5180 
3262.5000   18.3590   18.6870   20.6830   22.2610   22.9320  143.0730    4.2600    0.2630    2.7480   -0.2320    8.5180 
3263.0000   19.3440   19.6640   21.7990   23.5890   24.2450  136.9920    4.2830    0.2260    2.7420   -0.2210    8.5290 
3263.5000   20.2940   20.6220   22.6310   24.4370   25.2490  133.9010    4.2600    0.2180    2.7440   -0.2210    8.5290 
3264.0000   20.2550   20.5260   22.5010   24.3250   25.2410  133.0980    4.2640    0.2080    2.7410   -0.2320    8.5180 
3264.5000   19.9140   20.4460   22.4530   24.3510   25.3190  136.6540    4.2690    0.2260    2.7430   -0.2180    8.5320 
3265.0000   19.5110   20.3070   22.3450   24.1280   25.0060  138.3100    4.3100    0.2280    2.7420   -0.1960    8.5540 
3265.5000   19.5110   20.2970   22.4000   24.3120   25.0980  140.4900    4.3070    0.2400    2.7500   -0.2320    8.5180 
3266.0000   20.7770   21.3910   23.5410   25.6130   26.2910  137.8090    4.2840    0.2150    2.7460   -0.2320    8.5180 
3266.5000   24.0040   24.8840   27.6280   29.9510   30.8020  131.7870    4.2420    0.1920    2.7460   -0.2980    8.4520 
3267.0000   26.6150   27.7720   30.7140   33.3290   33.9730  125.0180    4.2060    0.1810    2.7410   -0.2540    8.4960 
3267.5000   23.9840   24.3520   26.8680   29.4180   29.8700  129.9270    4.1680    0.1920    2.7460   -0.2760    8.4740 
3268.0000   21.6370   22.3590   24.6250   26.8220   27.1590  135.3200    4.1500    0.2250    2.7490   -0.2540    8.4960 
3268.5000   20.5280   21.5940   23.6160   25.9120   26.1080  136.4670    4.1740    0.2380    2.7500   -0.2650    8.4850 
3269.0000   19.6810   20.4600   22.3690   24.2750   24.7420  138.8930    4.2230    0.2460    2.7470   -0.2690    8.4810 
3269.5000   19.1670   19.9500   21.6240   23.3950   23.9490  141.3030    4.2500    0.2290    2.7450   -0.2430    8.5070 
3270.0000   18.7500   19.5330   21.1590   22.7560   23.3940  146.4660    4.2990    0.2350    2.7430   -0.2430    8.5070 
3270.5000   18.2590   19.0590   20.4480   22.2270   22.8910  145.3680    4.3130    0.2570    2.7480   -0.2620    8.4880 
3271.0000   17.7040   18.4960   19.7840   21.2240   22.0100  143.1580    4.3160    0.2710    2.7530   -0.2400    8.5100 
