~VERSION INFORMATION
 VERS.                 2.0:   CWLS LOG ASCII STANDARD - VERSION 2.0
 WRAP.                  NO:   SINGLE LINE PER DEPTH STEP
 CREA.                 07/23/2021 12:08:25
#CREATED USING DSPetro VERSION 10ep.4.05.01 BY H227404 ON 07/23/2021 12:08:25
~WELL INFORMATION
#MNEM.UNIT       DATA                          DESCRIPTION MNEMONIC
#---------      ---------------------------   --------------------------
 STRT    .FT        500.0000                  : START DEPTH
 STOP    .FT        9050.0000                 : STOP DEPTH
 STEP    .FT        0.5000                    : STEP VALUE
 NULL    .      -999.0000                     : NULL VALUE
 DATE    .      07/23/2021                    : LAS file Creation Date
 WELL   .      3402920607                           : Well Name
 COMP   .      TRI-STATE PRODUCING COMPANY          : Company
 FLD    .      WILDCAT                              : Field
 STATE  .      OHIO                                 : State
 COUNT  .      USA                                  : Country
 API    .      34029206070000                       : API Number
 UWI    .      34029206070000                       : Unique Well Identifier (UWI)
 LOC    .      197' FSL & 245' FEL - SW/Q SECTION 7 : Location
 EPDAT  .      1299.7                               : Elevation of Permanent Datum
 GL     .      1299.7                               : GL Elevation
 RWS    .      0                                    : Def_Rw
 WST    .      0                                    : Def_Rwt
 CNTY   .      COLUMBIANA                           : County
 PROV   .                                           : Province
 MDEC   .      0                                    : Magnetic Declination
 SRVC   .      SCH                                  : Contractor
 GDAT   .      (Undefined)                          : Geodatum
 LONG   .      -80.8510498333639                    : Longitude
 LATI   .      40.7851609999604                     : Latitude
 COORDIN.                                           : Grid System
 XCOORD .                                           : X or East-West Coordinate
 YCOORD .                                           : Y or North-South Coordinate
~CURVE INFORMATION
#MNEM              UNIT       API CODE   Curve Type Comments
#----------  --------------- ----------  ---------- -----------
 DEPTH      .FT                        : Depth       
 CALI       .IN                        : Caliper     Caliper
 GR         .GAPI                      : GammaRay    Gamma Ray
 RT         .OHMM                      :             Latero-Log 8
 NPHI       .dec                       : Neutron     
 RHOB       .G/C3                      : Density     Bulk Density
 TOC        .%                         :             TOTAL ORGANIC CARBON
 DT         .US/F                      : Time        Transit Time
~A  DEPTH    CALI       GR        RT       NPHI      RHOB      TOC        DT    
# ...
7875.5000    7.9716   62.5036  494.0468    0.0601    2.4994 -999.0000 -999.0000 
7876.0000    7.7301   61.6100  674.2296    0.0586    2.4907 -999.0000 -999.0000 
7876.5000    7.6893   60.0367  571.9778    0.0557    2.4814 -999.0000 -999.0000 
7877.0000    7.6785   58.9421  752.3619    0.0528    2.5022 -999.0000 -999.0000 
7877.5000    7.6991   55.7303  666.5117    0.0485    2.5714 -999.0000 -999.0000 
7878.0000    7.7286   54.3952  582.5266    0.0485    2.5504 -999.0000 -999.0000 
7878.5000    7.7237   53.5583  593.2698    0.0470    2.5755 -999.0000 -999.0000 
7879.0000    7.7290   52.5273  626.7029    0.0470    2.5790 -999.0000 -999.0000 
7879.5000    7.7210   52.4887  593.2698    0.0470    2.5709 -999.0000 -999.0000 
7880.0000    7.7571   53.1074  571.9778    0.0470    2.5686 -999.0000 -999.0000 
7880.5000    7.7284   52.2785  615.3543    0.0456    2.5725 -999.0000 -999.0000 
7881.0000    7.7281   52.4712  638.2609    0.0456    2.5690 -999.0000 -999.0000 
7881.5000    7.7248   53.5721  650.0320    0.0441    2.5634 -999.0000 -999.0000 
7882.0000    7.7267   52.9896  626.7029    0.0456    2.5514 -999.0000 -999.0000 
7882.5000    7.7262   54.3773  604.2111    0.0456    2.5589 -999.0000 -999.0000 
7883.0000    7.7261   56.0406  593.2698    0.0441    2.5658 -999.0000 -999.0000 
7883.5000    7.7263   56.0666  551.4501    0.0456    2.5583 -999.0000 -999.0000 
7884.0000    7.7262   54.4250  551.4501    0.0456    2.5534 -999.0000 -999.0000 
7884.5000    7.7262   52.1267  626.7029    0.0441    2.5676 -999.0000 -999.0000 
7885.0000    7.7262   50.4168  492.3794    0.0441    2.5826 -999.0000 -999.0000 
7885.5000    7.7262   51.3355  404.1900    0.0441    2.5756 -999.0000 -999.0000 
7886.0000    7.7262   54.0243  456.5020    0.0456    2.5493 -999.0000 -999.0000 
7886.5000    7.7262   58.2088  531.6590    0.0470    2.5438 -999.0000 -999.0000 
7887.0000    7.7262   59.9622  561.6202    0.0455    2.5528 -999.0000 -999.0000 
7887.5000    7.7262   56.3638  593.2698    0.0455    2.5679 -999.0000 -999.0000 
7888.0000    7.7262   55.0010  615.3543    0.0440    2.5713 -999.0000 -999.0000 
7888.5000    7.7262   53.5891  650.0320    0.0440    2.5691 -999.0000 -999.0000 
7889.0000    7.7262   53.6906  650.0320    0.0440    2.5701 -999.0000 -999.0000 
7889.5000    7.7262   55.9804  626.7029    0.0440    2.5894 -999.0000 -999.0000 
7890.0000    7.7262   59.9729  593.2698    0.0440    2.5828    2.8400 -999.0000 
7890.5000    7.7262   62.1981  582.5266    0.0454    2.5718 -999.0000 -999.0000 
7891.0000    7.7262   64.0713  582.5266    0.0469    2.5690 -999.0000 -999.0000 
7891.5000    7.7262   67.1430  541.4641    0.0483    2.5690 -999.0000 -999.0000 
7892.0000    7.7262   69.9795  541.4641    0.0468    2.5687 -999.0000 -999.0000 
7892.5000    7.7262   72.9763  561.6202    0.0499    2.5684 -999.0000 -999.0000 
7893.0000    7.7262   72.7258  593.2698    0.0514    2.5693 -999.0000 -999.0000 
7893.5000    7.7262   75.1021  615.3543    0.0543    2.5627 -999.0000 -999.0000 
7894.0000    7.7263   74.2017  615.3543    0.0557    2.5572 -999.0000 -999.0000 
7894.5000    7.7259   70.8684  604.2111    0.0543    2.5290 -999.0000 -999.0000 
7895.0000    7.7266   69.2848  615.3543    0.0528    2.5259 -999.0000 -999.0000 
7895.5000    7.7261   67.8506  662.0203    0.0514    2.5290 -999.0000 -999.0000 
7896.0000    7.7250   65.5552  686.6640    0.0514    2.5315 -999.0000 -999.0000 
7896.5000    7.7306   60.7164  604.2111    0.0514    2.5433 -999.0000 -999.0000 
7897.0000    7.6916   57.7763  686.6640    0.0499    2.5426 -999.0000 -999.0000 
7897.5000    7.6970   54.6614  662.0203    0.0456    2.5389 -999.0000 -999.0000 
7898.0000    7.7083   54.5833  638.2609    0.0441    2.5445 -999.0000 -999.0000 
7898.5000    7.6972   55.3603  615.3543    0.0434    2.5430 -999.0000 -999.0000 
7899.0000    7.6851   58.4676  615.3543    0.0441    2.5487 -999.0000 -999.0000 
7899.5000    7.6834   60.0510  604.2111    0.0456    2.5850 -999.0000   68.2470 
7900.0000    7.7193   59.6928  587.8736    0.0473    2.5761 -999.0000   68.2470 
7900.5000    7.7225   58.9751  561.6202    0.0487    2.5511 -999.0000   68.2470 
7901.0000    7.7354   55.8240  551.4501    0.0487    2.5289 -999.0000   68.2470 
7901.5000    7.7126   55.0409  551.4501    0.0486    2.5437 -999.0000   68.2470 
7902.0000    7.8010   55.6791  551.5557    0.0501    2.5459 -999.0000   68.2470 
7902.5000    7.7132   53.8658  551.1553    0.0486    2.5563 -999.0000   68.2470 
7903.0000    7.7343   51.3764  551.7830    0.0456    2.5622 -999.0000   68.2470 
7903.5000    7.7235   51.8460  521.3124    0.0441    2.5669 -999.0000   68.3542 
7904.0000    7.7182   51.7127  560.7846    0.0426    2.5613 -999.0000   68.2470 
7904.5000    7.6882   51.8293  594.0170    0.0426    2.5595 -999.0000   68.2470 
7905.0000    7.6881   51.4110  581.9935    0.0441    2.5668 -999.0000   68.2470 
7905.5000    7.6821   51.2573  571.9294    0.0442    2.5758 -999.0000   68.2470 
7906.0000    7.7189   52.6372  582.5266    0.0412    2.5830 -999.0000   68.2470 
7906.5000    7.7260   52.4340  593.2698    0.0398    2.5826 -999.0000   68.2470 
7907.0000    7.7272   49.9316  604.2111    0.0412    2.5741 -999.0000   68.2470 
7907.5000    7.7255   50.1766  582.5266    0.0427    2.5708 -999.0000   68.2470 
7908.0000    7.7264   48.8461  561.6202    0.0411    2.5732 -999.0000   68.2470 
7908.5000    7.7262   48.6656  551.4501    0.0396    2.5627 -999.0000   68.3267 
7909.0000    7.7262   49.1728  551.4501    0.0426    2.5669 -999.0000   68.4064 
7909.5000    7.7263   51.7255  551.4501    0.0426    2.5968 -999.0000   68.6908 
7910.0000    7.7262   52.7644  561.6202    0.0411    2.5988    1.9600   68.8924 
7910.5000    7.7262   53.7538  561.6202    0.0470    2.5850 -999.0000   69.0940 
7911.0000    7.7260   52.8306  571.9778    0.0470    2.5722 -999.0000   69.2956 
7911.5000    7.7265   52.4612  571.9778    0.0441    2.5715 -999.0000   69.2829 
7912.0000    7.7261   49.5245  582.5266    0.0426    2.5711 -999.0000   69.4422 
7912.5000    7.7252   47.1943  582.5266    0.0426    2.5869 -999.0000   69.2829 
7913.0000    7.7291   45.6395  582.5266    0.0411    2.6085 -999.0000   68.6454 
7913.5000    7.7209   46.3918  571.9778    0.0411    2.6028 -999.0000   67.4502 
7914.0000    7.7528   47.6199  571.9778    0.0411    2.5913 -999.0000   66.9721 
7914.5000    7.7207   49.0532  571.9778    0.0411    2.5770 -999.0000   67.5299 
7915.0000    7.7216   54.0124  582.5266    0.0441    2.5666 -999.0000   68.1673 
7915.5000    7.6888   55.5679  582.5266    0.0426    2.5590 -999.0000   69.6016 
7916.0000    7.7321   57.6423  582.5266    0.0426    2.5592 -999.0000   70.7968 
7916.5000    7.7245   58.4343  622.8211    0.0441    2.5571 -999.0000   71.8327 
7917.0000    7.7261   60.3035  686.6640    0.0470    2.5574 -999.0000   72.6295 
7917.5000    7.7273   60.7462  567.7379    0.0485    2.5675 -999.0000   72.8685 
7918.0000    7.7245   60.6910  463.3701    0.0456    2.5716 -999.0000   73.1873 
7918.5000    7.7282   59.9916  389.6840    0.0456    2.5712 -999.0000   73.1076 
7919.0000    7.7261   56.8261  491.2290    0.0456    2.5655 -999.0000   71.8327 
7919.5000    7.7118   54.7841  582.5266    0.0439    2.5732 -999.0000   70.8531 
7920.0000    7.6269   52.7699  593.2698    0.0410    2.5858 -999.0000   68.8552 
7920.5000    7.6119   53.9315  561.6202    0.0410    2.6094 -999.0000   68.0534 
7921.0000    7.6041   55.3587  571.9778    0.0410    2.6185 -999.0000   68.4308 
7921.5000    7.6110   54.3700  593.2698    0.0425    2.5932 -999.0000   68.9743 
7922.0000    7.5828   52.7552  531.6590    0.0440    2.5763 -999.0000   69.2011 
7922.5000    7.6102   51.0876  541.4641    0.0455    2.5706 -999.0000   68.7944 
7923.0000    7.6071   48.1832  593.2698    0.0455    2.5686 -999.0000   68.2470 
7923.5000    7.6039   48.3352  582.5266    0.0441    2.5846 -999.0000   68.0080 
7924.0000    7.6320   49.7213  551.4501    0.0426    2.6046 -999.0000   67.2112 
7924.5000    7.6026   49.7005  598.5186    0.0442    2.6223 -999.0000   66.8127 
