~VERSION INFORMATION
 VERS.                 2.0:   CWLS LOG ASCII STANDARD - VERSION 2.0
 WRAP.                  NO:   SINGLE LINE PER DEPTH STEP
 CREA.                 07/23/2021 12:08:25
#CREATED USING DSPetro VERSION 10ep.4.05.01 BY H227404 ON 07/23/2021 12:08:25
~WELL INFORMATION
#MNEM.UNIT       DATA                          DESCRIPTION MNEMONIC
#---------      ---------------------------   --------------------------
 STRT    .FT        500.0000                  : START DEPTH
 STOP    .FT        9050.0000                 : STOP DEPTH
 STEP    .FT        0.5000                    : STEP VALUE
 NULL    .      -999.0000                     : NULL VALUE
 DATE    .      07/23/2021                    : LAS file Creation Date
 WELL   .      3402920607                           : Well Name
 COMP   .      TRI-STATE PRODUCING COMPANY          : Company
 FLD    .      WILDCAT                              : Field
 STATE  .      OHIO                                 : State
 COUNT  .      USA                                  : Country
 API    .      34029206070000                       : API Number
 UWI    .      34029206070000                       : Unique Well Identifier (UWI)
 LOC    .      197' FSL & 245' FEL - SW/Q SECTION 7 : Location
 EPDAT  .      1299.7                               : Elevation of Permanent Datum
 GL     .      1299.7                               : GL Elevation
 RWS    .      0                                    : Def_Rw
 WST    .      0                                    : Def_Rwt
 CNTY   .      COLUMBIANA                           : County
 PROV   .                                           : Province
 MDEC   .      0                                    : Magnetic Declination
 SRVC   .      SCH                                  : Contractor
 GDAT   .      (Undefined)                          : Geodatum
 LONG   .      -80.8510498333639                    : Longitude
 LATI   .      40.7851609999604                     : Latitude
 COORDIN.                                           : Grid System
 XCOORD .                                           : X or East-West Coordinate
 YCOORD .                                           : Y or North-South Coordinate
~CURVE INFORMATION
#MNEM              UNIT       API CODE   Curve Type Comments
#----------  --------------- ----------  ---------- -----------
 DEPTH      .FT                        : Depth       
 CALI       .IN                        : Caliper     Caliper
 GR         .GAPI                      : GammaRay    Gamma Ray
 RT         .OHMM                      :             Latero-Log 8
 NPHI       .dec                       : Neutron     
 RHOB       .G/C3                      : Density     Bulk Density
 TOC        .%                         :             TOTAL ORGANIC CARBON
 DT         .US/F                      : Time        Transit Time
~A  DEPTH    CALI       GR        RT       NPHI      RHOB      TOC        DT    
# ...
8073.5000    7.6453   41.8346  113.8085    0.0149    2.6937 -999.0000   54.2231 
8074.0000    7.6459   39.8144  100.5833    0.0149    2.6915 -999.0000   55.3386 
8074.5000    7.6463   35.7383  100.5799    0.0125    2.6855 -999.0000   56.2151 
8075.0000    7.6467   30.5740  121.0522    0.0077    2.6837 -999.0000   56.3347 
8075.5000    7.6457   24.0958  155.0162    0.0053    2.7036 -999.0000   55.4183 
8076.0000    7.6446   18.0637  180.7242    0.0029    2.6889 -999.0000   54.2895 
8076.5000    7.6434   13.1946  245.2756   -0.0007    2.6971 -999.0000   53.1607 
8077.0000    7.6423   13.1660  362.2151   -0.0019    2.7375 -999.0000   52.0319 
8077.5000    7.6412   12.9321  424.0518   -0.0007    2.7304 -999.0000   51.1497 
8078.0000    7.6400   13.8810  483.5735    0.0005    2.7291 -999.0000   50.6183 
8078.5000    7.6389   15.5399  551.4501   -0.0019    2.7226 -999.0000   50.1049 
8079.0000    7.6378   18.4145  389.6840   -0.0019    2.7218 -999.0000   49.8611 
8079.5000    7.6367   19.3809  375.6985   -0.0007    2.7131 -999.0000   49.6647 
8080.0000    7.6355   20.3544  485.2333    0.0017    2.7150 -999.0000   49.8680 
8080.5000    7.6344   19.9387  257.8026    0.0041    2.7075 -999.0000   50.1520 
8081.0000    7.6333   19.6848  184.1322    0.0041    2.7117 -999.0000   50.7150 
8081.5000    7.6321   19.4212  133.1644    0.0041    2.7320 -999.0000   51.4362 
8082.0000    7.6310   19.1164  270.9378    0.0041    2.7382 -999.0000   51.7967 
8082.5000    7.6299   18.8458  265.1584    0.0041    2.7292 -999.0000   51.9966 
8083.0000    7.6287   18.5575  253.7804    0.0041    2.7246 -999.0000   51.7969 
8083.5000    7.6276   18.2704  242.6914    0.0017    2.7178 -999.0000   51.5973 
8084.0000    7.6265   18.0124  225.2254    0.0005    2.7236 -999.0000   51.7171 
8084.5000    7.6253   17.5156  233.6094   -0.0007    2.7328 -999.0000   51.7570 
8085.0000    7.6242   16.7998  217.1422   -0.0007    2.7379 -999.0000   51.5566 
8085.5000    7.6231   16.1147  201.8358   -0.0007    2.7350 -999.0000   51.5153 
8086.0000    7.6220   15.4146  209.3492   -0.0019    2.7147 -999.0000   51.4741 
8086.5000    7.6208   14.7340  303.0997   -0.0054    2.7001 -999.0000   51.1155 
8087.0000    7.6197   14.0441  384.3795   -0.0078    2.6898 -999.0000   50.9562 
8087.5000    7.6186   13.2957  464.9777   -0.0090    2.6846 -999.0000   50.5578 
8088.0000    7.6174   12.7711  551.4501   -0.0090    2.6958 -999.0000   49.8805 
8088.5000    7.6163   10.9114  638.2609   -0.0090    2.7143 -999.0000   49.3625 
8089.0000    7.6152    9.0546  662.0203   -0.0102    2.7111 -999.0000   49.2430 
8089.5000    7.6140    8.2418  674.2296   -0.0102    2.7068 -999.0000   49.1235 
8090.0000    7.6129    8.3619  705.7470   -0.0090    2.7028 -999.0000   48.9641 
8090.5000    7.6118    8.3225  725.3604   -0.0054    2.6863 -999.0000   49.0438 
8091.0000    7.6106    8.3202  705.7470   -0.0054    2.6767 -999.0000   49.0040 
8091.5000    7.6095    8.3396  662.0203   -0.0030    2.6706 -999.0000   49.1235 
8092.0000    7.6084    8.3103  526.8232   -0.0007    2.6850 -999.0000   49.6414 
8092.5000    7.6073    8.3425  485.2333    0.0017    2.6514 -999.0000   50.3187 
8093.0000    7.6061    8.4100  507.9160    0.0005    2.6587 -999.0000   50.7171 
8093.5000    7.6050    9.9563  593.2698   -0.0019    2.6815 -999.0000   51.5139 
8094.0000    7.6039   11.3630  522.0314   -0.0019    2.6819 -999.0000   51.7530 
8094.5000    7.6027   11.9880  531.6590   -0.0042    2.6887 -999.0000   51.6733 
8095.0000    7.6016   13.7590  561.6202   -0.0042    2.7001 -999.0000   50.8765 
8095.5000    7.6005   14.7348  541.4641   -0.0042    2.7005 -999.0000   49.8406 
8096.0000    7.5993   15.3968  517.2833   -0.0030    2.7097 -999.0000   49.2829 
8096.5000    7.5982   16.9599  476.4465   -0.0019    2.7336 -999.0000   49.1235 
8097.0000    7.5971   17.1473  419.2360   -0.0007    2.7344 -999.0000   49.4024 
8097.5000    7.5960   16.3450  395.4228    0.0005    2.7299 -999.0000   49.8406 
8098.0000    7.5948   14.6260  341.6407    0.0005    2.7225 -999.0000   50.5179 
8098.5000    7.5937   13.3125  312.9496    0.0004    2.7174 -999.0000   51.5139 
8099.0000    7.5926   11.9129  321.6468   -0.0008    2.7164 -999.0000   51.7928 
8099.5000    7.5914   10.8454  362.2151   -0.0043    2.7244 -999.0000   51.7530 
8100.0000    7.5903   10.6838  481.5460   -0.0055    2.7233 -999.0000   51.4343 
8100.5000    7.5892   10.7170  752.6711   -0.0055    2.7147 -999.0000   51.0739 
8101.0000    7.5880   10.7143  713.9441   -0.0054    2.7124 -999.0000   50.4781 
8101.5000    7.5869   10.7035  698.5656   -0.0042    2.7168 -999.0000   50.0797 
8102.0000    7.5858   10.7044 1083.6541   -0.0054    2.7174 -999.0000   49.5219 
8102.5000    7.5846   10.7145  877.2640   -0.0042    2.7011 -999.0000   49.5219 
8103.0000    7.5835   10.6373  638.8936   -0.0054    2.6969 -999.0000   49.5219 
8103.5000    7.5824   10.7425  512.5782   -0.0042    2.7047 -999.0000   49.5219 
8104.0000    7.5813   10.7494  686.6640   -0.0078    2.7021 -999.0000   49.7610 
8104.5000    7.5801   11.4562  650.0320   -0.0019    2.7045 -999.0000   49.6813 
8105.0000    7.5790   13.0812  582.5266   -0.0007    2.7029 -999.0000   49.9203 
8105.5000    7.5779   15.1969  503.2962    0.0005    2.6949 -999.0000   50.1594 
8106.0000    7.5767   25.6481  598.7155    0.0029    2.7017 -999.0000   50.6375 
8106.5000    7.5756   44.5975  662.0203    0.0065    2.7021 -999.0000   50.8765 
8107.0000    7.5744   61.9073  507.9160    0.0173    2.6916 -999.0000   51.0359 
8107.5000    7.5729   79.3080  217.1422    0.0248    2.6696 -999.0000   51.5936 
8108.0000    7.5717   97.9888   49.4182    0.0382    2.6413 -999.0000   54.3028 
8108.5000    7.5728  111.4709   51.2578    0.0396    2.6109 -999.0000   53.9841 
8109.0000    7.5667  119.7255   54.1464    0.0396    2.6013 -999.0000   60.7748 
8109.5000    7.5714  127.6605   54.1464    0.0426    2.6007 -999.0000   66.6534 
8110.0000    7.5753  132.4671   32.7579    0.0411    2.5974 -999.0000   67.2112 
8110.5000    7.6205  105.6929   23.7918    0.0382    2.5918 -999.0000   69.8619 
8111.0000    7.8902   85.0354   23.3609    0.0278    2.5688 -999.0000   73.2719 
8111.5000    8.0618   63.3259   32.8578    0.0101    2.5874 -999.0000   71.9005 
8112.0000    7.9281   41.2168   62.6703   -0.0007    2.6333 -999.0000   70.5291 
8112.5000    7.5202   19.0910  218.1365   -0.0066    2.6923 -999.0000   64.6282 
8113.0000    7.5865   10.3195  571.9778   -0.0090    2.7003 -999.0000   56.2205 
8113.5000    7.5643   10.7406  626.7029   -0.0078    2.7066 -999.0000   52.5538 
8114.0000    7.5643   10.9133  593.2698   -0.0066    2.7085 -999.0000   48.5657 
8114.5000    7.5701   10.5709  626.7029   -0.0066    2.7167 -999.0000   48.5657 
8115.0000    7.5676   10.7551  781.1617   -0.0054    2.7208 -999.0000   48.5657 
8115.5000    7.5631   10.6217  628.1772   -0.0066    2.7013 -999.0000   48.5657 
8116.0000    7.5997   10.8331  468.1042   -0.0066    2.6972 -999.0000   49.1538 
8116.5000    7.6072    9.7039  426.1158   -0.0042    2.6911 -999.0000   50.0000 
8117.0000    7.6084   10.6225  417.4472   -0.0042    2.6910 -999.0000   50.1999 
8117.5000    7.6265   10.7252  428.7152   -0.0066    2.6904 -999.0000   50.3652 
8118.0000    7.6349   10.6400  421.6509   -0.0042    2.6949 -999.0000   50.4072 
8118.5000    7.6725   11.3820  318.4074   -0.0042    2.7091 -999.0000   50.1654 
8119.0000    7.6422   11.4441  293.5598   -0.0066    2.7148 -999.0000   49.9245 
8119.5000    7.6498   12.1337  280.4500   -0.0054    2.7067 -999.0000   49.8434 
8120.0000    7.6456   12.3131  566.7753   -0.0054    2.7053 -999.0000   49.8416 
8120.5000    7.6465   12.4730  531.6590   -0.0066    2.7137 -999.0000   49.8402 
8121.0000    7.6488   12.9218  485.2333   -0.0042    2.7168 -999.0000   49.8406 
8121.5000    7.6426   10.5239  415.4228   -0.0042    2.7222 -999.0000   49.9203 
8122.0000    7.6791   10.0640  290.8897   -0.0042    2.7190 -999.0000   49.8406 
8122.5000    7.6863   11.0904  290.8897   -0.0042    2.7311 -999.0000   50.0797 
