~VERSION INFORMATION
 VERS.                 2.0:   CWLS LOG ASCII STANDARD - VERSION 2.0
 WRAP.                  NO:   SINGLE LINE PER DEPTH STEP
 CREA.                 07/23/2021 11:30:29
#CREATED USING DSPetro VERSION 10ep.4.05.01 BY H227404 ON 07/23/2021 11:30:29
~WELL INFORMATION
#MNEM.UNIT       DATA                          DESCRIPTION MNEMONIC
#---------      ---------------------------   --------------------------
 STRT    .FT        156.0000                  : START DEPTH
 STOP    .FT        9462.0000                 : STOP DEPTH
 STEP    .FT        0.5000                    : STEP VALUE
 NULL    .      -999.0000                     : NULL VALUE
 DATE    .      07/23/2021                    : LAS file Creation Date
 WELL   .      SNRG-0004         : Well Name
 COMP   .                        : Company
 FLD    .                        : Field
 API    .      SNRG-0004         : API Number
 UWI    .      SNRG-0004         : Unique Well Identifier (UWI)
 LOC    .                        : Location
 KB     .      1230.0            : KB Elevation
 RWS    .      0                 : Def_Rw
 WST    .      0                 : Def_Rwt
 PROV   .                        : Province
 MDEC   .      0                 : Magnetic Declination
 SRVC   .      UNKNOWN           : Contractor
 GDAT   .      WGS 84            : Geodatum
 LONG   .      -80.4115240001679 : Longitude
 LATI   .      40.7475300004747  : Latitude
 COORDIN.                        : Grid System
 XCOORD .                        : X or East-West Coordinate
 YCOORD .                        : Y or North-South Coordinate
~CURVE INFORMATION
#MNEM              UNIT       API CODE   Curve Type Comments
#----------  --------------- ----------  ---------- -----------
 DEPTH      .FT                        : Depth       
 AT10       .OHMM                      : ShalRes     12 Array Induction Two Foot Resistivity
 AT20       .OHMM                      : MedRes      13 Array Induction Two Foot Resistivity
 AT30       .OHMM                      : MedRes      14 Array Induction Two Foot Resistivity
 AT60       .OHMM                      : MedRes      15 Array Induction Two Foot Resistivity
 AT90       .OHMM                      : DeepRes     16 Array Induction Two Foot Resistivity
 GR         .API                       : GammaRay    
 PEFZ       .B/E                       : PEF         
 NPHI       .DECP                      : Neutron     neutron porosity
 RHOZ       .gm/cc                     : Density     
 DCAL       .in                        :             
 HCAL       .inch                      : Caliper     
~A  DEPTH    AT10      AT20      AT30      AT60      AT90       GR       PEFZ      NPHI      RHOZ      DCAL      HCAL   
# ...
2635.0000 1950.0000    0.4350    7.7210 1950.0000   28.5610   67.6810   10.0000    0.4010    2.4300   -4.7920    3.9580 
2635.5000 1950.0000    0.4350    7.6160 1950.0000   28.7450   68.8280   10.0000    0.4250    2.4290   -4.7700    3.9800 
2636.0000 1950.0000    0.4360    7.3650 1950.0000   26.8180   72.9590   10.0000    0.4050    2.4260   -4.7920    3.9580 
2636.5000 1950.0000    0.4360    7.3030 1950.0000   22.7140   74.9550   10.0000    0.3550    2.4350   -4.7920    3.9580 
2637.0000 1950.0000    0.4370    7.6110 1950.0000   24.6220   76.1650   10.0000    0.3280    2.4350   -4.7700    3.9800 
2637.5000 1950.0000    0.4380    7.5320 1950.0000   24.8950   70.3140   10.0000    0.3350    2.4340   -4.7920    3.9580 
2638.0000 1950.0000    0.4390    7.5800 1950.0000   26.0690   71.9760   10.0000    0.3590    2.4300   -4.7920    3.9580 
2638.5000 1950.0000    0.4390    7.7910 1950.0000   23.4030   71.1230   10.0000    0.3730    2.4290   -4.7920    3.9580 
2639.0000 1950.0000    0.4380    7.5140 1950.0000   21.3110   71.7430   10.0000    0.3750    2.4310   -4.7700    3.9800 
2639.5000 1950.0000    0.4370    7.8240 1950.0000   25.4440   72.9550   10.0000    0.3530    2.4300   -4.7920    3.9580 
2640.0000 1950.0000    0.4360    8.7960 1950.0000   34.0370   74.6760   10.0000    0.3370    2.4220   -4.7700    3.9800 
2640.5000 1950.0000    0.4330    7.8940 1950.0000   26.1050   80.9820   10.0000    0.4050    2.4170   -4.7700    3.9800 
2641.0000 1950.0000    0.4320    7.2700 1950.0000   23.9870   74.7350   10.0000    0.4410    2.4160   -4.7700    3.9800 
2641.5000 1950.0000    0.4320    6.9120 1950.0000   22.8010   70.8820   10.0000    0.4660    2.4280   -4.7920    3.9580 
2642.0000 1950.0000    0.4340    7.3660 1950.0000   25.5730   74.6900   10.0000    0.3820    2.4380   -4.7700    3.9800 
2642.5000 1950.0000    0.4370    7.6840 1950.0000   26.2010   83.2950   10.0000    0.3930    2.4440   -4.7920    3.9580 
2643.0000 1950.0000    0.4390    7.3510 1950.0000   23.6900   89.6580   10.0000    0.3750    2.4420   -4.7700    3.9800 
2643.5000 1950.0000    0.4410    7.7160 1950.0000   23.8780   75.1360   10.0000    0.3510    2.4310   -4.7920    3.9580 
2644.0000 1950.0000    0.4410    8.2150 1950.0000   23.6280   72.6500   10.0000    0.3430    2.4260   -4.7920    3.9580 
2644.5000 1950.0000    0.4400    7.6690 1950.0000   20.8600   73.8710   10.0000    0.4040    2.4230   -4.7920    3.9580 
2645.0000 1950.0000    0.4390    7.4450 1950.0000   21.8320   85.9180   10.0000    0.4710    2.4280   -4.7700    3.9800 
2645.5000 1950.0000    0.4380    7.6450 1950.0000   21.5650   90.5700   10.0000    0.4820    2.4310   -4.7920    3.9580 
2646.0000 1950.0000    0.4370    7.8740 1950.0000   22.8370   89.9360   10.0000    0.4280    2.4290   -4.7920    3.9580 
2646.5000 1950.0000    0.4360    7.5760 1950.0000   22.7020   79.8940   10.0000    0.4130    2.4320   -4.7700    3.9800 
2647.0000 1950.0000    0.4350    7.5200 1950.0000   25.0170   75.9460   10.0000    0.3970    2.4400   -4.7920    3.9580 
2647.5000 1950.0000    0.4350    7.5350 1950.0000   22.6640   71.1270   10.0000    0.4430    2.4490   -4.7920    3.9580 
2648.0000 1950.0000    0.4350    7.3110 1950.0000   21.0610   78.4160   10.0000    0.4470    2.4470   -4.7700    3.9800 
2648.5000 1950.0000    0.4360    7.2870 1950.0000   24.0980   76.6300   10.0000    0.4310    2.4410   -4.7700    3.9800 
2649.0000 1950.0000    0.4370    7.3880 1950.0000   26.5010   81.0180   10.0000    0.3700    2.4380   -4.7810    3.9690 
2649.5000 1950.0000    0.4380    7.5280 1950.0000   24.4330   79.6360   10.0000    0.3370    2.4320   -4.7920    3.9580 
2650.0000 1950.0000    0.4390    7.3080 1950.0000   22.8860   86.9920   10.0000    0.3490    2.4300   -4.7700    3.9800 
2650.5000 1950.0000    0.4400    7.1870 1950.0000   25.7570   83.2920   10.0000    0.3340    2.4290   -4.7700    3.9800 
2651.0000 1950.0000    0.4400    7.4620 1950.0000   26.1530   82.3660   10.0000    0.3300    2.4360   -4.7700    3.9800 
2651.5000 1950.0000    0.4400    7.5790 1950.0000   29.1620   73.7610   10.0000    0.3480    2.4380   -4.7920    3.9580 
2652.0000 1950.0000    0.4400    7.0490 1950.0000   25.4320   71.2840   10.0000    0.3560    2.4360   -4.7700    3.9800 
2652.5000 1950.0000    0.4400    7.0410 1950.0000   28.4790   68.1860   10.0000    0.3510    2.4370   -4.7700    3.9800 
2653.0000 1950.0000    0.4400    7.3820 1950.0000   29.1230   67.4970   10.0000    0.3210    2.4280   -4.7920    3.9580 
2653.5000 1950.0000    0.4420    7.1320 1950.0000   27.4420   67.5650   10.0000    0.3170    2.4290   -4.7700    3.9800 
2654.0000 1950.0000    0.4430    6.6920 1950.0000   26.2120   73.5300   10.0000    0.3560    2.4250   -4.7920    3.9580 
2654.5000 1950.0000    0.4440    6.9090 1950.0000   25.3170   76.5510   10.0000    0.4040    2.4300   -4.7920    3.9580 
2655.0000 1950.0000    0.4450    6.8770 1950.0000   24.1200   80.6820   10.0000    0.4320    2.4290   -4.7920    3.9580 
2655.5000 1950.0000    0.4470    7.0710 1950.0000   28.9770   77.3030   10.0000    0.4230    2.4260   -4.7920    3.9580 
2656.0000 1950.0000    0.4480    7.8440 1950.0000   40.9990   81.1660   10.0000    0.4250    2.4340   -4.7920    3.9580 
2656.5000 1950.0000    0.4480    9.0490 1884.9200   52.1390   86.7150   10.0000    0.4110    2.4340   -4.7920    3.9580 
2657.0000 1950.0000    0.4430    7.2090 1476.1100   37.1440   88.4220   10.0000    0.4120    2.4400   -4.7700    3.9800 
2657.5000 1950.0000    0.4380    6.2770 1002.3950   27.9490   90.4870   10.0000    0.3750    2.4420   -4.7920    3.9580 
2658.0000 1950.0000    0.4360    6.2110  599.5690   28.5980   83.3830   10.0000    0.3570    2.4470   -4.7700    3.9800 
2658.5000 1950.0000    0.4380    6.4300  357.9200   24.6040   77.2660   10.0000    0.3500    2.4450   -4.7920    3.9580 
2659.0000 1950.0000    0.4420    7.3080  234.1560   24.3880   71.4020   10.0000    0.3620    2.4400   -4.7920    3.9580 
2659.5000 1950.0000    0.4390    8.3320  175.8640   28.4230   70.4750   10.0000    0.3900    2.4630   -4.7700    3.9800 
2660.0000 1950.0000    0.4430    4.7320  148.6900    9.4560   69.4430   10.0000    0.3890    2.5160   -4.7920    3.9580 
2660.5000 1950.0000    0.4500    6.8050  161.7970   22.6140   62.3220   10.0000    0.4190    2.5620   -4.7700    3.9800 
2661.0000 1950.0000    0.4560   10.4860  194.4010   30.6610   53.1020   10.0000    0.4120    2.5790   -4.7920    3.9580 
2661.5000 1950.0000    0.4520    8.3570  275.1120   41.0200   53.7900   10.0000    0.3630    2.5470   -4.7700    3.9800 
2662.0000 1950.0000    0.4460    7.0390  440.2290   33.2600   56.5570   10.0000    0.3110    2.5020   -4.7920    3.9580 
2662.5000 1950.0000    0.4410    6.8880  747.7280   20.6340   66.8830   10.0000    0.2840    2.4660   -4.7700    3.9800 
2663.0000 1950.0000    0.4380    7.4170 1203.0980   37.2480   72.7860   10.0000    0.3310    2.4500   -4.7700    3.9800 
2663.5000 1950.0000    0.4390    6.9280 1640.4420   37.9100   75.4320   10.0000    0.3620    2.4510   -4.7920    3.9580 
2664.0000 1950.0000    0.4430    6.5280 1950.0000   29.6780   73.0220   10.0000    0.3670    2.4450   -4.7700    3.9800 
2664.5000 1950.0000    0.4510    6.7180 1950.0000   31.7010   71.7500   10.0000    0.3690    2.4480   -4.7920    3.9580 
2665.0000 1950.0000    0.4600    7.3050 1950.0000   37.1220   74.5030   10.0000    0.3910    2.4520   -4.7920    3.9580 
2665.5000 1950.0000    0.4680    7.4060 1950.0000   28.0480   78.4580   10.0000    0.4350    2.4510   -4.7920    3.9580 
2666.0000 1950.0000    0.4700    7.6820 1950.0000   25.2680   80.0230   10.0000    0.4220    2.4360   -4.7700    3.9800 
2666.5000 1950.0000    0.4690    7.7240 1950.0000   25.5330   78.6470   10.0000    0.3890    2.4190   -4.7920    3.9580 
2667.0000 1950.0000    0.4640    7.6330 1950.0000   24.3510   84.5180   10.0000    0.3590    2.4100   -4.7920    3.9580 
2667.5000 1950.0000    0.4580    7.7080 1950.0000   25.0330   87.2710   10.0000    0.3680    2.4190   -4.7920    3.9580 
2668.0000 1950.0000    0.4540    7.5390 1950.0000   22.7390   89.1040   10.0000    0.3640    2.4210   -4.7700    3.9800 
