~VERSION INFORMATION
 VERS.                 2.0:   CWLS LOG ASCII STANDARD - VERSION 2.0
 WRAP.                  NO:   SINGLE LINE PER DEPTH STEP
 CREA.                 07/23/2021 12:08:25
#CREATED USING DSPetro VERSION 10ep.4.05.01 BY H227404 ON 07/23/2021 12:08:25
~WELL INFORMATION
#MNEM.UNIT       DATA                          DESCRIPTION MNEMONIC
#---------      ---------------------------   --------------------------
 STRT    .FT        500.0000                  : START DEPTH
 STOP    .FT        9050.0000                 : STOP DEPTH
 STEP    .FT        0.5000                    : STEP VALUE
 NULL    .      -999.0000                     : NULL VALUE
 DATE    .      07/23/2021                    : LAS file Creation Date
 WELL   .      3402920607                           : Well Name
 COMP   .      TRI-STATE PRODUCING COMPANY          : Company
 FLD    .      WILDCAT                              : Field
 STATE  .      OHIO                                 : State
 COUNT  .      USA                                  : Country
 API    .      34029206070000                       : API Number
 UWI    .      34029206070000                       : Unique Well Identifier (UWI)
 LOC    .      197' FSL & 245' FEL - SW/Q SECTION 7 : Location
 EPDAT  .      1299.7                               : Elevation of Permanent Datum
 GL     .      1299.7                               : GL Elevation
 RWS    .      0                                    : Def_Rw
 WST    .      0                                    : Def_Rwt
 CNTY   .      COLUMBIANA                           : County
 PROV   .                                           : Province
 MDEC   .      0                                    : Magnetic Declination
 SRVC   .      SCH                                  : Contractor
 GDAT   .      (Undefined)                          : Geodatum
 LONG   .      -80.8510498333639                    : Longitude
 LATI   .      40.7851609999604                     : Latitude
 COORDIN.                                           : Grid System
 XCOORD .                                           : X or East-West Coordinate
 YCOORD .                                           : Y or North-South Coordinate
~CURVE INFORMATION
#MNEM              UNIT       API CODE   Curve Type Comments
#----------  --------------- ----------  ---------- -----------
 DEPTH      .FT                        : Depth       
 CALI       .IN                        : Caliper     Caliper
 GR         .GAPI                      : GammaRay    Gamma Ray
 RT         .OHMM                      :             Latero-Log 8
 NPHI       .dec                       : Neutron     
 RHOB       .G/C3                      : Density     Bulk Density
 TOC        .%                         :             TOTAL ORGANIC CARBON
 DT         .US/F                      : Time        Transit Time
~A  DEPTH    CALI       GR        RT       NPHI      RHOB      TOC        DT    
# ...
8618.0000    7.7659   25.7089  312.9496   -0.0078    2.7210 -999.0000   50.7171 
8618.5000    7.7659   27.7277  271.8589   -0.0066    2.7150 -999.0000   50.9562 
8619.0000    7.7659   29.0870  242.3055   -0.0054    2.7080 -999.0000   50.9562 
8619.5000    7.7659   28.3802  274.2478   -0.0066    2.7135 -999.0000   50.9562 
8620.0000    7.7659   24.7142  342.9700   -0.0090    2.7226 -999.0000   50.0797 
8620.5000    7.7659   22.9271  428.9131   -0.0102    2.7299 -999.0000   49.6016 
8621.0000    7.7659   20.3272  494.1823   -0.0114    2.7280 -999.0000   48.9641 
8621.5000    7.7659   19.9579  407.6765   -0.0114    2.7309 -999.0000   49.0438 
8622.0000    7.7659   22.6017  382.6274   -0.0102    2.7321 -999.0000   49.6813 
8622.5000    7.7659   23.5926  382.6274   -0.0102    2.7305 -999.0000   49.9203 
8623.0000    7.7659   24.2949  362.2151   -0.0102    2.7051 -999.0000   50.0797 
8623.5000    7.7659   24.3110  324.5992   -0.0102    2.7104 -999.0000   50.0797 
8624.0000    7.7659   24.9863  349.2155   -0.0102    2.7148 -999.0000   50.0797 
8624.5000    7.7659   22.8967  382.6274   -0.0114    2.7094 -999.0000   49.9365 
8625.0000    7.7659   21.1909  459.3472   -0.0138    2.7033 -999.0000   49.3819 
8625.5000    7.7659   20.3993  494.1823   -0.0150    2.7089 -999.0000   48.5049 
8626.0000    7.7659   20.1986  593.2698   -0.0150    2.6758 -999.0000   48.3412 
8626.5000    7.7659   20.2760  529.3658   -0.0150    2.6977 -999.0000   48.1739 
8627.0000    7.7659   20.0907  533.8358   -0.0138    2.6964 -999.0000   48.4830 
8627.5000    7.7659   21.4832  523.0719   -0.0114    2.7044 -999.0000   48.7125 
8628.0000    7.7659   22.4193  442.6252   -0.0114    2.7106 -999.0000   48.7056 
8628.5000    7.7659   25.5943  361.4762   -0.0078    2.7116 -999.0000   49.3625 
8629.0000    7.7659   29.5027  276.1400   -0.0078    2.7060 -999.0000   50.1594 
8629.5000    7.7659   33.5686  300.8550   -0.0090    2.7019 -999.0000   51.1952 
8630.0000    7.7659   34.5754  376.7312   -0.0090    2.7102 -999.0000   51.7530 
8630.5000    7.7659   34.7219  354.4555   -0.0090    2.7229 -999.0000   51.8327 
8631.0000    7.7659   35.3244  209.3492   -0.0090    2.7162 -999.0000   52.0717 
8631.5000    7.7659   35.9142  213.2101   -0.0090    2.7241 -999.0000   52.1514 
8632.0000    7.7659   36.0453  280.3475   -0.0090    2.7337 -999.0000   51.5139 
8632.5000    7.7659   33.7073  404.1900   -0.0102    2.7279 -999.0000   51.0494 
8633.0000    7.7659   32.9403  375.6985   -0.0102    2.7176 -999.0000   50.6375 
8633.5000    7.7659   32.3030  285.6222   -0.0090    2.7141 -999.0000   50.7171 
8634.0000    7.7659   32.8472  285.6222   -0.0078    2.7130 -999.0000   51.1952 
8634.5000    7.7659   36.5734  265.4886   -0.0066    2.7121 -999.0000   51.8327 
8635.0000    7.7659   36.8679  246.7742   -0.0054    2.7059 -999.0000   51.9124 
8635.5000    7.7659   36.9686  242.3055   -0.0054    2.6976 -999.0000   52.3904 
8636.0000    7.7659   36.8529  251.3254   -0.0066    2.6966 -999.0000   52.3904 
8636.5000    7.7659   39.5129  294.3387   -0.0078    2.6968 -999.0000   51.8327 
8637.0000    7.7659   42.7066  355.6559   -0.0090    2.6896 -999.0000   51.8327 
8637.5000    7.7659   47.4131  266.7043   -0.0083    2.6778 -999.0000   52.9482 
8638.0000    7.7659   50.0638  160.4134   -0.0054    2.6794 -999.0000   53.9044 
8638.5000    7.7659   51.4318  170.9654   -0.0054    2.6843 -999.0000   54.7729 
8639.0000    7.7659   50.2410  194.1974   -0.0042    2.6856 -999.0000   55.0996 
8639.5000    7.7659   47.9721  220.5863   -0.0054    2.6967 -999.0000   54.3825 
8640.0000    7.7659   46.6173  246.7742   -0.0066    2.6917 -999.0000   53.8247 
8640.5000    7.7659   45.2811  265.4886   -0.0054    2.6784 -999.0000   53.4263 
8641.0000    7.7659   44.3617  200.6883   -0.0030    2.6872 -999.0000   53.6653 
8641.5000    7.7659   43.3572  145.2583   -0.0018    2.6906 -999.0000   55.0199 
8642.0000    7.7659   43.2271  174.8305   -0.0017    2.6860 -999.0000   54.6215 
8642.5000    7.7659   25.8131  213.2751   -0.0053    2.6796 -999.0000   53.4263 
8643.0000    7.7659   18.4528  593.2698   -0.0066    2.6880 -999.0000   52.3108 
8643.5000    7.7659   16.7457  582.5266   -0.0090    2.7085 -999.0000   50.4781 
8644.0000    7.7659   20.8405  503.4802   -0.0090    2.7202 -999.0000   50.3187 
8644.5000    7.7659   33.1760  370.3136   -0.0054    2.7276 -999.0000   51.0359 
8645.0000    7.7659   32.6626  242.3055   -0.0030    2.7205 -999.0000   51.3546 
8645.5000    7.7659   35.7818  221.9904   -0.0019    2.7088 -999.0000   52.6295 
8646.0000    7.7659   37.5278  183.5574   -0.0007    2.7026 -999.0000   53.7450 
8646.5000    7.7659   41.1362  150.5568    0.0005    2.6979 -999.0000   54.4622 
8647.0000    7.7659   41.6488  170.4483    0.0013    2.6918 -999.0000   54.7809 
8647.5000    7.7659   39.4405  212.0040    0.0017    2.6871 -999.0000   54.2231 
8648.0000    7.7659   34.5984  263.7928   -0.0007    2.6786 -999.0000   53.1076 
8648.5000    7.7659   31.2570  329.2199   -0.0024    2.6940 -999.0000   51.9124 
8649.0000    7.7659   30.0828  295.0371   -0.0054    2.6964 -999.0000   51.3546 
8649.5000    7.7659   32.4131  274.3052   -0.0066    2.6971 -999.0000   51.1952 
8650.0000    7.7659   33.8117  280.4500   -0.0066    2.6944 -999.0000   51.1952 
8650.5000    7.7659   34.8547  283.0501   -0.0078    2.6927 -999.0000   51.3798 
8651.0000    7.7659   35.4286  285.6222   -0.0078    2.6899 -999.0000   51.8327 
8651.5000    7.7659   36.1447  225.8161   -0.0054    2.6816 -999.0000   52.3904 
8652.0000    7.7659   36.2503  201.8358   -0.0036    2.6768 -999.0000   52.7092 
8652.5000    7.7659   35.2846  182.4939   -0.0019    2.6829 -999.0000   53.9044 
8653.0000    7.7659   36.0333  137.5091   -0.0001    2.7210 -999.0000   53.8247 
8653.5000    7.7659   37.7667  179.1974    0.0005    2.7283 -999.0000   53.3466 
8654.0000    7.7659   39.3819  296.2545    0.0005    2.7299 -999.0000   53.3466 
8654.5000    7.7659   50.7476  252.6147    0.0005    2.7208 -999.0000   53.2669 
8655.0000    7.7659   55.0298  175.0223    0.0011    2.7216 -999.0000   53.7450 
8655.5000    7.7659   56.3480  106.4683    0.0041    2.7232 -999.0000   55.2098 
8656.0000    7.7659   55.6697  112.6740    0.0071    2.7151 -999.0000   55.5211 
8656.5000    7.7659   54.9335  140.0452    0.0065    2.7003 -999.0000   55.8258 
8657.0000    7.7659   55.1843  145.2583    0.0065    2.6526 -999.0000   55.8111 
8657.5000    7.7659   46.9596   91.9874    0.0065    2.6553 -999.0000   55.3215 
8658.0000    7.7659   41.1559  130.8531    0.0059    2.6492 -999.0000   55.1575 
8658.5000    7.7659   36.0667  194.9124    0.0005    2.7163 -999.0000   54.0429 
8659.0000    7.7659   35.2941  266.0282   -0.0024    2.7167 -999.0000   52.5333 
8659.5000    7.7659   35.4614  234.2031   -0.0042    2.7081 -999.0000   51.5139 
8660.0000    7.7659   36.6779  206.1852   -0.0042    2.7122 -999.0000   51.5936 
8660.5000    7.7659   40.3792  181.5191   -0.0019    2.7164 -999.0000   52.3108 
8661.0000    7.7659   41.0857  171.2260   -0.0001    2.7076 -999.0000   52.7888 
8661.5000    7.7659   42.6706  178.3915    0.0017    2.6978 -999.0000   53.0279 
8662.0000    7.7659   39.9009  186.7430   -0.0001    2.7011 -999.0000   53.0279 
8662.5000    7.7659   38.3615  194.6257   -0.0019    2.7063 -999.0000   52.8685 
8663.0000    7.7659   36.2508  194.4143   -0.0019    2.7009 -999.0000   52.6295 
8663.5000    7.7659   35.2872  227.2940   -0.0030    2.6891 -999.0000   52.0086 
8664.0000    7.7659   34.9926  269.6356   -0.0030    2.6960 -999.0000   51.6079 
8664.5000    7.7659   33.5755  259.7773   -0.0042    2.7091 -999.0000   51.2049 
8665.0000    7.7659   33.8826  238.8184   -0.0030    2.7126 -999.0000   51.1204 
8665.5000    7.7659   33.0103  221.1469   -0.0030    2.7112 -999.0000   51.2768 
8666.0000    7.7659   33.0658  253.7250   -0.0042    2.7170 -999.0000   51.2761 
8666.5000    7.7659   29.2343  287.6717   -0.0054    2.7182 -999.0000   50.9588 
8667.0000    7.7659   26.6919  270.0886   -0.0072    2.7181 -999.0000   50.7171 
